Time,sensPitch,sensRoll,sensYaw,xGyro,yGyro,ZGyro,xAcc,yAcc,zAcc,latitude,longitude,altitude
6033,-0.94,2.62,-0.06,-0.19,0.25,-0.06,0.01,0.04,-0.25,0.00,0.00,0.56
6042,-0.94,2.62,-0.06,-0.19,0.25,-0.06,0.01,0.02,-0.26,0.00,0.00,0.54
6051,-0.94,2.62,-0.06,-0.06,0.06,-0.06,0.00,0.01,-0.21,0.00,0.00,0.54
6061,-0.94,2.62,-0.06,-0.06,-0.06,0.00,0.00,0.03,-0.24,0.00,0.00,0.55
6071,-0.94,2.62,-0.06,-0.06,-0.06,0.06,0.00,0.03,-0.24,0.00,0.00,0.53
6081,-0.94,2.62,-0.06,-0.12,0.19,0.00,0.01,0.03,-0.24,0.00,0.00,0.56
6091,-0.94,2.62,-0.06,0.06,0.25,0.00,0.02,0.03,-0.25,0.00,0.00,0.55
6101,-0.94,2.62,-0.06,0.06,0.12,-0.12,0.00,0.05,-0.23,0.00,0.00,0.54
6111,-0.94,2.62,-0.06,0.00,-0.06,0.06,0.00,0.03,-0.26,0.00,0.00,0.54
6121,-0.94,2.62,-0.06,-0.12,0.06,0.12,0.00,0.03,-0.27,0.00,0.00,0.53
6131,-0.94,2.62,-0.06,0.00,-0.19,0.00,0.00,0.01,-0.24,0.00,0.00,0.53
6140,-0.94,2.62,-0.06,-0.19,-0.12,0.06,0.00,0.01,-0.24,0.00,0.00,0.53
6150,-0.94,2.62,-0.06,-0.06,-0.19,0.00,0.00,0.03,-0.25,0.00,0.00,0.53
6163,-0.94,2.62,-0.06,-0.12,-0.12,0.12,0.01,0.00,-0.24,0.00,0.00,0.51
6909,-0.94,2.62,-0.06,-0.12,-0.25,-0.06,0.00,0.01,-0.24,0.00,0.00,0.53
6920,-0.94,2.62,-0.06,-0.06,-0.38,0.00,0.01,0.02,-0.25,0.00,0.00,0.52
6929,-0.94,2.62,-0.06,0.00,0.25,0.00,0.01,0.03,-0.22,0.00,0.00,0.53
6938,-0.94,2.62,-0.06,0.00,0.25,0.00,0.01,0.03,-0.22,0.00,0.00,0.53
6948,-0.94,2.62,-0.06,-0.12,-0.19,0.06,0.00,0.00,-0.23,0.00,0.00,0.53
6958,-0.94,2.62,-0.06,-0.06,-0.06,0.06,0.01,0.04,-0.25,0.00,0.00,0.53
6970,-0.94,2.62,-0.06,0.00,-0.19,0.06,0.01,0.02,-0.21,0.00,0.00,0.52
6979,-0.94,2.62,-0.06,0.00,0.00,0.00,0.00,0.03,-0.26,0.00,0.00,0.52
6990,-0.94,2.62,-0.06,0.00,0.00,0.00,0.00,0.01,-0.22,0.00,0.00,0.53
6999,-0.94,2.62,-0.06,-0.06,-0.25,0.06,0.00,0.01,-0.25,0.00,0.00,0.51
7011,-0.94,2.62,-0.06,-0.06,-0.25,0.06,0.00,0.03,-0.26,0.00,0.00,0.52
7019,-0.94,2.62,-0.06,-0.06,-0.12,-0.19,0.00,0.02,-0.28,0.00,0.00,0.53
7031,-0.94,2.62,-0.06,-0.06,-0.12,-0.19,0.00,0.03,-0.23,0.00,0.00,0.53
7039,-0.94,2.62,-0.06,0.06,0.00,0.12,0.00,0.00,-0.23,0.00,0.00,0.53
7072,-0.94,2.62,-0.06,0.12,0.00,0.06,-0.01,0.01,-0.24,0.00,0.00,0.53
7080,-0.94,2.62,-0.06,0.06,0.00,-0.06,0.00,0.01,-0.24,0.00,0.00,0.54
7090,-0.94,2.62,-0.06,0.06,0.00,-0.06,0.01,0.01,-0.24,0.00,0.00,0.53
7099,-0.94,2.62,-0.06,0.12,0.00,0.06,0.00,0.01,-0.25,0.00,0.00,0.54
7108,-0.94,2.62,-0.06,0.12,0.00,0.06,0.00,0.01,-0.23,0.00,0.00,0.55
7118,-0.94,2.62,-0.06,0.00,0.06,-0.12,0.00,0.01,-0.23,0.00,0.00,0.53
7128,-0.94,2.62,-0.06,0.12,0.06,0.00,0.00,0.05,-0.23,0.00,0.00,0.54
7137,-0.94,2.62,-0.06,-0.12,-0.25,0.06,0.01,0.02,-0.24,0.00,0.00,0.54
7147,-0.94,2.62,-0.06,-0.06,-0.12,0.00,-0.01,0.03,-0.22,0.00,0.00,0.54
7157,-0.94,2.62,-0.06,0.06,0.06,0.12,0.00,0.02,-0.26,0.00,0.00,0.54
7168,-0.94,2.62,-0.06,-0.06,-0.19,0.12,0.00,0.04,-0.27,0.00,0.00,0.53
7178,-0.94,2.62,-0.06,0.06,0.19,-0.06,0.00,0.04,-0.24,0.00,0.00,0.52
7191,-0.94,2.62,-0.06,-0.06,0.00,0.12,0.00,0.04,-0.24,0.00,0.00,0.52
7199,-0.94,2.62,-0.06,-0.06,0.12,0.00,0.00,0.04,-0.24,0.00,0.00,0.53
7208,-0.94,2.62,-0.06,-0.06,0.12,0.00,0.00,0.02,-0.24,0.00,0.00,0.53
7239,-0.94,2.62,-0.06,0.19,0.06,0.00,0.00,0.01,-0.21,0.00,0.00,0.53
7248,-0.94,2.62,-0.06,0.25,0.06,-0.06,0.00,0.04,-0.23,0.00,0.00,0.53
7260,-0.94,2.62,-0.06,0.25,0.06,-0.06,0.00,0.01,-0.26,0.00,0.00,0.52
7268,-0.94,2.62,-0.06,0.00,-0.12,0.06,0.00,0.01,-0.22,0.00,0.00,0.53
7281,-0.94,2.62,-0.06,0.00,-0.12,0.06,0.02,0.02,-0.23,0.00,0.00,0.54
7289,-0.94,2.62,-0.06,0.00,0.06,0.06,-0.01,0.05,-0.23,0.00,0.00,0.53
7301,-0.94,2.62,-0.06,0.00,0.06,0.06,0.00,0.00,-0.22,0.00,0.00,0.52
7309,-0.94,2.62,-0.06,0.06,0.06,-0.06,-0.01,0.02,-0.26,0.00,0.00,0.53
7322,-0.94,2.62,-0.06,0.06,0.06,0.00,0.00,0.01,-0.25,0.00,0.00,0.52
7329,-0.94,2.62,-0.06,0.06,0.12,0.00,0.00,0.04,-0.25,0.00,0.00,0.52
7341,-0.94,2.62,-0.06,0.12,0.12,0.06,0.02,0.01,-0.23,0.00,0.00,0.54
7349,-0.94,2.62,-0.06,0.00,0.00,-0.06,0.00,0.00,-0.25,0.00,0.00,0.54
7357,-0.94,2.62,-0.06,0.00,0.00,-0.06,0.00,0.02,-0.26,0.00,0.00,0.53
7367,-0.94,2.62,-0.06,-0.12,0.25,0.00,0.01,0.01,-0.26,0.00,0.00,0.52
7379,-0.94,2.62,-0.06,0.06,0.19,-0.12,0.01,0.01,-0.26,0.00,0.00,0.53
7427,-0.94,2.62,-0.06,0.06,0.25,-0.06,0.01,0.03,-0.24,0.00,0.00,0.52
7437,-0.94,2.62,-0.06,-0.06,-0.19,0.06,0.01,0.03,-0.24,0.00,0.00,0.54
7447,-0.94,2.62,-0.06,0.00,-0.06,0.06,0.00,0.01,-0.24,0.00,0.00,0.52
7459,-0.94,2.62,-0.06,0.00,0.00,-0.06,0.02,0.02,-0.26,0.00,0.00,0.52
7467,-0.94,2.62,-0.06,-0.12,-0.19,-0.06,0.01,0.03,-0.25,0.00,0.00,0.52
7477,-0.94,2.62,-0.06,-0.12,-0.19,-0.06,0.01,0.00,-0.27,0.00,0.00,0.53
7486,-0.94,2.62,-0.06,0.06,-0.25,0.00,0.00,0.01,-0.24,0.00,0.00,0.54
7496,-0.94,2.62,-0.06,-0.06,-0.12,0.12,0.00,0.01,-0.24,0.00,0.00,0.51
7506,-0.94,2.62,-0.06,0.06,0.06,-0.06,0.00,0.02,-0.23,0.00,0.00,0.53
7518,-0.94,2.62,-0.06,-0.06,-0.38,0.12,0.00,0.03,-0.27,0.00,0.00,0.52
7527,-0.94,2.62,-0.06,0.06,-0.19,-0.06,0.01,0.03,-0.26,0.00,0.00,0.53
7537,-0.94,2.62,-0.06,-0.25,-0.31,0.12,0.01,0.03,-0.26,0.00,0.00,0.54
7546,-0.94,2.62,-0.06,0.06,-0.38,0.06,0.00,0.01,-0.24,0.00,0.00,0.55
7556,-0.94,2.62,-0.06,-0.06,-0.12,0.06,0.00,0.03,-0.27,0.00,0.00,0.54
7589,-0.94,2.62,-0.06,0.31,0.25,-0.06,0.00,0.01,-0.26,0.00,0.00,0.54
7597,-0.94,2.62,-0.06,0.00,0.06,0.19,0.01,0.03,-0.22,0.00,0.00,0.54
7608,-0.94,2.62,-0.06,0.00,0.06,0.19,0.00,0.02,-0.26,0.00,0.00,0.54
7617,-0.94,2.62,-0.06,0.00,-0.06,0.00,0.00,0.02,-0.24,0.00,0.00,0.53
7628,-0.94,2.62,-0.06,0.06,0.06,0.06,0.00,0.02,-0.23,0.00,0.00,0.55
7636,-0.94,2.62,-0.06,0.19,-0.12,0.06,0.00,0.01,-0.22,0.00,0.00,0.53
7648,-0.94,2.62,-0.06,0.06,-0.31,-0.06,-0.02,0.03,-0.23,0.00,0.00,0.53
7656,-0.94,2.62,-0.06,0.00,-0.19,0.00,0.00,0.04,-0.26,0.00,0.00,0.54
7666,-0.94,2.62,-0.06,0.19,-0.12,-0.06,0.00,0.01,-0.25,0.00,0.00,0.54
7676,-0.94,2.62,-0.06,0.06,0.00,0.06,0.00,0.05,-0.24,0.00,0.00,0.52
7689,-0.94,2.62,-0.06,-0.06,-0.31,-0.06,0.00,0.05,-0.24,0.00,0.00,0.53
7697,-0.94,2.62,-0.06,-0.06,0.06,0.00,0.00,0.03,-0.22,0.00,0.00,0.53
7706,-0.94,2.62,-0.06,-0.06,0.06,0.00,0.00,0.02,-0.23,0.00,0.00,0.54
7716,-0.94,2.62,-0.06,0.12,-0.25,-0.06,0.00,0.02,-0.23,0.00,0.00,0.52
7728,-0.94,2.62,-0.06,0.00,-0.12,-0.12,0.01,0.03,-0.23,0.00,0.00,0.52
7758,-0.94,2.62,-0.06,-0.12,-0.19,0.06,0.00,0.03,-0.24,0.00,0.00,0.52
7769,-0.94,2.62,-0.06,-0.06,0.00,0.00,0.00,0.02,-0.25,0.00,0.00,0.52
7777,-0.94,2.62,-0.06,0.00,0.06,0.06,0.00,0.01,-0.21,0.00,0.00,0.53
7789,-0.94,2.62,-0.06,0.00,0.06,0.06,0.00,0.01,-0.21,0.00,0.00,0.54
7797,-0.94,2.62,-0.06,-0.12,-0.19,0.06,0.00,0.01,-0.23,0.00,0.00,0.52
7809,-0.94,2.62,-0.06,-0.12,-0.19,0.06,0.01,0.02,-0.26,0.00,0.00,0.52
7817,-0.94,2.62,-0.06,0.00,-0.25,0.06,0.00,0.00,-0.23,0.00,0.00,0.53
7828,-0.94,2.62,-0.06,0.00,-0.25,0.06,0.01,0.01,-0.23,0.00,0.00,0.52
7836,-0.94,2.62,-0.06,0.12,-0.12,-0.06,0.00,0.03,-0.22,0.00,0.00,0.54
7847,-0.94,2.62,-0.06,0.12,-0.12,-0.06,0.00,0.05,-0.22,0.00,0.00,0.53
7856,-0.94,2.62,-0.06,-0.06,-0.12,0.06,-0.01,0.01,-0.25,0.00,0.00,0.53
7865,-0.94,2.62,-0.06,0.06,-0.25,-0.06,0.01,0.03,-0.25,0.00,0.00,0.53
7877,-0.94,2.62,-0.06,0.19,0.00,0.06,0.01,0.03,-0.25,0.00,0.00,0.52
7886,-0.94,2.62,-0.06,0.06,-0.12,0.06,0.00,0.00,-0.22,0.00,0.00,0.54
7920,-0.94,2.62,-0.06,-0.06,0.12,-0.12,0.00,0.04,-0.25,0.00,0.00,0.52
7928,-0.94,2.62,-0.06,-0.31,-0.19,0.12,0.00,0.01,-0.22,0.00,0.00,0.53
7939,-0.94,2.62,-0.06,0.06,0.00,-0.06,0.01,0.02,-0.24,0.00,0.00,0.52
7946,-0.94,2.62,-0.06,0.06,0.12,-0.06,0.00,0.00,-0.22,0.00,0.00,0.52
7956,-0.94,2.62,-0.06,0.06,0.12,-0.06,0.00,0.01,-0.25,0.00,0.00,0.53
7966,-0.94,2.62,-0.06,0.12,-0.12,0.12,0.00,0.03,-0.23,0.00,0.00,0.52
7976,-0.94,2.62,-0.06,0.12,0.00,0.06,0.00,0.03,-0.25,0.00,0.00,0.52
7984,-0.94,2.62,-0.06,0.00,0.06,0.12,0.00,0.01,-0.20,0.00,0.00,0.53
7994,-0.94,2.62,-0.06,0.00,0.12,0.00,0.00,0.01,-0.20,0.00,0.00,0.54
8004,-0.94,2.62,-0.06,0.06,0.00,0.06,0.00,0.01,-0.24,0.00,0.00,0.54
8014,-0.94,2.62,-0.06,0.00,0.25,0.00,-0.01,0.00,-0.25,0.00,0.00,0.53
8024,-0.94,2.62,-0.06,0.00,0.06,0.06,0.00,0.01,-0.27,0.00,0.00,0.53
8032,-0.94,2.62,-0.06,0.06,0.00,0.06,0.00,0.01,-0.24,0.00,0.00,0.54
8043,-0.94,2.62,-0.06,0.00,0.25,-0.06,0.00,0.03,-0.22,0.00,0.00,0.53
8054,-0.94,2.62,-0.06,-0.06,0.12,0.12,0.00,0.03,-0.23,0.00,0.00,0.53
8087,-0.94,2.62,-0.06,0.06,0.00,0.00,-0.01,0.03,-0.25,0.00,0.00,0.53
8095,-0.94,2.62,-0.06,-0.12,-0.38,0.06,0.00,0.01,-0.25,0.00,0.00,0.52
8105,-0.94,2.62,-0.06,-0.12,-0.38,0.06,0.00,0.02,-0.24,0.00,0.00,0.53
8115,-0.94,2.62,-0.06,0.25,-0.06,0.06,0.00,0.02,-0.27,0.00,0.00,0.53
8125,-0.94,2.62,-0.06,0.06,-0.12,0.06,0.01,0.01,-0.23,0.00,0.00,0.52
8134,-0.94,2.62,-0.06,0.06,0.00,0.12,0.01,0.01,-0.23,0.00,0.00,0.52
8144,-0.94,2.62,-0.06,-0.06,0.31,0.00,0.00,0.03,-0.24,0.00,0.00,0.54
8154,-0.94,2.62,-0.06,-0.12,0.12,0.06,0.00,0.04,-0.26,0.00,0.00,0.52
8164,-0.94,2.62,-0.06,-0.12,-0.25,-0.12,0.00,0.01,-0.24,0.00,0.00,0.53
8174,-0.94,2.62,-0.06,-0.06,-0.06,0.00,0.00,0.00,-0.25,0.00,0.00,0.54
8183,-0.94,2.62,-0.06,0.06,0.12,0.06,0.00,0.01,-0.25,0.00,0.00,0.51
8194,-0.94,2.62,-0.06,0.12,-0.25,0.12,0.00,0.01,-0.22,0.00,0.00,0.53
8204,-0.94,2.62,-0.06,0.19,0.19,0.00,0.00,0.00,-0.23,0.00,0.00,0.54
8213,-0.94,2.62,-0.06,0.12,0.12,-0.12,0.00,0.03,-0.24,0.00,0.00,0.54
8244,-0.94,2.62,-0.06,-0.06,-0.06,0.19,0.00,0.02,-0.21,0.00,0.00,0.54
8254,-0.94,2.62,-0.06,-0.06,0.12,-0.19,0.00,0.03,-0.27,0.00,0.00,0.53
8266,-0.94,2.62,-0.06,-0.12,0.44,-0.12,0.00,0.03,-0.27,0.00,0.00,0.52
8275,-0.94,2.62,-0.06,0.12,0.19,0.06,0.00,0.01,-0.21,0.00,0.00,0.53
8285,-0.94,2.62,-0.06,0.19,0.06,0.00,0.01,0.01,-0.25,0.00,0.00,0.53
8294,-0.94,2.62,-0.06,0.25,0.31,0.06,0.00,0.02,-0.22,0.00,0.00,0.53
8304,-0.94,2.62,-0.06,0.12,0.00,-0.06,0.00,0.01,-0.25,0.00,0.00,0.53
8314,-0.94,2.62,-0.06,0.00,-0.06,0.06,0.00,0.02,-0.22,0.00,0.00,0.53
8324,-0.94,2.62,-0.06,0.06,-0.06,-0.12,0.02,0.03,-0.24,0.00,0.00,0.53
8333,-0.94,2.62,-0.06,0.00,0.00,0.00,0.02,0.03,-0.24,0.00,0.00,0.53
8345,-0.94,2.62,-0.06,0.00,0.06,0.00,0.00,0.01,-0.26,0.00,0.00,0.51
8354,-0.94,2.62,-0.06,0.00,0.06,0.00,0.00,0.02,-0.23,0.00,0.00,0.54
8364,-0.94,2.62,-0.06,0.00,0.06,0.06,0.01,0.01,-0.23,0.00,0.00,0.54
8374,-0.94,2.62,-0.06,0.06,0.19,-0.06,0.00,0.01,-0.25,0.00,0.00,0.52
8386,-0.94,2.62,-0.06,-0.06,0.25,0.12,0.00,0.01,-0.25,0.00,0.00,0.51
8415,-0.94,2.62,-0.06,0.25,-0.12,-0.12,0.00,0.02,-0.25,0.00,0.00,0.53
8428,-0.94,2.62,-0.06,0.00,0.06,0.00,0.00,0.03,-0.22,0.00,0.00,0.53
8435,-0.94,2.62,-0.06,0.00,0.00,0.00,0.00,0.00,-0.24,0.00,0.00,0.54
8447,-0.94,2.62,-0.06,0.00,-0.06,0.12,0.00,0.01,-0.28,0.00,0.00,0.52
8455,-0.94,2.62,-0.06,0.00,-0.12,0.00,0.00,0.03,-0.24,0.00,0.00,0.52
8466,-0.94,2.62,-0.06,0.00,-0.12,0.00,0.00,0.01,-0.25,0.00,0.00,0.52
8474,-0.94,2.62,-0.06,-0.06,-0.06,-0.06,0.00,0.01,-0.23,0.00,0.00,0.54
8485,-0.94,2.62,-0.06,-0.06,-0.06,-0.06,0.00,0.01,-0.24,0.00,0.00,0.52
8494,-0.94,2.62,-0.06,-0.31,-0.12,-0.06,-0.01,0.00,-0.26,0.00,0.00,0.52
8505,-0.94,2.62,-0.06,-0.31,-0.12,-0.06,0.00,0.03,-0.25,0.00,0.00,0.54
8514,-0.94,2.62,-0.06,0.12,-0.06,0.06,-0.01,0.02,-0.25,0.00,0.00,0.53
8523,-0.94,2.62,-0.06,0.12,-0.06,0.06,0.00,0.01,-0.22,0.00,0.00,0.54
8532,-0.94,2.62,-0.06,0.00,0.06,0.06,0.00,0.01,-0.22,0.00,0.00,0.53
8544,-0.94,2.62,-0.06,-0.06,-0.06,-0.06,0.00,0.04,-0.20,0.00,0.00,0.52
8553,-0.94,2.62,-0.06,0.00,-0.06,0.00,0.00,0.01,-0.27,0.00,0.00,0.53
8586,-0.94,2.62,-0.06,0.19,0.12,0.12,0.00,0.03,-0.23,0.00,0.00,0.54
8594,-0.94,2.62,-0.06,-0.12,-0.19,0.06,0.00,0.03,-0.23,0.00,0.00,0.53
8607,-0.94,2.62,-0.06,-0.12,-0.19,0.06,0.00,0.03,-0.25,0.00,0.00,0.52
8618,-0.94,2.62,-0.06,0.06,0.19,-0.06,0.01,0.01,-0.26,0.00,0.00,0.52
8626,-0.94,2.62,-0.06,0.00,-0.06,0.12,-0.01,0.03,-0.24,0.00,0.00,0.54
8634,-0.94,2.62,-0.06,0.06,-0.12,0.00,0.00,0.02,-0.23,0.00,0.00,0.54
8643,-0.94,2.62,-0.06,0.06,-0.12,0.00,0.00,0.03,-0.25,0.00,0.00,0.51
8653,-0.94,2.62,-0.06,-0.12,0.06,0.12,0.00,0.00,-0.25,0.00,0.00,0.52
8662,-0.94,2.62,-0.06,-0.06,-0.12,0.12,0.00,0.03,-0.24,0.00,0.00,0.52
8672,-0.94,2.62,-0.06,0.06,0.12,0.00,0.00,0.01,-0.22,0.00,0.00,0.53
8681,-0.94,2.62,-0.06,-0.06,0.12,0.00,0.00,0.01,-0.22,0.00,0.00,0.54
8693,-0.94,2.62,-0.06,-0.06,-0.06,0.06,0.00,0.01,-0.24,0.00,0.00,0.52
8703,-0.94,2.62,-0.06,0.00,-0.19,0.06,0.00,0.01,-0.27,0.00,0.00,0.52
8714,-0.94,2.62,-0.06,-0.12,-0.19,0.06,0.00,0.04,-0.23,0.00,0.00,0.52
8744,-0.94,2.62,-0.06,-0.12,0.06,0.00,0.00,0.02,-0.25,0.00,0.00,0.53
8754,-0.94,2.62,-0.06,-0.12,0.06,0.00,0.00,0.00,-0.23,0.00,0.00,0.53
8763,-0.94,2.62,-0.06,-0.19,-0.12,0.00,0.00,0.03,-0.24,0.00,0.00,0.53
8772,-0.94,2.62,-0.06,-0.19,-0.12,0.00,0.01,0.02,-0.25,0.00,0.00,0.53
8781,-0.94,2.62,-0.06,0.12,-0.06,0.00,0.01,0.02,-0.25,0.00,0.00,0.53
8791,-0.94,2.62,-0.06,-0.06,0.19,0.00,0.00,0.03,-0.25,0.00,0.00,0.53
8802,-0.94,2.62,-0.06,0.06,-0.06,0.00,0.01,0.02,-0.23,0.00,0.00,0.52
8813,-0.94,2.62,-0.06,0.00,0.25,0.00,0.00,0.03,-0.23,0.00,0.00,0.54
8822,-0.94,2.62,-0.06,-0.12,-0.25,0.12,0.00,0.04,-0.24,0.00,0.00,0.53
8831,-0.94,2.62,-0.06,0.12,-0.44,0.12,0.00,0.04,-0.24,0.00,0.00,0.53
8841,-0.94,2.62,-0.06,0.12,-0.19,0.12,0.00,0.03,-0.20,0.00,0.00,0.53
8853,-0.94,2.62,-0.06,-0.06,-0.19,0.06,0.01,0.02,-0.24,0.00,0.00,0.54
8862,-0.94,2.62,-0.06,0.06,0.31,-0.06,0.00,0.04,-0.25,0.00,0.00,0.53
8876,-0.94,2.62,-0.06,-0.12,0.12,0.06,0.00,0.01,-0.24,0.00,0.00,0.53
8884,-0.94,2.62,-0.06,-0.06,0.12,0.00,0.00,0.02,-0.19,0.00,0.00,0.53
8917,-0.94,2.62,-0.06,-0.19,-0.06,0.00,0.00,0.00,-0.24,0.00,0.00,0.52
8929,-0.94,2.62,-0.06,-0.31,-0.12,0.00,0.00,0.03,-0.24,0.00,0.00,0.52
8943,-0.94,2.62,-0.06,-0.25,-0.19,-0.06,0.00,0.03,-0.23,0.00,0.00,0.55
8952,-0.94,2.62,-0.06,0.00,0.25,-0.12,0.00,0.04,-0.26,0.00,0.00,0.54
8964,-0.94,2.62,-0.06,0.06,0.19,0.12,0.00,0.04,-0.23,0.00,0.00,0.53
8973,-0.94,2.62,-0.06,0.06,0.00,0.00,0.01,0.02,-0.27,0.00,0.00,0.52
8985,-0.94,2.62,-0.06,0.06,0.00,0.00,0.00,0.01,-0.22,0.00,0.00,0.54
8993,-0.94,2.62,-0.06,-0.19,-0.06,0.19,0.00,0.01,-0.26,0.00,0.00,0.52
9005,-0.94,2.62,-0.06,-0.19,-0.06,0.19,0.01,0.02,-0.27,0.00,0.00,0.53
9013,-0.94,2.62,-0.06,0.06,0.12,0.06,0.00,0.03,-0.26,0.00,0.00,0.53
9023,-0.94,2.62,-0.06,0.06,0.12,0.06,0.00,0.03,-0.20,0.00,0.00,0.53
9032,-0.94,2.62,-0.06,0.00,0.06,0.06,-0.01,0.03,-0.24,0.00,0.00,0.52
9041,-0.94,2.62,-0.06,0.00,0.06,0.06,0.00,0.01,-0.27,0.00,0.00,0.52
9051,-0.94,2.62,-0.06,0.00,0.31,0.00,0.00,0.03,-0.25,0.00,0.00,0.55
9082,-0.94,2.62,-0.06,0.00,0.19,0.00,0.00,0.02,-0.23,0.00,0.00,0.53
9091,-0.94,2.62,-0.06,0.00,0.19,0.00,0.00,0.02,-0.23,0.00,0.00,0.54
9101,-0.94,2.62,-0.06,0.00,0.12,0.19,0.00,0.02,-0.25,0.00,0.00,0.52
9111,-0.94,2.62,-0.06,-0.06,-0.19,0.12,0.00,0.01,-0.24,0.00,0.00,0.54
9121,-0.94,2.62,-0.06,0.06,0.12,-0.12,0.00,0.01,-0.23,0.00,0.00,0.53
9132,-0.94,2.62,-0.06,0.12,0.19,-0.06,0.00,0.01,-0.23,0.00,0.00,0.54
9141,-0.94,2.62,-0.06,0.06,0.44,0.00,0.01,0.03,-0.22,0.00,0.00,0.53
9153,-0.94,2.62,-0.06,0.12,0.06,0.06,0.00,0.03,-0.26,0.00,0.00,0.52
9162,-0.94,2.62,-0.06,0.31,0.19,0.00,0.01,0.02,-0.25,0.00,0.00,0.52
9174,-0.94,2.62,-0.06,0.31,0.19,0.00,0.00,0.01,-0.25,0.00,0.00,0.52
9182,-0.94,2.62,-0.06,0.00,0.06,0.12,0.00,0.04,-0.22,0.00,0.00,0.53
9193,-0.94,2.62,-0.06,0.00,0.06,0.12,0.00,0.03,-0.24,0.00,0.00,0.54
9202,-0.94,2.62,-0.06,-0.19,-0.31,0.12,0.00,0.04,-0.26,0.00,0.00,0.52
9214,-0.94,2.62,-0.06,-0.19,-0.31,0.12,0.00,0.01,-0.23,0.00,0.00,0.52
9222,-0.94,2.62,-0.06,-0.06,-0.12,0.06,0.00,0.02,-0.24,0.00,0.00,0.51
9255,-0.94,2.62,-0.06,-0.06,0.00,0.06,0.00,0.02,-0.27,0.00,0.00,0.53
9262,-0.94,2.62,-0.06,-0.12,0.12,0.12,0.00,0.04,-0.24,0.00,0.00,0.53
9273,-0.94,2.62,-0.06,-0.12,0.12,0.12,0.00,0.01,-0.27,0.00,0.00,0.53
9281,-0.94,2.62,-0.06,0.00,-0.06,0.06,0.00,0.03,-0.25,0.00,0.00,0.53
9293,-0.94,2.62,-0.06,0.00,-0.06,0.06,0.00,0.02,-0.24,0.00,0.00,0.53
9301,-0.94,2.62,-0.06,0.00,-0.06,0.00,-0.01,0.04,-0.23,0.00,0.00,0.53
9310,-0.94,2.62,-0.06,0.00,-0.06,0.00,0.00,0.02,-0.25,0.00,0.00,0.52
9320,-0.94,2.62,-0.06,-0.06,-0.19,0.06,0.00,0.03,-0.25,0.00,0.00,0.53
9329,-0.94,2.62,-0.06,-0.12,0.19,-0.06,0.00,0.03,-0.25,0.00,0.00,0.54
9340,-0.94,2.62,-0.06,0.06,0.06,0.06,0.00,0.01,-0.25,0.00,0.00,0.53
9352,-0.94,2.62,-0.06,0.06,-0.12,0.00,-0.01,0.02,-0.25,0.00,0.00,0.54
9360,-0.94,2.62,-0.06,0.12,0.12,-0.12,0.00,0.02,-0.24,0.00,0.00,0.53
9373,-0.94,2.62,-0.06,0.06,0.00,0.00,0.00,0.01,-0.22,0.00,0.00,0.54
9381,-0.94,2.62,-0.06,-0.12,-0.06,0.06,0.00,0.01,-0.21,0.00,0.00,0.53
9394,-0.94,2.62,-0.06,-0.12,-0.06,0.06,0.00,0.01,-0.22,0.00,0.00,0.52
9424,-0.94,2.62,-0.06,0.06,0.06,-0.06,0.00,0.00,-0.22,0.00,0.00,0.51
9433,-0.94,2.62,-0.06,0.00,0.31,0.00,0.00,0.03,-0.23,0.00,0.00,0.54
9441,-0.94,2.62,-0.06,0.06,0.19,0.00,0.00,0.02,-0.24,0.00,0.00,0.53
9452,-0.94,2.62,-0.06,0.06,0.19,0.00,0.01,0.01,-0.25,0.00,0.00,0.53
9461,-0.94,2.62,-0.06,-0.12,0.19,-0.06,-0.01,0.01,-0.24,0.00,0.00,0.51
9473,-0.94,2.62,-0.06,-0.12,0.19,-0.06,0.00,0.03,-0.24,0.00,0.00,0.51
9481,-0.94,2.62,-0.06,0.06,0.12,0.00,0.01,0.03,-0.23,0.00,0.00,0.53
9492,-0.94,2.62,-0.06,0.06,0.12,0.00,0.00,0.04,-0.23,0.00,0.00,0.54
9500,-0.94,2.62,-0.06,-0.12,0.25,-0.06,0.00,0.02,-0.26,0.00,0.00,0.53
9511,-0.94,2.62,-0.06,-0.12,0.25,-0.06,0.00,0.03,-0.27,0.00,0.00,0.52
9520,-0.94,2.62,-0.06,0.00,-0.12,0.12,0.00,0.03,-0.26,0.00,0.00,0.52
9529,-0.94,2.62,-0.06,0.06,0.19,-0.12,0.00,0.03,-0.26,0.00,0.00,0.51
9539,-0.94,2.62,-0.06,0.00,0.19,0.12,0.00,0.02,-0.22,0.00,0.00,0.53
9549,-0.94,2.62,-0.06,0.00,-0.19,-0.06,0.00,0.01,-0.24,0.00,0.00,0.53
9580,-0.94,2.62,-0.06,0.00,0.12,0.06,0.00,0.01,-0.23,0.00,0.00,0.53
9591,-0.94,2.62,-0.06,-0.25,-0.12,0.00,0.00,0.02,-0.19,0.00,0.00,0.53
9600,-0.94,2.62,-0.06,-0.25,-0.06,0.00,0.01,0.02,-0.25,0.00,0.00,0.53
9610,-0.94,2.62,-0.06,0.06,0.25,-0.25,0.00,0.02,-0.26,0.00,0.00,0.52
9619,-0.94,2.62,-0.06,0.12,-0.12,0.00,0.01,0.03,-0.24,0.00,0.00,0.53
9629,-0.94,2.62,-0.06,0.12,0.25,0.06,0.01,0.03,-0.24,0.00,0.00,0.53
9639,-0.94,2.62,-0.06,0.00,-0.06,0.00,0.00,0.01,-0.23,0.00,0.00,0.53
9650,-0.94,2.62,-0.06,0.12,-0.12,0.12,0.00,0.03,-0.25,0.00,0.00,0.53
9659,-0.94,2.62,-0.06,0.06,0.12,0.06,0.00,0.03,-0.26,0.00,0.00,0.54
9669,-0.94,2.62,-0.06,0.00,0.00,0.12,0.00,0.04,-0.26,0.00,0.00,0.52
9680,-0.94,2.62,-0.06,0.00,0.12,0.12,0.00,0.04,-0.26,0.00,0.00,0.53
9689,-0.94,2.62,-0.06,-0.06,0.12,0.12,0.00,0.02,-0.25,0.00,0.00,0.52
9700,-0.94,2.62,-0.06,-0.06,0.06,0.00,0.00,0.03,-0.25,0.00,0.00,0.53
9709,-0.94,2.62,-0.06,0.00,0.00,0.06,0.00,0.02,-0.23,0.00,0.00,0.55
9722,-0.94,2.62,-0.06,-0.06,0.06,0.19,0.00,0.02,-0.25,0.00,0.00,0.53
9753,-0.94,2.62,-0.06,-0.06,0.06,-0.06,0.01,0.05,-0.25,0.00,0.00,0.54
9764,-0.94,2.62,-0.06,0.06,0.44,-0.06,0.00,0.03,-0.25,0.00,0.00,0.52
9772,-0.94,2.62,-0.06,-0.19,0.19,-0.06,0.00,0.00,-0.23,0.00,0.00,0.52
9783,-0.94,2.62,-0.06,0.00,0.25,0.00,0.00,0.02,-0.21,0.00,0.00,0.53
9790,-0.94,2.62,-0.06,0.00,0.06,0.00,0.00,0.02,-0.23,0.00,0.00,0.52
9802,-0.94,2.62,-0.06,0.00,0.06,0.00,0.00,0.00,-0.24,0.00,0.00,0.53
9810,-0.94,2.62,-0.06,0.06,0.06,0.00,0.01,0.00,-0.22,0.00,0.00,0.52
9820,-0.94,2.62,-0.06,0.06,0.06,0.00,0.00,0.02,-0.20,0.00,0.00,0.53
9828,-0.94,2.62,-0.06,0.06,0.00,0.06,0.00,0.02,-0.24,0.00,0.00,0.53
9838,-0.94,2.62,-0.06,0.00,0.12,0.06,0.01,0.04,-0.22,0.00,0.00,0.53
9849,-0.94,2.62,-0.06,0.06,0.00,0.06,0.01,0.04,-0.22,0.00,0.00,0.52
9858,-0.94,2.62,-0.06,-0.12,0.06,0.12,0.01,0.01,-0.26,0.00,0.00,0.52
9868,-0.94,2.62,-0.06,0.12,-0.12,0.00,0.00,0.03,-0.23,0.00,0.00,0.54
9877,-0.94,2.62,-0.06,0.00,-0.12,0.00,0.00,0.03,-0.23,0.00,0.00,0.55
9887,-0.94,2.62,-0.06,0.06,0.19,0.00,0.00,0.02,-0.24,0.00,0.00,0.53
9919,-0.94,2.62,-0.06,0.25,0.12,0.06,0.00,0.03,-0.23,0.00,0.00,0.54
9928,-0.94,2.62,-0.06,0.06,0.00,0.12,0.00,0.03,-0.23,0.00,0.00,0.52
9938,-0.94,2.62,-0.06,-0.12,0.06,0.06,0.00,0.02,-0.24,0.00,0.00,0.54
9949,-0.94,2.62,-0.06,0.06,0.00,-0.06,0.00,0.02,-0.25,0.00,0.00,0.54
9958,-0.94,2.62,-0.06,0.12,0.00,-0.12,0.00,0.02,-0.22,0.00,0.00,0.52
9969,-0.94,2.62,-0.06,0.00,-0.06,0.00,0.00,0.04,-0.26,0.00,0.00,0.53
9978,-0.94,2.62,-0.06,0.06,-0.06,0.06,0.01,0.02,-0.24,0.00,0.00,0.52
9988,-0.94,2.62,-0.06,0.19,0.00,-0.12,0.00,0.03,-0.23,0.00,0.00,0.52
9997,-0.94,2.62,-0.06,0.00,0.00,0.00,0.01,0.02,-0.26,0.00,0.00,0.53
10008,-0.94,2.62,-0.06,-0.06,0.06,-0.19,0.01,0.02,-0.26,0.00,0.00,0.54
10018,-0.94,2.62,-0.06,-0.06,0.06,0.00,0.01,0.03,-0.23,0.00,0.00,0.51
10026,-0.94,2.62,-0.06,0.12,-0.12,-0.12,0.01,0.03,-0.23,0.00,0.00,0.53
10039,-0.94,2.62,-0.06,0.06,0.06,-0.12,0.02,0.02,-0.20,0.00,0.00,0.51
10048,-0.94,2.62,-0.06,0.12,0.44,-0.06,0.00,0.02,-0.26,0.00,0.00,0.53
10083,-0.94,2.62,-0.06,0.00,0.12,0.00,0.00,0.03,-0.23,0.00,0.00,0.53
10091,-0.94,2.62,-0.06,0.31,-0.19,0.00,0.00,0.01,-0.22,0.00,0.00,0.53
10101,-0.94,2.62,-0.06,-0.12,0.00,-0.12,0.00,0.01,-0.24,0.00,0.00,0.53
10109,-0.94,2.62,-0.06,-0.12,0.19,-0.06,0.00,0.02,-0.25,0.00,0.00,0.53
10119,-0.94,2.62,-0.06,-0.12,0.19,-0.06,0.01,0.04,-0.24,0.00,0.00,0.52
10128,-0.94,2.62,-0.06,0.00,0.00,0.00,0.00,0.02,-0.24,0.00,0.00,0.52
10139,-0.94,2.62,-0.06,0.00,0.00,0.00,0.01,0.00,-0.21,0.00,0.00,0.52
10148,-0.94,2.62,-0.06,-0.06,0.12,-0.06,0.00,0.01,-0.24,0.00,0.00,0.53
10158,-0.94,2.62,-0.06,-0.06,0.00,-0.06,0.00,0.01,-0.27,0.00,0.00,0.53
10168,-0.94,2.62,-0.06,-0.12,0.19,-0.12,-0.01,0.02,-0.25,0.00,0.00,0.51
10177,-0.94,2.62,-0.06,0.00,0.12,-0.06,-0.01,0.02,-0.25,0.00,0.00,0.53
10187,-0.94,2.62,-0.06,0.06,-0.12,-0.06,-0.01,0.04,-0.21,0.00,0.00,0.52
10197,-0.94,2.62,-0.06,0.12,0.12,-0.19,0.00,0.03,-0.22,0.00,0.00,0.51
10207,-0.94,2.62,-0.06,-0.12,0.25,0.00,-0.01,0.03,-0.27,0.00,0.00,0.52
10218,-0.94,2.62,-0.06,0.00,0.00,0.06,0.00,0.04,-0.26,0.00,0.00,0.53
10248,-0.94,2.62,-0.06,0.19,0.06,-0.12,0.01,0.02,-0.26,0.00,0.00,0.51
10257,-0.94,2.62,-0.06,0.19,0.06,-0.12,0.00,0.03,-0.28,0.00,0.00,0.53
10267,-0.94,2.62,-0.06,0.12,0.12,0.00,0.00,0.02,-0.23,0.00,0.00,0.53
10277,-0.94,2.62,-0.06,0.12,0.25,0.00,0.00,0.02,-0.23,0.00,0.00,0.52
10287,-0.94,2.62,-0.06,0.06,0.06,0.00,0.01,0.02,-0.24,0.00,0.00,0.52
10299,-0.94,2.62,-0.06,-0.12,-0.06,0.00,0.00,0.05,-0.26,0.00,0.00,0.52
10307,-0.94,2.62,-0.06,-0.06,-0.19,0.12,0.00,0.02,-0.23,0.00,0.00,0.52
10319,-0.94,2.62,-0.06,-0.06,-0.19,0.12,0.00,0.03,-0.22,0.00,0.00,0.53
10327,-0.94,2.62,-0.06,0.12,0.25,-0.06,0.00,0.01,-0.21,0.00,0.00,0.53
10339,-0.94,2.62,-0.06,0.12,0.25,-0.06,0.01,0.02,-0.22,0.00,0.00,0.53
10347,-0.94,2.62,-0.06,-0.06,0.19,-0.12,0.00,0.02,-0.25,0.00,0.00,0.51
10359,-0.94,2.62,-0.06,-0.06,0.19,-0.12,0.00,0.02,-0.25,0.00,0.00,0.54
10368,-0.94,2.62,-0.06,0.12,0.12,0.06,0.00,0.00,-0.23,0.00,0.00,0.54
10377,-0.94,2.62,-0.06,0.12,0.12,0.06,0.00,0.02,-0.20,0.00,0.00,0.53
10407,-0.94,2.62,-0.06,0.00,0.06,0.00,0.00,0.01,-0.23,0.00,0.00,0.54
10417,-0.94,2.62,-0.06,0.00,0.06,0.00,0.00,0.01,-0.22,0.00,0.00,0.53
10425,-0.94,2.62,-0.06,0.06,0.00,0.00,0.00,0.01,-0.22,0.00,0.00,0.53
10436,-0.94,2.62,-0.06,-0.06,0.00,-0.19,0.00,0.04,-0.26,0.00,0.00,0.54
10449,-0.94,2.62,-0.06,-0.06,0.19,-0.06,0.00,0.03,-0.23,0.00,0.00,0.52
10457,-0.94,2.62,-0.06,-0.06,-0.12,0.00,0.00,0.03,-0.24,0.00,0.00,0.53
10470,-0.94,2.62,-0.06,-0.06,-0.12,0.00,0.01,0.02,-0.23,0.00,0.00,0.53
10478,-0.94,2.62,-0.06,-0.06,-0.12,0.06,-0.01,0.04,-0.24,0.00,0.00,0.52
10489,-0.94,2.62,-0.06,-0.06,-0.12,0.06,0.00,0.00,-0.23,0.00,0.00,0.52
10497,-0.94,2.62,-0.06,0.00,-0.25,0.00,0.01,0.02,-0.27,0.00,0.00,0.53
10507,-0.94,2.62,-0.06,0.00,-0.25,0.00,0.00,0.03,-0.23,0.00,0.00,0.53
10516,-0.94,2.62,-0.06,-0.12,-0.19,0.06,0.01,0.02,-0.21,0.00,0.00,0.51
10525,-0.94,2.62,-0.06,0.00,-0.12,0.00,0.01,0.02,-0.21,0.00,0.00,0.55
10537,-0.94,2.62,-0.06,0.06,0.19,0.12,0.00,0.00,-0.21,0.00,0.00,0.54
10567,-0.94,2.62,-0.06,0.00,-0.12,-0.06,0.01,0.03,-0.24,0.00,0.00,0.55
10576,-0.94,2.62,-0.06,0.00,-0.12,-0.06,0.00,0.02,-0.21,0.00,0.00,0.54
10587,-0.94,2.62,-0.06,0.19,0.38,0.06,-0.01,0.02,-0.23,0.00,0.00,0.54
10596,-0.94,2.62,-0.06,0.12,0.00,0.00,0.00,0.02,-0.25,0.00,0.00,0.53
10606,-0.94,2.62,-0.06,0.06,-0.25,0.06,0.00,0.01,-0.26,0.00,0.00,0.53
10615,-0.94,2.62,-0.06,-0.06,-0.12,0.00,0.01,0.02,-0.24,0.00,0.00,0.53
10623,-0.94,2.62,-0.06,0.06,0.00,0.06,0.01,0.02,-0.24,0.00,0.00,0.52
10634,-0.94,2.62,-0.06,0.12,-0.06,0.00,0.00,0.05,-0.23,0.00,0.00,0.53
10644,-0.94,2.62,-0.06,0.06,-0.06,-0.06,0.00,0.02,-0.22,0.00,0.00,0.53
10655,-0.94,2.62,-0.06,0.00,-0.12,0.12,0.00,0.03,-0.26,0.00,0.00,0.53
10665,-0.94,2.62,-0.06,-0.06,-0.19,0.00,0.00,0.02,-0.26,0.00,0.00,0.54
10673,-0.94,2.62,-0.06,0.12,-0.06,0.00,0.01,0.02,-0.24,0.00,0.00,0.54
10683,-0.94,2.62,-0.06,-0.06,0.00,-0.06,0.00,0.01,-0.26,0.00,0.00,0.53
10694,-0.94,2.62,-0.06,0.00,0.06,-0.06,0.00,0.03,-0.24,0.00,0.00,0.54
10704,-0.94,2.62,-0.06,0.12,0.06,0.00,0.00,0.03,-0.25,0.00,0.00,0.53
10736,-0.94,2.62,-0.06,0.06,0.06,-0.06,0.00,0.00,-0.25,0.00,0.00,0.55
10745,-0.94,2.62,-0.06,0.06,0.06,0.00,0.00,0.03,-0.25,0.00,0.00,0.54
10755,-0.94,2.62,-0.06,0.00,0.25,0.00,-0.01,0.00,-0.22,0.00,0.00,0.52
10765,-0.94,2.62,-0.06,0.12,0.00,0.06,0.00,0.02,-0.24,0.00,0.00,0.54
10776,-0.94,2.62,-0.06,-0.12,0.06,0.00,0.00,0.02,-0.24,0.00,0.00,0.53
10785,-0.94,2.62,-0.06,-0.06,-0.06,0.00,0.00,0.04,-0.24,0.00,0.00,0.55
10796,-0.94,2.62,-0.06,0.00,-0.12,-0.06,0.00,0.02,-0.25,0.00,0.00,0.54
10805,-0.94,2.62,-0.06,0.00,0.06,0.00,0.01,0.02,-0.24,0.00,0.00,0.54
10815,-0.94,2.62,-0.06,0.00,-0.19,0.00,0.00,0.00,-0.24,0.00,0.00,0.53
10825,-0.94,2.62,-0.06,-0.06,-0.06,0.00,0.00,0.00,-0.24,0.00,0.00,0.55
10835,-0.94,2.62,-0.06,-0.06,-0.12,-0.12,0.00,0.01,-0.24,0.00,0.00,0.54
10846,-0.94,2.62,-0.06,0.00,0.12,0.00,0.00,0.01,-0.27,0.00,0.00,0.54
10855,-0.94,2.62,-0.06,-0.12,-0.06,0.12,0.00,0.02,-0.24,0.00,0.00,0.53
10867,-0.94,2.62,-0.06,0.06,0.00,-0.19,0.00,0.01,-0.26,0.00,0.00,0.54
10896,-0.94,2.62,-0.06,0.06,-0.19,0.06,0.00,0.03,-0.27,0.00,0.00,0.54
10908,-0.94,2.62,-0.06,-0.06,0.06,-0.06,0.00,0.00,-0.23,0.00,0.00,0.54
10916,-0.94,2.62,-0.06,-0.06,0.06,-0.06,0.00,0.02,-0.22,0.00,0.00,0.54
10928,-0.94,2.62,-0.06,-0.06,0.06,-0.06,0.00,0.02,-0.24,0.00,0.00,0.54
10936,-0.94,2.62,-0.06,0.00,-0.19,0.06,0.00,0.01,-0.25,0.00,0.00,0.52
10949,-0.94,2.62,-0.06,0.00,-0.19,0.06,0.00,0.01,-0.23,0.00,0.00,0.52
10956,-0.94,2.62,-0.06,0.00,0.06,0.00,0.00,0.02,-0.26,0.00,0.00,0.53
10968,-0.94,2.62,-0.06,0.00,0.06,0.00,0.00,0.00,-0.23,0.00,0.00,0.54
10976,-0.94,2.62,-0.06,-0.12,0.19,0.00,0.00,0.01,-0.24,0.00,0.00,0.53
10987,-0.94,2.62,-0.06,0.06,0.00,-0.06,0.00,0.02,-0.24,0.00,0.00,0.53
10995,-0.94,2.62,-0.06,0.00,0.00,0.06,0.02,0.03,-0.25,0.00,0.00,0.53
11007,-0.94,2.62,-0.06,0.00,0.00,0.06,0.00,0.00,-0.21,0.00,0.00,0.54
11015,-0.94,2.62,-0.06,-0.06,-0.06,-0.12,0.00,0.00,-0.23,0.00,0.00,0.54
11025,-0.94,2.62,-0.06,-0.06,-0.06,-0.12,-0.01,0.01,-0.21,0.00,0.00,0.54
11034,-0.94,2.62,-0.06,0.06,0.06,-0.12,0.00,0.04,-0.22,0.00,0.00,0.53
11066,-0.94,2.62,-0.06,0.00,0.06,-0.12,0.00,0.02,-0.24,0.00,0.00,0.54
11075,-0.94,2.62,-0.06,-0.19,0.06,-0.19,0.01,0.02,-0.26,0.00,0.00,0.52
11087,-0.94,2.62,-0.06,-0.19,0.06,-0.19,0.01,0.01,-0.23,0.00,0.00,0.52
11095,-0.94,2.62,-0.06,-0.06,-0.06,0.06,0.00,0.02,-0.25,0.00,0.00,0.53
11108,-0.94,2.62,-0.06,-0.06,-0.06,0.06,0.00,0.03,-0.23,0.00,0.00,0.54
11116,-0.94,2.62,-0.06,0.12,-0.12,0.00,0.01,0.03,-0.26,0.00,0.00,0.52
11129,-0.94,2.62,-0.06,0.00,-0.25,0.06,0.00,0.01,-0.20,0.00,0.00,0.52
11139,-0.94,2.62,-0.06,0.19,0.00,0.12,0.01,0.03,-0.21,0.00,0.00,0.53
11146,-0.94,2.62,-0.06,0.00,0.00,-0.06,0.01,0.01,-0.25,0.00,0.00,0.52
11156,-0.94,2.62,-0.06,0.00,0.00,-0.06,0.03,0.01,-0.25,0.00,0.00,0.53
11165,-0.94,2.62,-0.06,-0.06,0.06,0.00,-0.01,0.02,-0.23,0.00,0.00,0.52
11174,-0.94,2.62,-0.06,-0.06,0.06,0.00,0.00,0.02,-0.23,0.00,0.00,0.53
11183,-0.94,2.62,-0.06,-0.06,-0.06,0.06,0.00,0.00,-0.25,0.00,0.00,0.53
11195,-0.94,2.62,-0.06,-0.06,-0.31,-0.06,0.00,0.02,-0.27,0.00,0.00,0.53
11225,-0.94,2.62,-0.06,0.06,0.00,0.00,0.00,0.03,-0.23,0.00,0.00,0.52
11237,-0.94,2.62,-0.06,0.06,0.00,0.00,0.00,0.02,-0.25,0.00,0.00,0.53
11245,-0.94,2.62,-0.06,0.12,-0.12,0.12,0.00,0.02,-0.22,0.00,0.00,0.53
11258,-0.94,2.62,-0.06,0.12,-0.12,0.12,0.00,0.01,-0.25,0.00,0.00,0.54
11265,-0.94,2.62,-0.06,-0.06,-0.06,-0.12,0.00,0.01,-0.24,0.00,0.00,0.53
11277,-0.94,2.62,-0.06,0.00,-0.06,0.00,0.00,0.02,-0.22,0.00,0.00,0.52
11285,-0.94,2.62,-0.06,0.00,0.12,-0.06,0.00,0.03,-0.25,0.00,0.00,0.53
11294,-0.94,2.62,-0.06,-0.12,-0.06,-0.06,0.00,0.00,-0.25,0.00,0.00,0.55
11303,-0.94,2.62,-0.06,-0.12,-0.06,-0.06,0.00,0.02,-0.25,0.00,0.00,0.54
11313,-0.94,2.62,-0.06,0.00,-0.06,0.00,0.00,0.03,-0.21,0.00,0.00,0.55
11323,-0.94,2.62,-0.06,-0.06,-0.06,0.06,0.00,0.03,-0.21,0.00,0.00,0.55
11333,-0.94,2.62,-0.06,0.00,-0.12,0.06,0.00,0.03,-0.22,0.00,0.00,0.53
11346,-0.94,2.62,-0.06,0.12,-0.12,-0.06,0.00,0.03,-0.22,0.00,0.00,0.54
11354,-0.94,2.62,-0.06,-0.19,-0.25,-0.06,0.00,0.01,-0.26,0.00,0.00,0.54
11386,-0.94,2.62,-0.06,-0.06,0.06,0.00,0.00,0.02,-0.24,0.00,0.00,0.53
11394,-0.94,2.62,-0.06,0.25,0.12,0.06,0.00,0.02,-0.24,0.00,0.00,0.55
11408,-0.94,2.62,-0.06,0.25,0.12,0.06,0.00,0.02,-0.21,0.00,0.00,0.55
11417,-0.94,2.62,-0.06,0.06,0.19,-0.12,0.01,0.01,-0.24,0.00,0.00,0.54
11424,-0.94,2.62,-0.06,0.00,-0.25,0.00,0.00,0.01,-0.24,0.00,0.00,0.55
11435,-0.94,2.62,-0.06,0.00,-0.25,0.00,0.01,0.04,-0.24,0.00,0.00,0.55
11443,-0.94,2.62,-0.06,0.12,-0.06,0.12,0.00,0.02,-0.26,0.00,0.00,0.54
11455,-0.94,2.62,-0.06,0.12,-0.06,0.12,-0.02,0.02,-0.26,0.00,0.00,0.56
11463,-0.94,2.62,-0.06,-0.12,0.00,0.00,0.00,0.03,-0.25,0.00,0.00,0.55
11472,-0.94,2.62,-0.06,-0.12,0.00,0.00,0.01,0.01,-0.22,0.00,0.00,0.56
11484,-0.94,2.62,-0.06,-0.06,0.12,0.06,0.01,0.01,-0.22,0.00,0.00,0.54
11493,-0.94,2.62,-0.06,-0.12,-0.06,0.06,0.00,0.02,-0.27,0.00,0.00,0.54
11502,-0.94,2.62,-0.06,-0.06,-0.06,-0.06,0.01,0.01,-0.24,0.00,0.00,0.55
11512,-0.94,2.62,-0.06,-0.06,0.06,0.06,0.00,0.01,-0.23,0.00,0.00,0.53
11520,-0.94,2.62,-0.06,0.12,0.12,-0.06,0.00,0.01,-0.23,0.00,0.00,0.52
11552,-0.94,2.62,-0.06,0.19,0.00,-0.06,0.00,0.04,-0.24,0.00,0.00,0.53
11562,-0.94,2.62,-0.06,0.12,0.44,0.00,0.00,0.01,-0.22,0.00,0.00,0.54
11571,-0.94,2.62,-0.06,0.00,0.25,-0.06,0.00,0.01,-0.22,0.00,0.00,0.53
11581,-0.94,2.62,-0.06,-0.06,0.06,0.06,0.00,0.00,-0.22,0.00,0.00,0.54
11591,-0.94,2.62,-0.06,-0.06,-0.06,0.06,0.00,0.01,-0.26,0.00,0.00,0.53
11602,-0.94,2.62,-0.06,0.06,-0.12,0.00,0.00,0.02,-0.28,0.00,0.00,0.54
11614,-0.94,2.62,-0.06,0.00,0.12,-0.12,-0.01,0.02,-0.23,0.00,0.00,0.53
11623,-0.94,2.62,-0.06,0.06,0.00,0.06,0.00,0.01,-0.24,0.00,0.00,0.54
11633,-0.94,2.62,-0.06,0.06,0.00,0.06,0.02,0.02,-0.24,0.00,0.00,0.52
11642,-0.94,2.62,-0.06,0.06,0.00,-0.06,0.01,0.01,-0.26,0.00,0.00,0.52
11652,-0.94,2.62,-0.06,0.00,0.25,0.00,-0.02,0.01,-0.27,0.00,0.00,0.52
11662,-0.94,2.62,-0.06,0.06,-0.12,0.00,0.00,0.02,-0.22,0.00,0.00,0.55
11672,-0.94,2.62,-0.06,0.19,-0.12,-0.12,0.00,0.02,-0.22,0.00,0.00,0.53
11682,-0.94,2.62,-0.06,0.06,-0.06,0.06,0.01,0.02,-0.23,0.00,0.00,0.54
11714,-0.94,2.62,-0.06,0.00,0.12,-0.12,-0.01,0.03,-0.24,0.00,0.00,0.52
11722,-0.94,2.62,-0.06,0.06,-0.12,0.06,0.01,0.02,-0.22,0.00,0.00,0.51
11731,-0.94,2.62,-0.06,0.06,-0.12,0.06,0.00,0.05,-0.25,0.00,0.00,0.53
11741,-0.94,2.62,-0.06,-0.06,-0.31,0.12,0.00,0.05,-0.25,0.00,0.00,0.53
11751,-0.94,2.62,-0.06,0.12,0.06,0.00,0.00,0.02,-0.24,0.00,0.00,0.54
11761,-0.94,2.62,-0.06,0.12,-0.06,0.00,0.00,0.00,-0.25,0.00,0.00,0.52
11770,-0.94,2.62,-0.06,-0.06,-0.25,0.00,0.00,0.00,-0.25,0.00,0.00,0.55
11781,-0.94,2.62,-0.06,0.00,0.06,0.00,0.01,0.03,-0.22,0.00,0.00,0.53
11791,-0.94,2.62,-0.06,0.12,0.12,-0.06,-0.02,0.03,-0.24,0.00,0.00,0.52
11801,-0.94,2.62,-0.06,-0.06,0.00,0.06,0.00,0.01,-0.26,0.00,0.00,0.53
11813,-0.94,2.62,-0.06,0.00,0.12,0.00,0.00,0.02,-0.26,0.00,0.00,0.54
11821,-0.94,2.62,-0.06,0.06,0.00,0.00,0.00,0.04,-0.24,0.00,0.00,0.52
11833,-0.94,2.62,-0.06,-0.25,0.00,0.12,0.00,0.02,-0.25,0.00,0.00,0.54
11842,-0.94,2.62,-0.06,0.00,0.06,0.06,0.01,0.02,-0.22,0.00,0.00,0.54
11874,-0.94,2.62,-0.06,0.00,0.12,0.12,0.00,0.01,-0.23,0.00,0.00,0.53
11882,-0.94,2.62,-0.06,0.06,0.00,-0.06,0.00,0.01,-0.25,0.00,0.00,0.54
11894,-0.94,2.62,-0.06,0.06,0.00,-0.06,0.02,0.02,-0.25,0.00,0.00,0.52
11902,-0.94,2.62,-0.06,-0.12,0.00,0.00,0.00,0.00,-0.23,0.00,0.00,0.53
11914,-0.94,2.62,-0.06,-0.12,0.00,0.00,0.00,0.03,-0.23,0.00,0.00,0.53
11922,-0.94,2.62,-0.06,0.06,-0.25,-0.06,0.00,0.04,-0.20,0.00,0.00,0.53
11934,-0.94,2.62,-0.06,0.06,-0.25,-0.06,0.00,0.01,-0.23,0.00,0.00,0.54
11942,-0.94,2.62,-0.06,0.00,-0.06,0.19,0.00,0.01,-0.28,0.00,0.00,0.53
11954,-0.94,2.62,-0.06,0.00,-0.06,0.19,0.01,0.01,-0.24,0.00,0.00,0.55
11962,-0.94,2.62,-0.06,0.06,-0.06,0.06,0.02,0.00,-0.24,0.00,0.00,0.53
11973,-0.94,2.62,-0.06,0.06,-0.06,0.06,0.00,0.03,-0.23,0.00,0.00,0.53
11981,-0.94,2.62,-0.06,0.06,0.06,0.00,0.00,0.03,-0.24,0.00,0.00,0.54
11991,-0.94,2.62,-0.06,0.06,0.06,0.00,0.00,0.00,-0.23,0.00,0.00,0.53
12000,-0.94,2.62,-0.06,0.06,-0.06,0.06,0.00,0.02,-0.24,0.00,0.00,0.53
12010,-0.94,2.62,-0.06,0.06,0.12,-0.06,0.00,0.02,-0.23,0.00,0.00,0.53
12043,-0.94,2.62,-0.06,0.06,-0.06,0.06,0.00,0.02,-0.23,0.00,0.00,0.54
12051,-0.94,2.62,-0.06,-0.06,-0.25,-0.06,0.00,0.04,-0.24,0.00,0.00,0.53
12063,-0.94,2.62,-0.06,-0.06,-0.25,-0.06,0.00,0.01,-0.22,0.00,0.00,0.53
12071,-0.94,2.62,-0.06,-0.06,0.19,0.12,0.01,0.02,-0.20,0.00,0.00,0.52
12082,-0.94,2.62,-0.06,-0.06,0.19,0.12,0.01,0.03,-0.24,0.00,0.00,0.52
12091,-0.94,2.62,-0.06,-0.12,-0.06,-0.06,0.00,0.03,-0.23,0.00,0.00,0.52
12100,-0.94,2.62,-0.06,0.06,-0.06,0.12,0.00,0.02,-0.26,0.00,0.00,0.53
12110,-0.94,2.62,-0.06,0.06,-0.12,-0.12,0.02,0.02,-0.23,0.00,0.00,0.55
12118,-0.94,2.62,-0.06,0.00,-0.06,0.06,0.02,0.02,-0.23,0.00,0.00,0.53
12128,-0.94,2.62,-0.06,0.00,0.12,0.00,0.00,0.03,-0.24,0.00,0.00,0.54
12140,-0.94,2.62,-0.06,-0.06,0.00,0.06,0.00,0.01,-0.23,0.00,0.00,0.52
12150,-0.94,2.62,-0.06,0.06,0.06,-0.12,0.00,0.01,-0.26,0.00,0.00,0.53
12160,-0.94,2.62,-0.06,-0.06,-0.06,0.00,0.00,0.01,-0.23,0.00,0.00,0.52
12168,-0.94,2.62,-0.06,0.12,0.06,-0.06,0.00,0.01,-0.23,0.00,0.00,0.54
12213,-0.94,2.62,-0.06,0.06,0.06,-0.12,0.00,0.00,-0.24,0.00,0.00,0.52
12221,-0.94,2.62,-0.06,0.00,-0.12,0.12,0.00,0.01,-0.23,0.00,0.00,0.53
12233,-0.94,2.62,-0.06,0.00,-0.12,0.12,0.00,0.02,-0.24,0.00,0.00,0.53
12241,-0.94,2.62,-0.06,-0.19,-0.12,0.00,0.01,0.04,-0.24,0.00,0.00,0.54
12253,-0.94,2.62,-0.06,-0.19,-0.12,0.00,-0.01,0.03,-0.25,0.00,0.00,0.54
12261,-0.94,2.62,-0.06,-0.06,-0.19,0.19,0.00,0.01,-0.23,0.00,0.00,0.52
12273,-0.94,2.62,-0.06,-0.06,-0.19,0.19,0.00,0.02,-0.25,0.00,0.00,0.54
12281,-0.94,2.62,-0.06,0.00,0.06,-0.06,0.00,0.02,-0.23,0.00,0.00,0.53
12293,-0.94,2.62,-0.06,0.00,0.06,-0.06,0.00,0.02,-0.23,0.00,0.00,0.52
12301,-0.94,2.62,-0.06,0.06,0.00,0.00,0.01,0.00,-0.25,0.00,0.00,0.54
12313,-0.94,2.62,-0.06,0.06,0.00,0.00,0.00,0.01,-0.23,0.00,0.00,0.53
12321,-0.94,2.62,-0.06,0.06,-0.12,0.06,0.00,0.04,-0.24,0.00,0.00,0.54
12331,-0.94,2.62,-0.06,0.06,-0.12,0.06,0.01,0.03,-0.23,0.00,0.00,0.53
12340,-0.94,2.62,-0.06,-0.06,0.00,0.00,0.01,0.02,-0.26,0.00,0.00,0.53
12350,-0.94,2.62,-0.06,-0.06,0.00,0.00,0.00,0.03,-0.26,0.00,0.00,0.53
12381,-0.94,2.62,-0.06,0.25,0.06,-0.12,0.01,0.02,-0.24,0.00,0.00,0.52
12391,-0.94,2.62,-0.06,0.06,-0.06,-0.06,0.00,0.03,-0.27,0.00,0.00,0.54
12400,-0.94,2.62,-0.06,0.06,-0.06,-0.06,0.00,0.03,-0.22,0.00,0.00,0.53
12409,-0.94,2.62,-0.06,-0.19,0.06,-0.06,0.00,0.00,-0.24,0.00,0.00,0.53
12418,-0.94,2.62,-0.06,-0.12,0.19,0.00,0.00,0.00,-0.24,0.00,0.00,0.53
12429,-0.94,2.62,-0.06,-0.06,0.12,0.00,0.00,0.01,-0.23,0.00,0.00,0.53
12440,-0.94,2.62,-0.06,-0.06,0.12,0.00,0.01,-0.01,-0.23,0.00,0.00,0.54
12449,-0.94,2.62,-0.06,0.12,-0.12,0.00,0.00,0.02,-0.25,0.00,0.00,0.54
12462,-0.94,2.62,-0.06,0.12,-0.06,0.00,0.00,0.03,-0.24,0.00,0.00,0.53
12470,-0.94,2.62,-0.06,-0.12,-0.06,0.00,0.00,0.04,-0.24,0.00,0.00,0.53
12481,-0.94,2.62,-0.06,-0.12,-0.06,0.00,0.00,0.00,-0.22,0.00,0.00,0.54
12490,-0.94,2.62,-0.06,-0.06,0.06,0.00,0.00,0.00,-0.28,0.00,0.00,0.53
12499,-0.94,2.62,-0.06,-0.06,0.06,0.00,0.01,0.00,-0.26,0.00,0.00,0.55
12509,-0.94,2.62,-0.06,0.06,0.19,0.00,0.00,0.00,-0.21,0.00,0.00,0.55
12540,-0.94,2.62,-0.06,0.00,-0.19,0.06,0.00,0.03,-0.26,0.00,0.00,0.55
12549,-0.94,2.62,-0.06,0.00,-0.19,0.06,0.00,0.00,-0.23,0.00,0.00,0.53
12558,-0.94,2.62,-0.06,0.12,-0.12,0.00,0.01,0.00,-0.24,0.00,0.00,0.56
12567,-0.94,2.62,-0.06,0.00,-0.12,0.06,0.01,0.00,-0.24,0.00,0.00,0.54
12579,-0.94,2.62,-0.06,0.00,0.25,0.06,0.01,0.02,-0.25,0.00,0.00,0.53
12589,-0.94,2.62,-0.06,0.06,0.12,0.00,0.00,0.04,-0.26,0.00,0.00,0.54
12600,-0.94,2.62,-0.06,-0.06,0.00,-0.06,0.02,0.05,-0.23,0.00,0.00,0.53
12609,-0.94,2.62,-0.06,-0.12,0.25,-0.06,0.00,0.01,-0.20,0.00,0.00,0.52
12620,-0.94,2.62,-0.06,-0.12,0.25,-0.06,0.01,0.02,-0.21,0.00,0.00,0.52
12629,-0.94,2.62,-0.06,0.06,-0.06,-0.06,-0.01,0.00,-0.21,0.00,0.00,0.52
12640,-0.94,2.62,-0.06,0.06,-0.19,0.00,0.01,0.03,-0.26,0.00,0.00,0.53
12649,-0.94,2.62,-0.06,0.06,0.00,0.00,0.00,0.02,-0.24,0.00,0.00,0.53
12658,-0.94,2.62,-0.06,0.25,0.00,0.06,0.00,0.05,-0.22,0.00,0.00,0.54
12668,-0.94,2.62,-0.06,0.12,0.12,0.06,0.00,0.05,-0.22,0.00,0.00,0.52
12700,-0.94,2.62,-0.06,-0.19,-0.06,0.06,0.01,0.01,-0.25,0.00,0.00,0.54
12712,-0.94,2.62,-0.06,0.06,-0.06,-0.06,0.00,0.00,-0.24,0.00,0.00,0.53
12719,-0.94,2.62,-0.06,0.06,0.00,-0.06,0.02,0.02,-0.21,0.00,0.00,0.54
12731,-0.94,2.62,-0.06,0.06,0.00,-0.06,0.01,0.04,-0.23,0.00,0.00,0.54
12739,-0.94,2.62,-0.06,0.12,0.12,0.00,0.00,0.04,-0.24,0.00,0.00,0.53
12751,-0.94,2.62,-0.06,0.12,0.12,0.00,0.02,0.01,-0.24,0.00,0.00,0.53
12759,-0.94,2.62,-0.06,0.06,0.06,0.06,0.00,0.00,-0.26,0.00,0.00,0.52
12771,-0.94,2.62,-0.06,0.06,0.06,0.06,0.01,0.00,-0.27,0.00,0.00,0.52
12779,-0.94,2.62,-0.06,0.06,0.00,-0.12,0.00,0.02,-0.22,0.00,0.00,0.53
12790,-0.94,2.62,-0.06,0.06,0.00,-0.12,0.01,0.03,-0.26,0.00,0.00,0.53
12799,-0.94,2.62,-0.06,0.00,-0.12,-0.06,0.00,0.03,-0.22,0.00,0.00,0.53
12812,-0.94,2.62,-0.06,0.00,-0.12,-0.06,0.00,0.03,-0.22,0.00,0.00,0.53
12820,-0.94,2.62,-0.06,0.06,-0.12,0.00,-0.01,0.03,-0.25,0.00,0.00,0.52
12828,-0.94,2.62,-0.06,0.00,-0.12,0.06,0.00,0.00,-0.25,0.00,0.00,0.51
12839,-0.94,2.62,-0.06,0.00,-0.12,0.06,0.00,0.00,-0.23,0.00,0.00,0.54
12869,-0.94,2.62,-0.06,-0.12,-0.06,-0.06,0.00,0.02,-0.25,0.00,0.00,0.51
12880,-0.94,2.62,-0.06,0.19,-0.25,-0.06,-0.02,0.02,-0.23,0.00,0.00,0.53
12888,-0.94,2.62,-0.06,0.06,-0.31,0.06,0.00,0.02,-0.24,0.00,0.00,0.53
12900,-0.94,2.62,-0.06,0.06,-0.31,0.06,0.01,0.02,-0.26,0.00,0.00,0.52
12909,-0.94,2.62,-0.06,0.19,-0.06,0.06,0.00,0.02,-0.23,0.00,0.00,0.53
12919,-0.94,2.62,-0.06,0.19,-0.06,0.06,0.00,0.01,-0.23,0.00,0.00,0.55
12928,-0.94,2.62,-0.06,0.00,-0.06,0.00,-0.01,0.02,-0.22,0.00,0.00,0.54
12938,-0.94,2.62,-0.06,0.00,-0.06,0.00,0.00,0.00,-0.24,0.00,0.00,0.53
12947,-0.94,2.62,-0.06,-0.19,-0.12,0.06,-0.02,0.02,-0.22,0.00,0.00,0.52
12957,-0.94,2.62,-0.06,-0.12,0.06,0.00,0.01,0.01,-0.24,0.00,0.00,0.52
12967,-0.94,2.62,-0.06,-0.06,0.00,0.00,0.01,0.01,-0.24,0.00,0.00,0.53
12977,-0.94,2.62,-0.06,0.06,0.00,0.06,0.00,0.00,-0.24,0.00,0.00,0.54
12987,-0.94,2.62,-0.06,0.06,0.25,-0.06,0.00,0.00,-0.24,0.00,0.00,0.52
12997,-0.94,2.62,-0.06,0.19,0.06,0.12,0.00,0.01,-0.25,0.00,0.00,0.52
13030,-0.94,2.62,-0.06,0.06,0.12,0.00,0.00,0.01,-0.25,0.00,0.00,0.53
13038,-0.94,2.62,-0.06,-0.12,-0.19,0.00,0.00,0.01,-0.25,0.00,0.00,0.54
13049,-0.94,2.62,-0.06,-0.12,-0.19,0.00,0.01,0.02,-0.23,0.00,0.00,0.54
13057,-0.94,2.62,-0.06,-0.06,0.06,-0.06,0.00,0.03,-0.22,0.00,0.00,0.53
13068,-0.94,2.62,-0.06,-0.06,0.06,-0.06,0.00,0.04,-0.24,0.00,0.00,0.53
13077,-0.94,2.62,-0.06,0.00,0.19,0.06,-0.01,0.02,-0.24,0.00,0.00,0.53
13087,-0.94,2.62,-0.06,-0.12,0.12,-0.06,0.00,0.01,-0.27,0.00,0.00,0.52
13097,-0.94,2.62,-0.06,-0.06,-0.06,0.06,0.00,0.01,-0.23,0.00,0.00,0.54
13108,-0.94,2.62,-0.06,0.12,-0.06,0.00,-0.02,0.03,-0.24,0.00,0.00,0.52
13117,-0.94,2.62,-0.06,0.19,0.12,-0.06,0.01,0.03,-0.22,0.00,0.00,0.54
13126,-0.94,2.62,-0.06,0.00,0.00,-0.06,0.00,0.03,-0.21,0.00,0.00,0.52
13136,-0.94,2.62,-0.06,0.12,0.00,0.06,0.00,0.02,-0.27,0.00,0.00,0.55
13150,-0.94,2.62,-0.06,-0.06,-0.06,0.00,0.00,0.02,-0.27,0.00,0.00,0.53
13158,-0.94,2.62,-0.06,0.00,0.12,-0.06,0.00,0.03,-0.22,0.00,0.00,0.52
13188,-0.94,2.62,-0.06,0.00,-0.25,0.12,0.00,0.01,-0.27,0.00,0.00,0.52
13197,-0.94,2.62,-0.06,0.00,0.00,0.06,0.00,0.02,-0.23,0.00,0.00,0.53
13207,-0.94,2.62,-0.06,0.00,0.00,0.06,0.00,0.02,-0.23,0.00,0.00,0.53
13216,-0.94,2.62,-0.06,-0.19,0.19,0.00,0.00,0.01,-0.22,0.00,0.00,0.54
13225,-0.94,2.62,-0.06,-0.06,0.12,-0.12,0.00,0.01,-0.22,0.00,0.00,0.52
13235,-0.94,2.62,-0.06,0.06,-0.06,0.06,0.00,0.01,-0.25,0.00,0.00,0.53
13245,-0.94,2.62,-0.06,0.06,0.00,-0.12,0.00,0.03,-0.25,0.00,0.00,0.53
13256,-0.94,2.62,-0.06,-0.06,0.25,0.06,0.00,0.02,-0.26,0.00,0.00,0.55
13265,-0.94,2.62,-0.06,0.00,0.06,-0.06,0.00,0.01,-0.23,0.00,0.00,0.52
13275,-0.94,2.62,-0.06,0.06,0.06,-0.06,0.00,0.01,-0.23,0.00,0.00,0.53
13287,-0.94,2.62,-0.06,0.06,0.06,0.00,0.00,0.02,-0.23,0.00,0.00,0.53
13296,-0.94,2.62,-0.06,0.06,0.06,0.00,0.00,0.03,-0.24,0.00,0.00,0.53
13309,-0.94,2.62,-0.06,0.06,-0.06,0.06,0.00,0.03,-0.22,0.00,0.00,0.53
13317,-0.94,2.62,-0.06,-0.06,0.00,0.00,0.00,0.03,-0.23,0.00,0.00,0.54
13327,-0.94,2.62,-0.06,-0.06,0.00,0.00,0.00,0.01,-0.23,0.00,0.00,0.54
13357,-0.94,2.62,-0.06,0.06,0.12,0.00,0.02,0.04,-0.24,0.00,0.00,0.52
13368,-0.94,2.62,-0.06,0.06,0.12,0.00,0.00,0.02,-0.25,0.00,0.00,0.54
13376,-0.94,2.62,-0.06,-0.06,-0.12,0.00,0.00,0.01,-0.22,0.00,0.00,0.53
13386,-0.94,2.62,-0.06,-0.06,-0.12,0.00,0.00,0.00,-0.28,0.00,0.00,0.52
13395,-0.94,2.62,-0.06,0.19,0.12,0.06,0.01,0.01,-0.27,0.00,0.00,0.54
13406,-0.94,2.62,-0.06,0.00,0.00,0.12,-0.01,0.03,-0.21,0.00,0.00,0.53
13414,-0.94,2.62,-0.06,-0.06,-0.06,0.06,-0.01,0.03,-0.21,0.00,0.00,0.55
13424,-0.94,2.62,-0.06,0.00,0.12,-0.12,0.01,0.01,-0.23,0.00,0.00,0.52
13434,-0.94,2.62,-0.06,0.12,0.19,0.06,0.00,0.02,-0.22,0.00,0.00,0.53
13445,-0.94,2.62,-0.06,-0.19,-0.12,0.19,0.00,0.02,-0.23,0.00,0.00,0.53
13455,-0.94,2.62,-0.06,-0.06,0.12,0.00,0.00,0.02,-0.24,0.00,0.00,0.51
13463,-0.94,2.62,-0.06,-0.06,0.00,-0.12,0.00,0.03,-0.24,0.00,0.00,0.53
13478,-0.94,2.62,-0.06,0.06,-0.06,-0.06,0.00,0.03,-0.25,0.00,0.00,0.52
13489,-0.94,2.62,-0.06,0.00,0.00,0.00,0.00,0.01,-0.23,0.00,0.00,0.54
13520,-0.94,2.62,-0.06,0.12,0.19,-0.12,0.00,0.00,-0.23,0.00,0.00,0.54
13531,-0.94,2.62,-0.06,-0.06,-0.25,0.12,-0.01,0.00,-0.24,0.00,0.00,0.53
13539,-0.94,2.62,-0.06,-0.06,0.00,-0.06,0.00,0.02,-0.27,0.00,0.00,0.52
13550,-0.94,2.62,-0.06,0.06,0.00,0.00,0.01,0.00,-0.25,0.00,0.00,0.53
13558,-0.94,2.62,-0.06,0.00,0.12,-0.06,0.01,0.02,-0.24,0.00,0.00,0.54
13569,-0.94,2.62,-0.06,0.12,0.06,0.12,0.00,0.04,-0.23,0.00,0.00,0.54
13576,-0.94,2.62,-0.06,-0.06,0.06,-0.06,0.00,0.03,-0.24,0.00,0.00,0.51
13587,-0.94,2.62,-0.06,-0.06,0.06,-0.06,0.00,0.02,-0.23,0.00,0.00,0.52
13595,-0.94,2.62,-0.06,0.00,0.00,0.12,0.00,0.00,-0.24,0.00,0.00,0.53
13605,-0.94,2.62,-0.06,0.00,0.00,0.12,0.00,0.02,-0.22,0.00,0.00,0.53
13613,-0.94,2.62,-0.06,0.06,0.06,-0.12,0.00,0.02,-0.22,0.00,0.00,0.53
13624,-0.94,2.62,-0.06,0.00,0.12,0.06,0.00,0.02,-0.22,0.00,0.00,0.54
13634,-0.94,2.62,-0.06,0.00,-0.06,-0.06,-0.01,0.02,-0.23,0.00,0.00,0.54
13644,-0.94,2.62,-0.06,0.31,0.12,0.06,-0.01,0.00,-0.28,0.00,0.00,0.53
13654,-0.94,2.62,-0.06,0.00,0.06,-0.12,0.00,-0.01,-0.23,0.00,0.00,0.55
13687,-0.94,2.62,-0.06,0.06,-0.19,0.06,0.00,0.02,-0.26,0.00,0.00,0.53
13695,-0.94,2.62,-0.06,0.06,-0.12,0.00,0.00,0.04,-0.22,0.00,0.00,0.53
13708,-0.94,2.62,-0.06,0.06,-0.12,0.00,0.00,0.00,-0.25,0.00,0.00,0.52
13716,-0.94,2.62,-0.06,0.00,0.06,0.00,0.00,0.01,-0.24,0.00,0.00,0.52
13727,-0.94,2.62,-0.06,0.00,0.06,0.00,0.00,0.00,-0.24,0.00,0.00,0.53
13735,-0.94,2.62,-0.06,0.19,0.00,-0.12,0.00,0.02,-0.25,0.00,0.00,0.53
13744,-0.94,2.62,-0.06,0.19,0.00,-0.12,0.00,0.03,-0.23,0.00,0.00,0.51
13754,-0.94,2.62,-0.06,0.00,-0.06,0.00,0.02,0.01,-0.22,0.00,0.00,0.55
13765,-0.94,2.62,-0.06,0.06,0.12,0.00,0.02,0.01,-0.22,0.00,0.00,0.49
13774,-0.94,2.62,-0.06,0.00,-0.06,0.06,0.00,0.00,-0.22,0.00,0.00,0.54
13787,-0.94,2.62,-0.06,0.12,0.12,-0.06,0.00,0.01,-0.26,0.00,0.00,0.55
13795,-0.94,2.62,-0.06,0.00,-0.06,0.00,0.01,0.02,-0.24,0.00,0.00,0.52
13808,-0.94,2.62,-0.06,0.00,-0.06,0.00,0.00,0.02,-0.22,0.00,0.00,0.54
13815,-0.94,2.62,-0.06,0.12,0.19,0.00,0.00,0.00,-0.24,0.00,0.00,0.53
13848,-0.94,2.62,-0.06,0.00,-0.06,-0.06,0.01,0.00,-0.23,0.00,0.00,0.52
13855,-0.94,2.62,-0.06,0.00,-0.06,0.00,0.00,0.01,-0.23,0.00,0.00,0.53
13865,-0.94,2.62,-0.06,0.00,-0.06,0.00,0.01,0.01,-0.22,0.00,0.00,0.56
13874,-0.94,2.62,-0.06,-0.12,-0.38,0.06,0.00,0.03,-0.23,0.00,0.00,0.55
13884,-0.94,2.62,-0.06,-0.12,0.12,-0.12,0.00,0.04,-0.24,0.00,0.00,0.52
13895,-0.94,2.62,-0.06,-0.19,0.25,0.06,0.00,0.02,-0.24,0.00,0.00,0.52
13904,-0.94,2.62,-0.06,0.06,-0.06,0.00,0.00,0.01,-0.24,0.00,0.00,0.55
13916,-0.94,2.62,-0.06,-0.12,-0.06,-0.06,0.00,0.01,-0.24,0.00,0.00,0.53
13924,-0.94,2.62,-0.06,0.00,0.19,0.06,0.00,0.03,-0.21,0.00,0.00,0.53
13937,-0.94,2.62,-0.06,0.00,0.19,0.06,0.00,0.03,-0.24,0.00,0.00,0.54
13945,-0.94,2.62,-0.06,0.06,-0.31,0.12,0.00,0.05,-0.24,0.00,0.00,0.53
13957,-0.94,2.62,-0.06,0.06,-0.06,0.06,0.01,0.01,-0.20,0.00,0.00,0.54
13965,-0.94,2.62,-0.06,-0.06,0.12,0.19,0.00,0.01,-0.25,0.00,0.00,0.52
13976,-0.94,2.62,-0.06,-0.06,0.19,0.06,0.01,0.02,-0.25,0.00,0.00,0.55
13984,-0.94,2.62,-0.06,-0.06,0.00,-0.12,0.00,0.01,-0.28,0.00,0.00,0.54
14014,-0.94,2.62,-0.06,-0.12,0.00,0.00,0.00,0.00,-0.22,0.00,0.00,0.53
14023,-0.94,2.62,-0.06,-0.12,0.00,0.00,0.00,0.02,-0.26,0.00,0.00,0.53
14034,-0.94,2.62,-0.06,0.12,0.12,0.19,0.00,0.03,-0.24,0.00,0.00,0.54
14043,-0.94,2.62,-0.06,0.38,0.06,0.06,0.00,0.01,-0.26,0.00,0.00,0.53
14055,-0.94,2.62,-0.06,0.12,0.12,0.06,0.00,0.00,-0.26,0.00,0.00,0.52
14064,-0.94,2.62,-0.06,0.06,0.12,0.00,0.01,0.01,-0.23,0.00,0.00,0.53
14075,-0.94,2.62,-0.06,0.06,0.12,0.00,0.00,0.04,-0.24,0.00,0.00,0.53
14084,-0.94,2.62,-0.06,0.00,0.12,-0.12,0.00,0.03,-0.27,0.00,0.00,0.53
14095,-0.94,2.62,-0.06,0.00,0.12,-0.12,0.00,0.01,-0.25,0.00,0.00,0.54
14104,-0.94,2.62,-0.06,0.06,0.06,-0.19,0.02,0.00,-0.26,0.00,0.00,0.55
14115,-0.94,2.62,-0.06,0.06,0.06,-0.19,0.02,0.00,-0.26,0.00,0.00,0.51
14124,-0.94,2.62,-0.06,0.00,-0.19,0.00,0.00,0.01,-0.23,0.00,0.00,0.53
14136,-0.94,2.62,-0.06,0.00,-0.19,0.00,0.00,0.02,-0.22,0.00,0.00,0.54
14144,-0.94,2.62,-0.06,-0.12,0.06,-0.06,0.00,0.02,-0.25,0.00,0.00,0.53
14178,-0.94,2.62,-0.06,0.06,0.12,0.06,0.01,0.02,-0.23,0.00,0.00,0.53
14185,-0.94,2.62,-0.06,0.00,0.06,-0.06,0.00,0.03,-0.23,0.00,0.00,0.53
14197,-0.94,2.62,-0.06,-0.06,-0.12,0.00,0.00,0.01,-0.26,0.00,0.00,0.53
14205,-0.94,2.62,-0.06,0.25,-0.06,0.00,0.00,0.01,-0.24,0.00,0.00,0.54
14214,-0.94,2.62,-0.06,0.06,0.12,0.12,0.00,0.03,-0.21,0.00,0.00,0.52
14223,-0.94,2.62,-0.06,-0.06,0.06,-0.12,0.00,0.00,-0.23,0.00,0.00,0.54
14234,-0.94,2.62,-0.06,-0.06,0.06,-0.12,0.02,0.00,-0.28,0.00,0.00,0.53
14243,-0.94,2.62,-0.06,0.00,0.38,-0.06,0.00,0.03,-0.24,0.00,0.00,0.54
14254,-0.94,2.62,-0.06,0.00,0.38,-0.06,0.00,0.03,-0.23,0.00,0.00,0.53
14263,-0.94,2.62,-0.06,0.06,-0.12,0.12,0.00,0.05,-0.22,0.00,0.00,0.53
14274,-0.94,2.62,-0.06,0.06,-0.12,0.12,0.00,0.01,-0.24,0.00,0.00,0.53
14283,-0.94,2.62,-0.06,0.00,0.06,0.00,-0.01,0.05,-0.26,0.00,0.00,0.53
14293,-0.94,2.62,-0.06,0.00,0.06,0.00,0.00,0.03,-0.24,0.00,0.00,0.52
14302,-0.94,2.62,-0.06,-0.06,0.06,0.06,0.01,0.01,-0.26,0.00,0.00,0.54
14334,-0.94,2.62,-0.06,0.06,0.06,0.00,0.00,0.01,-0.24,0.00,0.00,0.53
14343,-0.94,2.62,-0.06,0.00,0.25,0.06,0.00,0.00,-0.23,0.00,0.00,0.55
14353,-0.94,2.62,-0.06,0.00,0.25,0.06,-0.01,0.00,-0.24,0.00,0.00,0.54
14362,-0.94,2.62,-0.06,0.25,0.19,0.06,0.00,0.01,-0.23,0.00,0.00,0.53
14371,-0.94,2.62,-0.06,-0.06,-0.19,0.06,0.00,0.02,-0.23,0.00,0.00,0.55
14381,-0.94,2.62,-0.06,0.00,0.19,-0.12,0.00,0.02,-0.23,0.00,0.00,0.54
14391,-0.94,2.62,-0.06,0.06,0.12,0.12,0.00,0.01,-0.26,0.00,0.00,0.53
14402,-0.94,2.62,-0.06,0.12,0.06,0.06,0.00,0.03,-0.22,0.00,0.00,0.53
14409,-0.94,2.62,-0.06,0.12,0.12,0.00,0.00,0.04,-0.21,0.00,0.00,0.54
14419,-0.94,2.62,-0.06,0.00,-0.06,0.00,0.00,0.00,-0.21,0.00,0.00,0.54
14428,-0.94,2.62,-0.06,0.12,0.00,-0.06,0.00,0.03,-0.25,0.00,0.00,0.52
14437,-0.94,2.62,-0.06,0.19,0.12,0.00,0.02,0.00,-0.24,0.00,0.00,0.53
14445,-0.94,2.62,-0.06,0.06,-0.06,0.00,0.00,0.02,-0.24,0.00,0.00,0.54
14454,-0.94,2.62,-0.06,0.19,-0.06,0.12,0.01,0.02,-0.27,0.00,0.00,0.55
14462,-0.94,2.62,-0.06,-0.06,0.12,-0.06,0.00,0.01,-0.22,0.00,0.00,0.54
14493,-0.94,2.62,-0.06,0.06,0.00,0.00,0.00,0.00,-0.24,0.00,0.00,0.52
14502,-0.94,2.62,-0.06,0.06,0.00,0.00,0.00,0.02,-0.24,0.00,0.00,0.53
14513,-0.94,2.62,-0.06,-0.06,0.06,0.25,0.00,0.02,-0.24,0.00,0.00,0.54
14522,-0.94,2.62,-0.06,0.12,-0.06,-0.06,0.00,0.05,-0.26,0.00,0.00,0.54
14536,-0.94,2.62,-0.06,0.12,-0.06,-0.06,0.00,0.03,-0.27,0.00,0.00,0.54
14543,-0.94,2.62,-0.06,-0.06,0.00,0.00,0.01,0.03,-0.25,0.00,0.00,0.54
14552,-0.94,2.62,-0.06,0.12,0.12,-0.06,0.01,0.00,-0.23,0.00,0.00,0.52
14561,-0.94,2.62,-0.06,0.12,0.12,-0.06,0.00,0.00,-0.23,0.00,0.00,0.53
14571,-0.94,2.62,-0.06,0.00,0.00,0.06,0.00,0.02,-0.21,0.00,0.00,0.53
14582,-0.94,2.62,-0.06,0.00,0.06,-0.06,0.01,0.03,-0.25,0.00,0.00,0.53
14591,-0.94,2.62,-0.06,0.06,0.12,0.06,0.00,0.02,-0.24,0.00,0.00,0.54
14603,-0.94,2.62,-0.06,0.12,0.12,0.00,0.00,0.04,-0.25,0.00,0.00,0.53
14612,-0.94,2.62,-0.06,0.12,0.44,-0.06,0.00,0.00,-0.23,0.00,0.00,0.54
14622,-0.94,2.62,-0.06,0.12,0.44,-0.06,0.00,0.01,-0.24,0.00,0.00,0.53
14652,-0.94,2.62,-0.06,0.06,0.00,0.00,0.01,0.04,-0.22,0.00,0.00,0.52
14663,-0.94,2.62,-0.06,0.06,0.00,-0.12,-0.01,0.04,-0.23,0.00,0.00,0.53
14672,-0.94,2.62,-0.06,0.00,0.19,0.06,0.00,0.02,-0.23,0.00,0.00,0.54
14684,-0.94,2.62,-0.06,0.00,0.19,0.06,0.00,0.01,-0.28,0.00,0.00,0.54
14692,-0.94,2.62,-0.06,-0.12,0.06,0.06,0.01,0.01,-0.25,0.00,0.00,0.52
14704,-0.94,2.62,-0.06,-0.12,0.06,0.06,0.00,0.01,-0.25,0.00,0.00,0.53
14712,-0.94,2.62,-0.06,0.00,-0.12,0.06,0.00,0.02,-0.25,0.00,0.00,0.53
14723,-0.94,2.62,-0.06,0.00,-0.12,0.06,0.02,0.03,-0.25,0.00,0.00,0.55
14732,-0.94,2.62,-0.06,0.00,-0.19,0.00,0.00,0.03,-0.25,0.00,0.00,0.54
14743,-0.94,2.62,-0.06,0.00,-0.19,0.00,0.01,0.03,-0.24,0.00,0.00,0.51
14751,-0.94,2.62,-0.06,0.12,-0.06,0.00,-0.01,0.02,-0.21,0.00,0.00,0.54
14761,-0.94,2.62,-0.06,0.12,-0.06,0.00,0.00,0.01,-0.23,0.00,0.00,0.54
14770,-0.94,2.62,-0.06,0.00,0.00,-0.06,0.00,0.03,-0.26,0.00,0.00,0.54
14782,-0.94,2.62,-0.06,0.12,0.44,0.00,0.00,0.02,-0.23,0.00,0.00,0.53
14791,-0.94,2.62,-0.06,0.19,0.12,0.00,0.00,0.02,-0.23,0.00,0.00,0.53
14825,-0.94,2.62,-0.06,0.06,0.00,-0.12,0.00,0.01,-0.25,0.00,0.00,0.54
14832,-0.94,2.62,-0.06,-0.06,0.38,-0.06,0.00,0.01,-0.26,0.00,0.00,0.54
14844,-0.94,2.62,-0.06,0.12,0.25,0.00,0.01,0.02,-0.22,0.00,0.00,0.53
14852,-0.94,2.62,-0.06,-0.12,0.06,-0.06,0.00,0.04,-0.23,0.00,0.00,0.53
14861,-0.94,2.62,-0.06,-0.12,0.06,-0.06,0.01,0.02,-0.23,0.00,0.00,0.53
14870,-0.94,2.62,-0.06,0.19,0.12,0.06,0.00,0.04,-0.25,0.00,0.00,0.54
14880,-0.94,2.62,-0.06,0.06,0.00,-0.06,0.01,0.01,-0.26,0.00,0.00,0.53
14890,-0.94,2.62,-0.06,0.00,0.06,-0.06,0.00,-0.01,-0.22,0.00,0.00,0.53
14900,-0.94,2.62,-0.06,-0.06,0.00,-0.06,0.00,0.00,-0.24,0.00,0.00,0.53
14907,-0.94,2.62,-0.06,0.19,-0.12,0.12,0.00,0.00,-0.24,0.00,0.00,0.54
14916,-0.94,2.62,-0.06,0.00,0.06,0.00,0.00,0.03,-0.21,0.00,0.00,0.52
14925,-0.94,2.62,-0.06,-0.06,0.12,-0.19,0.01,0.02,-0.26,0.00,0.00,0.53
14932,-0.94,2.62,-0.06,0.06,0.00,0.00,0.00,0.00,-0.24,0.00,0.00,0.53
14940,-0.94,2.62,-0.06,0.00,0.00,0.00,0.00,0.02,-0.23,0.00,0.00,0.52
14971,-0.94,2.62,-0.06,0.06,0.06,-0.12,0.00,0.02,-0.23,0.00,0.00,0.53
14982,-0.94,2.62,-0.06,0.06,0.06,-0.12,-0.01,0.02,-0.23,0.00,0.00,0.52
14990,-0.94,2.62,-0.06,-0.06,-0.12,-0.06,0.00,0.00,-0.23,0.00,0.00,0.53
15002,-0.94,2.62,-0.06,-0.06,-0.12,-0.06,0.00,0.03,-0.22,0.00,0.00,0.53
15010,-0.94,2.62,-0.06,-0.06,-0.06,0.06,0.02,0.01,-0.24,0.00,0.00,0.52
15020,-0.94,2.62,-0.06,-0.06,-0.06,0.06,0.00,0.02,-0.25,0.00,0.00,0.53
15029,-0.94,2.62,-0.06,0.00,0.00,0.00,0.00,0.02,-0.28,0.00,0.00,0.51
15041,-0.94,2.62,-0.06,-0.06,-0.25,0.00,0.01,0.01,-0.24,0.00,0.00,0.53
15050,-0.94,2.62,-0.06,0.06,-0.25,0.00,0.01,0.01,-0.23,0.00,0.00,0.53
15063,-0.94,2.62,-0.06,0.00,-0.25,0.06,0.00,0.03,-0.21,0.00,0.00,0.53
15071,-0.94,2.62,-0.06,0.00,-0.19,0.06,0.00,0.02,-0.24,0.00,0.00,0.52
15080,-0.94,2.62,-0.06,0.06,0.00,-0.06,-0.02,0.03,-0.25,0.00,0.00,0.52
15089,-0.94,2.62,-0.06,0.06,0.00,-0.06,0.00,0.00,-0.23,0.00,0.00,0.54
15101,-0.94,2.62,-0.06,0.06,-0.12,0.06,0.00,-0.01,-0.23,0.00,0.00,0.54
15110,-0.94,2.62,-0.06,-0.19,-0.06,-0.06,0.00,0.03,-0.23,0.00,0.00,0.53
15142,-0.94,2.62,-0.06,0.00,-0.06,0.00,0.00,0.02,-0.21,0.00,0.00,0.52
15150,-0.94,2.62,-0.06,-0.19,-0.06,-0.12,0.00,0.00,-0.24,0.00,0.00,0.54
15159,-0.94,2.62,-0.06,-0.19,-0.06,-0.12,0.00,0.01,-0.23,0.00,0.00,0.53
15171,-0.94,2.62,-0.06,-0.19,-0.19,-0.06,0.00,0.03,-0.26,0.00,0.00,0.54
15180,-0.94,2.62,-0.06,-0.06,-0.12,0.06,0.01,0.01,-0.25,0.00,0.00,0.53
15191,-0.94,2.62,-0.06,-0.06,-0.12,0.06,0.00,0.00,-0.25,0.00,0.00,0.54
15200,-0.94,2.62,-0.06,-0.06,-0.19,0.06,0.00,0.03,-0.24,0.00,0.00,0.53
15211,-0.94,2.62,-0.06,-0.06,-0.19,0.06,0.00,0.02,-0.24,0.00,0.00,0.54
15220,-0.94,2.62,-0.06,-0.19,-0.12,0.00,-0.02,0.01,-0.26,0.00,0.00,0.52
15230,-0.94,2.62,-0.06,-0.19,-0.12,0.00,0.00,0.01,-0.27,0.00,0.00,0.53
15239,-0.94,2.62,-0.06,0.00,-0.06,-0.06,0.00,0.01,-0.25,0.00,0.00,0.53
15253,-0.94,2.62,-0.06,-0.12,-0.06,-0.06,0.00,0.03,-0.25,0.00,0.00,0.52
15261,-0.94,2.62,-0.06,-0.12,0.00,0.06,0.00,0.01,-0.24,0.00,0.00,0.52
15269,-0.94,2.62,-0.06,0.00,0.00,-0.12,0.00,0.03,-0.26,0.00,0.00,0.55
15301,-0.94,2.62,-0.06,-0.19,0.00,-0.12,0.00,0.03,-0.23,0.00,0.00,0.53
15309,-0.94,2.62,-0.06,-0.06,0.06,0.00,0.00,0.00,-0.23,0.00,0.00,0.54
15320,-0.94,2.62,-0.06,-0.06,0.06,0.00,0.00,0.02,-0.23,0.00,0.00,0.53
15329,-0.94,2.62,-0.06,-0.19,0.19,0.06,0.02,0.01,-0.23,0.00,0.00,0.53
15342,-0.94,2.62,-0.06,-0.19,0.19,0.06,-0.01,0.00,-0.23,0.00,0.00,0.53
15350,-0.94,2.62,-0.06,-0.19,-0.19,0.06,0.00,0.03,-0.21,0.00,0.00,0.54
15362,-0.94,2.62,-0.06,0.06,-0.19,0.06,0.00,0.03,-0.22,0.00,0.00,0.53
15370,-0.94,2.62,-0.06,-0.06,0.00,-0.12,0.00,0.03,-0.26,0.00,0.00,0.54
15382,-0.94,2.62,-0.06,-0.06,0.00,-0.12,0.00,0.04,-0.25,0.00,0.00,0.54
15390,-0.94,2.62,-0.06,0.06,0.12,-0.12,0.00,0.03,-0.23,0.00,0.00,0.53
15401,-0.94,2.62,-0.06,0.00,-0.12,-0.12,0.00,0.01,-0.26,0.00,0.00,0.54
15409,-0.94,2.62,-0.06,0.00,0.00,0.00,0.00,0.02,-0.23,0.00,0.00,0.55
15420,-0.94,2.62,-0.06,0.00,0.00,0.00,0.00,0.03,-0.24,0.00,0.00,0.52
15429,-0.94,2.62,-0.06,0.06,-0.06,-0.06,0.00,0.01,-0.26,0.00,0.00,0.53
15459,-0.94,2.62,-0.06,0.00,0.00,-0.06,0.00,0.04,-0.24,0.00,0.00,0.51
15468,-0.94,2.62,-0.06,0.00,0.00,-0.06,0.00,0.02,-0.20,0.00,0.00,0.53
15478,-0.94,2.62,-0.06,0.00,-0.06,0.00,0.00,0.02,-0.23,0.00,0.00,0.52
15487,-0.94,2.62,-0.06,-0.12,0.06,-0.12,0.00,0.01,-0.25,0.00,0.00,0.53
15497,-0.94,2.62,-0.06,0.19,0.12,-0.06,-0.01,0.04,-0.25,0.00,0.00,0.53
15505,-0.94,2.62,-0.06,0.00,-0.19,0.00,-0.01,0.04,-0.25,0.00,0.00,0.54
15515,-0.94,2.62,-0.06,0.06,0.06,0.12,0.00,0.01,-0.21,0.00,0.00,0.54
15526,-0.94,2.62,-0.06,0.00,0.00,0.12,0.00,0.03,-0.23,0.00,0.00,0.53
15538,-0.94,2.62,-0.06,-0.06,0.12,-0.06,0.00,0.03,-0.26,0.00,0.00,0.52
15548,-0.94,2.62,-0.06,0.12,-0.06,0.19,0.00,0.04,-0.23,0.00,0.00,0.54
15557,-0.94,2.62,-0.06,-0.06,0.06,0.12,0.00,0.04,-0.23,0.00,0.00,0.53
15567,-0.94,2.62,-0.06,0.06,0.12,0.12,0.02,0.03,-0.20,0.00,0.00,0.52
15577,-0.94,2.62,-0.06,0.00,-0.06,0.00,0.00,0.03,-0.24,0.00,0.00,0.54
15587,-0.94,2.62,-0.06,0.00,-0.19,0.06,-0.01,0.00,-0.26,0.00,0.00,0.54
15619,-0.94,2.62,-0.06,0.00,0.06,-0.12,-0.01,0.05,-0.20,0.00,0.00,0.53
15628,-0.94,2.62,-0.06,0.00,-0.06,-0.06,0.00,0.02,-0.25,0.00,0.00,0.51
15639,-0.94,2.62,-0.06,0.00,-0.06,-0.06,0.00,0.00,-0.26,0.00,0.00,0.52
15648,-0.94,2.62,-0.06,-0.31,0.19,0.00,0.00,0.03,-0.26,0.00,0.00,0.52
15658,-0.94,2.62,-0.06,-0.31,0.19,0.00,0.00,0.01,-0.20,0.00,0.00,0.52
15667,-0.94,2.62,-0.06,-0.06,0.19,0.00,0.00,0.01,-0.22,0.00,0.00,0.52
15679,-0.94,2.62,-0.06,0.00,-0.25,0.00,0.00,0.04,-0.24,0.00,0.00,0.53
15688,-0.94,2.62,-0.06,0.06,-0.12,0.06,0.01,0.03,-0.23,0.00,0.00,0.52
15699,-0.94,2.62,-0.06,0.06,-0.12,0.06,0.00,0.03,-0.25,0.00,0.00,0.52
15708,-0.94,2.62,-0.06,0.00,0.00,-0.06,0.00,0.00,-0.24,0.00,0.00,0.53
15717,-0.94,2.62,-0.06,0.00,0.00,-0.06,0.00,0.02,-0.25,0.00,0.00,0.54
15727,-0.94,2.62,-0.06,0.00,0.00,-0.06,0.02,0.02,-0.23,0.00,0.00,0.53
15737,-0.94,2.62,-0.06,-0.06,-0.12,0.06,0.00,0.01,-0.25,0.00,0.00,0.52
15747,-0.94,2.62,-0.06,-0.12,0.00,0.00,0.00,0.02,-0.25,0.00,0.00,0.52
15756,-0.94,2.62,-0.06,0.00,0.19,-0.06,0.00,0.02,-0.25,0.00,0.00,0.52
15787,-0.94,2.62,-0.06,0.00,-0.06,0.06,0.00,0.01,-0.21,0.00,0.00,0.54
15798,-0.94,2.62,-0.06,-0.12,0.06,0.06,0.00,0.02,-0.23,0.00,0.00,0.52
15807,-0.94,2.62,-0.06,0.19,-0.25,0.06,0.00,0.03,-0.22,0.00,0.00,0.53
15819,-0.94,2.62,-0.06,0.19,-0.25,0.06,-0.02,0.01,-0.20,0.00,0.00,0.53
15827,-0.94,2.62,-0.06,0.00,-0.25,-0.06,0.00,0.03,-0.25,0.00,0.00,0.52
15836,-0.94,2.62,-0.06,0.00,-0.25,-0.06,-0.01,0.02,-0.26,0.00,0.00,0.53
15846,-0.94,2.62,-0.06,0.00,-0.25,0.12,0.00,0.01,-0.20,0.00,0.00,0.53
15858,-0.94,2.62,-0.06,0.12,0.19,-0.06,0.00,0.01,-0.20,0.00,0.00,0.54
15867,-0.94,2.62,-0.06,0.06,-0.12,-0.06,0.00,0.03,-0.21,0.00,0.00,0.53
15880,-0.94,2.62,-0.06,0.06,-0.12,-0.06,0.01,0.02,-0.25,0.00,0.00,0.52
15888,-0.94,2.62,-0.06,0.12,0.06,0.06,0.00,0.03,-0.22,0.00,0.00,0.54
15900,-0.94,2.62,-0.06,0.12,0.06,0.06,0.00,0.01,-0.23,0.00,0.00,0.56
15907,-0.94,2.62,-0.06,0.06,-0.06,0.06,0.00,0.00,-0.25,0.00,0.00,0.54
15920,-0.94,2.62,-0.06,0.06,-0.06,0.06,0.00,0.01,-0.24,0.00,0.00,0.55
15950,-0.94,2.62,-0.06,0.00,0.12,-0.06,0.01,0.02,-0.26,0.00,0.00,0.54
15960,-0.94,2.62,-0.06,-0.12,-0.06,0.00,-0.01,0.01,-0.22,0.00,0.00,0.53
15967,-0.94,2.62,-0.06,-0.12,-0.38,-0.06,0.00,0.03,-0.24,0.00,0.00,0.53
15976,-0.94,2.62,-0.06,-0.12,-0.38,-0.06,0.00,0.03,-0.27,0.00,0.00,0.52
15986,-0.94,2.62,-0.06,0.19,-0.12,-0.06,-0.02,0.00,-0.24,0.00,0.00,0.53
15996,-0.94,2.62,-0.06,0.12,0.25,0.00,0.00,0.02,-0.22,0.00,0.00,0.54
16004,-0.94,2.62,-0.06,0.06,0.06,-0.06,0.00,0.02,-0.22,0.00,0.00,0.55
16014,-0.94,2.62,-0.06,-0.19,-0.19,-0.06,0.00,0.02,-0.24,0.00,0.00,0.53
16024,-0.94,2.62,-0.06,-0.06,0.25,-0.06,0.01,0.00,-0.25,0.00,0.00,0.53
16035,-0.94,2.62,-0.06,-0.06,0.06,-0.12,0.00,0.03,-0.23,0.00,0.00,0.53
16047,-0.94,2.62,-0.06,-0.06,0.06,0.12,0.00,0.01,-0.22,0.00,0.00,0.55
16056,-0.94,2.62,-0.06,0.06,-0.06,0.00,0.00,0.02,-0.20,0.00,0.00,0.52
16068,-0.94,2.62,-0.06,0.00,0.06,0.00,0.00,0.02,-0.23,0.00,0.00,0.53
16076,-0.94,2.62,-0.06,0.06,0.25,0.06,0.00,0.02,-0.24,0.00,0.00,0.54
16088,-0.94,2.62,-0.06,0.06,0.25,0.06,0.00,0.01,-0.24,0.00,0.00,0.54
16117,-0.94,2.62,-0.06,-0.25,-0.31,-0.06,0.00,0.03,-0.24,0.00,0.00,0.54
16129,-0.94,2.62,-0.06,0.06,-0.38,-0.12,0.00,0.04,-0.26,0.00,0.00,0.53
16137,-0.94,2.62,-0.06,-0.19,-0.06,0.06,0.00,0.05,-0.23,0.00,0.00,0.53
16148,-0.94,2.62,-0.06,-0.19,-0.06,0.06,-0.02,0.00,-0.24,0.00,0.00,0.53
16156,-0.94,2.62,-0.06,0.12,0.06,0.12,0.00,0.00,-0.22,0.00,0.00,0.53
16167,-0.94,2.62,-0.06,0.12,0.06,0.12,0.00,0.03,-0.23,0.00,0.00,0.53
16176,-0.94,2.62,-0.06,0.00,0.06,-0.06,-0.01,0.01,-0.24,0.00,0.00,0.53
16185,-0.94,2.62,-0.06,0.00,0.06,-0.06,0.00,0.01,-0.23,0.00,0.00,0.55
16195,-0.94,2.62,-0.06,0.19,0.25,0.06,0.00,0.01,-0.25,0.00,0.00,0.54
16203,-0.94,2.62,-0.06,0.06,0.19,0.06,0.00,0.01,-0.25,0.00,0.00,0.54
16214,-0.94,2.62,-0.06,0.06,0.25,-0.06,0.01,0.00,-0.22,0.00,0.00,0.55
16225,-0.94,2.62,-0.06,-0.12,-0.06,0.06,0.00,0.02,-0.26,0.00,0.00,0.54
16235,-0.94,2.62,-0.06,0.06,0.06,0.00,0.00,0.00,-0.22,0.00,0.00,0.55
16247,-0.94,2.62,-0.06,0.00,0.19,-0.06,0.00,0.03,-0.24,0.00,0.00,0.52
16277,-0.94,2.62,-0.06,0.06,0.00,0.00,0.00,0.02,-0.25,0.00,0.00,0.53
16287,-0.94,2.62,-0.06,0.00,0.06,0.00,0.00,0.02,-0.23,0.00,0.00,0.54
16296,-0.94,2.62,-0.06,-0.06,0.38,0.06,0.00,0.01,-0.25,0.00,0.00,0.54
16306,-0.94,2.62,-0.06,-0.06,0.38,0.06,0.00,0.00,-0.22,0.00,0.00,0.54
16315,-0.94,2.62,-0.06,0.12,0.12,-0.06,-0.01,0.00,-0.23,0.00,0.00,0.53
16327,-0.94,2.62,-0.06,0.06,-0.06,0.06,0.00,0.04,-0.26,0.00,0.00,0.53
16335,-0.94,2.62,-0.06,-0.06,-0.25,0.06,0.00,0.02,-0.24,0.00,0.00,0.55
