Time,sensPitch,sensRoll,sensYaw,xGyro,yGyro,ZGyro,xAcc,yAcc,zAcc,latitude,longitude,altitude
5976,-1.50,3.06,0.00,-0.06,0.12,0.06,0.07,0.04,-0.23,0.00,0.00,0.57
5986,-1.50,3.06,0.00,-0.06,0.12,0.06,0.05,0.04,-0.21,0.00,0.00,0.55
5995,-1.50,3.06,0.00,0.12,0.12,0.12,0.05,0.05,-0.24,0.00,0.00,0.55
6005,-1.50,3.06,0.00,0.00,0.00,0.06,0.07,0.05,-0.23,0.00,0.00,0.56
6015,-1.50,3.06,0.00,0.12,-0.25,-0.12,0.09,0.07,-0.24,0.00,0.00,0.54
6025,-1.50,3.06,0.00,0.00,0.19,-0.06,0.12,0.04,-0.22,0.00,0.00,0.55
6036,-1.50,3.06,0.00,0.00,0.06,0.00,0.12,0.04,-0.22,0.00,0.00,0.57
6045,-1.50,3.06,0.00,0.06,-0.12,-0.06,0.14,0.05,-0.24,0.00,0.00,0.55
6058,-1.50,3.06,0.00,0.06,-0.12,-0.06,0.10,0.04,-0.23,0.00,0.00,0.57
6066,-1.50,3.06,0.00,0.00,0.06,0.00,0.07,0.04,-0.23,0.00,0.00,0.53
6078,-1.50,3.06,0.00,0.00,0.06,0.00,0.05,0.06,-0.21,0.00,0.00,0.53
6086,-1.50,3.06,0.00,0.12,-0.12,-0.12,0.04,0.05,-0.23,0.00,0.00,0.52
6097,-1.50,3.06,0.00,0.06,0.12,0.00,0.03,0.05,-0.23,0.00,0.00,0.54
6105,-1.50,3.06,0.00,0.00,0.00,-0.06,0.07,0.03,-0.25,0.00,0.00,0.54
6221,-1.50,3.06,0.00,-0.19,-0.25,-0.06,0.10,0.07,-0.24,0.00,0.00,0.53
6229,-1.50,3.06,0.00,-0.19,-0.25,-0.06,0.11,0.04,-0.25,0.00,0.00,0.54
6239,-1.50,3.06,0.00,-0.06,-0.19,0.00,0.11,0.04,-0.20,0.00,0.00,0.53
6246,-1.50,3.06,0.00,-0.06,-0.12,-0.06,0.10,0.04,-0.25,0.00,0.00,0.53
6257,-1.50,3.06,0.00,0.00,0.00,-0.06,0.07,0.06,-0.22,0.00,0.00,0.55
6265,-1.50,3.06,0.00,-0.06,-0.19,0.00,0.08,0.08,-0.25,0.00,0.00,0.52
6275,-1.50,3.06,0.00,0.12,0.19,0.19,0.06,0.06,-0.23,0.00,0.00,0.52
6284,-1.50,3.06,0.00,0.12,0.19,0.19,0.06,0.05,-0.22,0.00,0.00,0.51
6294,-1.50,3.06,0.00,0.25,0.38,-0.06,0.07,0.06,-0.23,0.00,0.00,0.52
6303,-1.50,3.06,0.00,0.00,0.06,0.06,0.08,0.04,-0.25,0.00,0.00,0.51
6313,-1.50,3.06,0.00,0.00,0.19,0.00,0.09,0.04,-0.23,0.00,0.00,0.49
6323,-1.50,3.06,0.00,0.06,-0.06,-0.06,0.09,0.05,-0.23,0.00,0.00,0.51
6335,-1.50,3.06,0.00,-0.06,-0.19,-0.06,0.09,0.05,-0.23,0.00,0.00,0.50
6344,-1.50,3.06,0.00,0.00,-0.06,0.12,0.08,0.07,-0.19,0.00,0.00,0.51
6357,-1.50,3.06,0.00,0.00,-0.06,0.12,0.08,0.05,-0.25,0.00,0.00,0.52
6391,-1.50,3.06,0.00,0.00,-0.25,-0.12,0.06,0.04,-0.24,0.00,0.00,0.55
6404,-1.50,3.06,0.00,-0.06,-0.25,0.06,0.08,0.06,-0.22,0.00,0.00,0.54
6413,-1.50,3.06,0.00,0.00,-0.12,0.06,0.08,0.04,-0.26,0.00,0.00,0.52
6423,-1.50,3.06,0.00,-0.06,-0.19,0.06,0.09,0.04,-0.24,0.00,0.00,0.53
6432,-1.50,3.06,0.00,0.00,0.06,0.00,0.11,0.04,-0.20,0.00,0.00,0.54
6442,-1.50,3.06,0.00,0.19,-0.19,0.00,0.11,0.04,-0.20,0.00,0.00,0.54
6452,-1.50,3.06,0.00,0.00,0.00,-0.19,0.08,0.03,-0.22,0.00,0.00,0.53
6462,-1.50,3.06,0.00,0.06,0.06,0.00,0.06,0.05,-0.22,0.00,0.00,0.54
6472,-1.50,3.06,0.00,0.06,-0.12,0.00,0.08,0.05,-0.22,0.00,0.00,0.52
6481,-1.50,3.06,0.00,0.12,0.12,0.06,0.08,0.05,-0.22,0.00,0.00,0.53
6492,-1.50,3.06,0.00,0.12,0.19,0.00,0.05,0.05,-0.24,0.00,0.00,0.51
6502,-1.50,3.06,0.00,0.06,0.12,0.12,0.04,0.04,-0.24,0.00,0.00,0.52
6512,-1.50,3.06,0.00,-0.06,0.19,0.12,0.07,0.04,-0.25,0.00,0.00,0.52
6522,-1.50,3.06,0.00,-0.06,-0.06,-0.06,0.07,0.04,-0.25,0.00,0.00,0.51
6530,-1.50,3.06,0.00,0.06,0.06,0.12,0.11,0.06,-0.22,0.00,0.00,0.50
6563,-1.50,3.06,0.00,-0.06,-0.06,0.06,0.10,0.03,-0.26,0.00,0.00,0.52
6572,-1.50,3.06,0.00,0.06,0.12,0.06,0.09,0.03,-0.23,0.00,0.00,0.51
6581,-1.50,3.06,0.00,0.19,-0.12,0.12,0.10,0.06,-0.22,0.00,0.00,0.52
6591,-1.50,3.06,0.00,-0.12,-0.25,0.00,0.09,0.07,-0.22,0.00,0.00,0.53
6601,-1.50,3.06,0.00,-0.06,0.19,-0.06,0.10,0.04,-0.24,0.00,0.00,0.53
6612,-1.50,3.06,0.00,0.00,0.06,0.00,0.10,0.04,-0.24,0.00,0.00,0.53
6622,-1.50,3.06,0.00,-0.06,0.19,0.12,0.08,0.06,-0.23,0.00,0.00,0.54
6632,-1.50,3.06,0.00,-0.06,-0.06,0.06,0.08,0.06,-0.23,0.00,0.00,0.52
6642,-1.50,3.06,0.00,-0.12,-0.19,0.00,0.10,0.04,-0.24,0.00,0.00,0.52
6652,-1.50,3.06,0.00,0.12,0.12,0.06,0.09,0.07,-0.24,0.00,0.00,0.51
6661,-1.50,3.06,0.00,0.12,0.25,-0.06,0.07,0.08,-0.22,0.00,0.00,0.53
6673,-1.50,3.06,0.00,0.00,0.25,-0.19,0.08,0.04,-0.27,0.00,0.00,0.52
6682,-1.50,3.06,0.00,-0.06,0.06,-0.06,0.09,0.06,-0.21,0.00,0.00,0.53
6694,-1.50,3.06,0.00,-0.06,0.06,-0.06,0.09,0.04,-0.22,0.00,0.00,0.53
6852,-1.50,3.06,0.00,0.12,0.00,-0.12,0.09,0.04,-0.26,0.00,0.00,0.52
6865,-1.50,3.06,0.00,0.00,-0.25,0.06,0.09,0.06,-0.23,0.00,0.00,0.51
6872,-1.50,3.06,0.00,-0.06,-0.25,0.06,0.10,0.05,-0.24,0.00,0.00,0.52
6885,-1.50,3.06,0.00,-0.06,0.25,-0.06,0.11,0.04,-0.23,0.00,0.00,0.52
6892,-1.50,3.06,0.00,-0.12,0.00,0.00,0.06,0.04,-0.22,0.00,0.00,0.50
6904,-1.50,3.06,0.00,-0.06,0.00,0.00,0.05,0.05,-0.25,0.00,0.00,0.51
6911,-1.50,3.06,0.00,-0.06,0.06,-0.06,0.09,0.07,-0.26,0.00,0.00,0.51
6921,-1.50,3.06,0.00,-0.06,0.06,-0.06,0.07,0.06,-0.25,0.00,0.00,0.51
6930,-1.50,3.06,0.00,-0.12,-0.12,0.00,0.06,0.06,-0.20,0.00,0.00,0.51
6944,-1.50,3.06,0.00,0.12,-0.12,0.19,0.08,0.04,-0.19,0.00,0.00,0.51
6952,-1.50,3.06,0.00,0.12,0.06,0.00,0.08,0.03,-0.26,0.00,0.00,0.52
6962,-1.50,3.06,0.00,0.19,0.12,-0.06,0.08,0.03,-0.21,0.00,0.00,0.53
6971,-1.50,3.06,0.00,0.00,-0.06,-0.06,0.10,0.05,-0.25,0.00,0.00,0.53
6980,-1.50,3.06,0.00,-0.12,-0.38,0.06,0.09,0.06,-0.21,0.00,0.00,0.53
6989,-1.50,3.06,0.00,-0.12,-0.38,0.06,0.10,0.08,-0.25,0.00,0.00,0.55
7020,-1.50,3.06,0.00,0.00,0.31,-0.06,0.08,0.04,-0.20,0.00,0.00,0.52
7029,-1.50,3.06,0.00,0.00,0.31,-0.06,0.09,0.07,-0.22,0.00,0.00,0.54
7042,-1.50,3.06,0.00,-0.06,-0.19,0.06,0.05,0.05,-0.22,0.00,0.00,0.54
7050,-1.50,3.06,0.00,-0.12,0.06,0.00,0.07,0.06,-0.25,0.00,0.00,0.54
7059,-1.50,3.06,0.00,-0.12,0.06,0.00,0.08,0.06,-0.24,0.00,0.00,0.53
7069,-1.50,3.06,0.00,-0.19,0.00,-0.06,0.07,0.04,-0.25,0.00,0.00,0.54
7078,-1.50,3.06,0.00,0.00,0.25,-0.06,0.07,0.04,-0.23,0.00,0.00,0.52
7088,-1.50,3.06,0.00,0.00,0.06,0.06,0.07,0.04,-0.23,0.00,0.00,0.53
7101,-1.50,3.06,0.00,0.00,-0.25,0.06,0.08,0.08,-0.24,0.00,0.00,0.52
7109,-1.50,3.06,0.00,0.12,0.00,0.06,0.11,0.04,-0.23,0.00,0.00,0.53
7119,-1.50,3.06,0.00,0.12,0.00,0.06,0.08,0.04,-0.24,0.00,0.00,0.55
7131,-1.50,3.06,0.00,-0.06,-0.12,0.00,0.08,0.04,-0.24,0.00,0.00,0.52
7139,-1.50,3.06,0.00,0.00,0.06,0.12,0.08,0.04,-0.19,0.00,0.00,0.52
7150,-1.50,3.06,0.00,0.00,0.06,0.12,0.07,0.04,-0.22,0.00,0.00,0.53
7159,-1.50,3.06,0.00,0.00,-0.19,-0.06,0.06,0.04,-0.23,0.00,0.00,0.53
7189,-1.50,3.06,0.00,-0.12,-0.06,0.00,0.10,0.05,-0.23,0.00,0.00,0.51
7198,-1.50,3.06,0.00,-0.12,-0.06,0.00,0.07,0.05,-0.25,0.00,0.00,0.52
7208,-1.50,3.06,0.00,-0.19,-0.19,0.06,0.08,0.03,-0.24,0.00,0.00,0.53
7218,-1.50,3.06,0.00,0.00,-0.19,-0.06,0.10,0.04,-0.25,0.00,0.00,0.54
7227,-1.50,3.06,0.00,-0.06,0.00,0.06,0.10,0.04,-0.25,0.00,0.00,0.52
7239,-1.50,3.06,0.00,-0.12,-0.06,-0.06,0.08,0.03,-0.23,0.00,0.00,0.51
7248,-1.50,3.06,0.00,0.00,0.00,0.06,0.07,0.05,-0.25,0.00,0.00,0.53
7259,-1.50,3.06,0.00,-0.19,0.00,0.06,0.08,0.04,-0.24,0.00,0.00,0.53
7269,-1.50,3.06,0.00,-0.19,-0.12,-0.12,0.07,0.04,-0.23,0.00,0.00,0.53
7279,-1.50,3.06,0.00,-0.19,-0.12,-0.12,0.11,0.05,-0.22,0.00,0.00,0.53
7288,-1.50,3.06,0.00,-0.12,0.00,-0.06,0.10,0.06,-0.24,0.00,0.00,0.52
7298,-1.50,3.06,0.00,-0.06,0.00,-0.06,0.10,0.07,-0.24,0.00,0.00,0.53
7308,-1.50,3.06,0.00,0.00,0.31,-0.12,0.11,0.06,-0.22,0.00,0.00,0.54
7319,-1.50,3.06,0.00,0.00,0.00,0.12,0.08,0.02,-0.23,0.00,0.00,0.54
7328,-1.50,3.06,0.00,-0.19,-0.25,0.00,0.09,0.07,-0.25,0.00,0.00,0.53
7361,-1.50,3.06,0.00,-0.25,-0.19,0.12,0.07,0.06,-0.22,0.00,0.00,0.55
7369,-1.50,3.06,0.00,-0.06,-0.25,0.12,0.07,0.04,-0.22,0.00,0.00,0.53
7381,-1.50,3.06,0.00,-0.12,0.06,0.00,0.10,0.05,-0.21,0.00,0.00,0.53
7389,-1.50,3.06,0.00,-0.12,0.12,0.00,0.10,0.04,-0.26,0.00,0.00,0.53
7399,-1.50,3.06,0.00,0.00,0.00,-0.06,0.08,0.04,-0.24,0.00,0.00,0.53
7408,-1.50,3.06,0.00,-0.19,0.12,0.06,0.11,0.04,-0.26,0.00,0.00,0.53
7419,-1.50,3.06,0.00,-0.19,0.12,0.06,0.08,0.04,-0.24,0.00,0.00,0.53
7428,-1.50,3.06,0.00,0.12,0.06,0.00,0.08,0.05,-0.23,0.00,0.00,0.50
7439,-1.50,3.06,0.00,0.12,0.06,0.00,0.11,0.08,-0.23,0.00,0.00,0.52
7447,-1.50,3.06,0.00,0.06,0.31,0.00,0.08,0.07,-0.25,0.00,0.00,0.54
7460,-1.50,3.06,0.00,0.06,0.31,0.00,0.09,0.08,-0.26,0.00,0.00,0.53
7468,-1.50,3.06,0.00,0.12,0.00,0.00,0.07,0.06,-0.23,0.00,0.00,0.53
7480,-1.50,3.06,0.00,0.12,0.00,0.00,0.06,0.03,-0.22,0.00,0.00,0.52
7488,-1.50,3.06,0.00,0.12,0.25,-0.06,0.06,0.03,-0.22,0.00,0.00,0.53
7500,-1.50,3.06,0.00,0.12,0.25,-0.06,0.05,0.05,-0.26,0.00,0.00,0.52
7532,-1.50,3.06,0.00,-0.12,-0.06,0.00,0.09,0.04,-0.23,0.00,0.00,0.51
7542,-1.50,3.06,0.00,0.06,-0.12,0.06,0.09,0.06,-0.21,0.00,0.00,0.52
7550,-1.50,3.06,0.00,0.06,0.12,0.06,0.13,0.04,-0.27,0.00,0.00,0.53
7559,-1.50,3.06,0.00,-0.06,0.06,0.06,0.15,0.06,-0.25,0.00,0.00,0.53
7567,-1.50,3.06,0.00,0.00,0.00,0.00,0.09,0.05,-0.23,0.00,0.00,0.52
7576,-1.50,3.06,0.00,0.00,0.00,0.00,0.09,0.05,-0.24,0.00,0.00,0.52
7586,-1.50,3.06,0.00,0.19,0.06,-0.06,0.05,0.06,-0.23,0.00,0.00,0.53
7598,-1.50,3.06,0.00,-0.06,-0.06,0.06,0.05,0.06,-0.22,0.00,0.00,0.54
7607,-1.50,3.06,0.00,0.00,0.19,0.06,0.03,0.04,-0.22,0.00,0.00,0.55
7620,-1.50,3.06,0.00,0.00,0.19,0.06,0.07,0.03,-0.25,0.00,0.00,0.54
7627,-1.50,3.06,0.00,0.19,-0.19,0.06,0.07,0.05,-0.24,0.00,0.00,0.51
7640,-1.50,3.06,0.00,0.00,0.00,0.00,0.08,0.05,-0.22,0.00,0.00,0.53
7647,-1.50,3.06,0.00,0.19,0.06,-0.06,0.11,0.05,-0.26,0.00,0.00,0.52
7656,-1.50,3.06,0.00,-0.06,0.12,-0.06,0.10,0.06,-0.24,0.00,0.00,0.53
7689,-1.50,3.06,0.00,-0.19,0.06,-0.06,0.08,0.04,-0.25,0.00,0.00,0.53
7697,-1.50,3.06,0.00,-0.06,0.12,0.00,0.07,0.06,-0.26,0.00,0.00,0.52
7710,-1.50,3.06,0.00,0.06,0.19,-0.06,0.04,0.07,-0.24,0.00,0.00,0.54
7717,-1.50,3.06,0.00,0.06,0.38,0.06,0.05,0.04,-0.20,0.00,0.00,0.53
7729,-1.50,3.06,0.00,-0.06,0.25,0.06,0.04,0.07,-0.21,0.00,0.00,0.51
7737,-1.50,3.06,0.00,-0.19,0.06,0.06,0.08,0.06,-0.23,0.00,0.00,0.53
7746,-1.50,3.06,0.00,0.06,-0.25,0.06,0.11,0.06,-0.25,0.00,0.00,0.53
7755,-1.50,3.06,0.00,0.06,-0.25,0.06,0.13,0.03,-0.25,0.00,0.00,0.53
7765,-1.50,3.06,0.00,-0.06,-0.19,0.06,0.13,0.04,-0.22,0.00,0.00,0.53
7775,-1.50,3.06,0.00,0.19,-0.12,0.12,0.11,0.07,-0.21,0.00,0.00,0.54
7785,-1.50,3.06,0.00,-0.06,0.00,0.06,0.11,0.05,-0.23,0.00,0.00,0.54
7794,-1.50,3.06,0.00,-0.06,-0.19,0.06,0.07,0.03,-0.24,0.00,0.00,0.51
7806,-1.50,3.06,0.00,0.00,-0.12,0.06,0.05,0.06,-0.25,0.00,0.00,0.53
7815,-1.50,3.06,0.00,0.00,0.00,0.12,0.06,0.06,-0.21,0.00,0.00,0.53
7826,-1.50,3.06,0.00,0.00,0.12,0.00,0.06,0.06,-0.21,0.00,0.00,0.53
7856,-1.50,3.06,0.00,0.06,0.06,-0.06,0.09,0.06,-0.23,0.00,0.00,0.55
7866,-1.50,3.06,0.00,0.06,0.06,-0.06,0.10,0.05,-0.24,0.00,0.00,0.53
7875,-1.50,3.06,0.00,0.12,0.06,0.00,0.10,0.05,-0.24,0.00,0.00,0.53
7886,-1.50,3.06,0.00,0.12,0.06,0.00,0.07,0.04,-0.23,0.00,0.00,0.53
7895,-1.50,3.06,0.00,-0.06,0.06,0.06,0.04,0.04,-0.23,0.00,0.00,0.53
7905,-1.50,3.06,0.00,-0.06,0.06,0.06,0.04,0.07,-0.24,0.00,0.00,0.53
7915,-1.50,3.06,0.00,0.12,0.25,0.19,0.05,0.04,-0.21,0.00,0.00,0.54
7925,-1.50,3.06,0.00,0.00,-0.06,0.00,0.05,0.04,-0.21,0.00,0.00,0.52
7934,-1.50,3.06,0.00,-0.06,0.00,0.00,0.10,0.04,-0.24,0.00,0.00,0.54
7946,-1.50,3.06,0.00,-0.06,0.00,0.00,0.12,0.04,-0.23,0.00,0.00,0.53
7954,-1.50,3.06,0.00,0.12,0.12,-0.19,0.11,0.05,-0.22,0.00,0.00,0.53
7965,-1.50,3.06,0.00,0.12,0.12,-0.19,0.07,0.04,-0.19,0.00,0.00,0.55
7974,-1.50,3.06,0.00,0.12,0.12,0.06,0.10,0.05,-0.24,0.00,0.00,0.53
7985,-1.50,3.06,0.00,0.00,-0.19,-0.06,0.07,0.05,-0.22,0.00,0.00,0.54
7994,-1.50,3.06,0.00,0.06,0.06,0.00,0.07,0.03,-0.24,0.00,0.00,0.53
8025,-1.50,3.06,0.00,0.00,0.06,-0.06,0.04,0.04,-0.24,0.00,0.00,0.53
8034,-1.50,3.06,0.00,0.00,0.06,-0.06,0.08,0.03,-0.23,0.00,0.00,0.55
8043,-1.50,3.06,0.00,0.12,-0.06,-0.06,0.09,0.06,-0.26,0.00,0.00,0.54
8053,-1.50,3.06,0.00,0.06,0.06,-0.06,0.13,0.05,-0.25,0.00,0.00,0.54
8063,-1.50,3.06,0.00,0.00,-0.19,-0.06,0.10,0.05,-0.22,0.00,0.00,0.52
8073,-1.50,3.06,0.00,0.06,-0.19,0.00,0.10,0.04,-0.20,0.00,0.00,0.53
8084,-1.50,3.06,0.00,0.00,-0.25,0.00,0.06,0.04,-0.24,0.00,0.00,0.53
8093,-1.50,3.06,0.00,0.19,-0.19,-0.12,0.05,0.04,-0.24,0.00,0.00,0.53
8103,-1.50,3.06,0.00,0.00,-0.06,-0.12,0.05,0.04,-0.27,0.00,0.00,0.53
8113,-1.50,3.06,0.00,0.19,-0.12,0.00,0.06,0.08,-0.21,0.00,0.00,0.53
8122,-1.50,3.06,0.00,0.06,-0.19,0.00,0.06,0.08,-0.21,0.00,0.00,0.53
8132,-1.50,3.06,0.00,0.00,0.00,0.00,0.09,0.08,-0.24,0.00,0.00,0.53
8144,-1.50,3.06,0.00,0.00,-0.06,-0.06,0.09,0.05,-0.23,0.00,0.00,0.53
8153,-1.50,3.06,0.00,0.06,0.12,0.00,0.11,0.04,-0.26,0.00,0.00,0.53
8165,-1.50,3.06,0.00,-0.12,-0.25,0.00,0.08,0.05,-0.23,0.00,0.00,0.53
8195,-1.50,3.06,0.00,0.19,0.25,-0.12,0.04,0.07,-0.25,0.00,0.00,0.53
8203,-1.50,3.06,0.00,0.38,0.19,0.00,0.08,0.06,-0.21,0.00,0.00,0.55
8213,-1.50,3.06,0.00,0.38,0.19,0.00,0.11,0.04,-0.25,0.00,0.00,0.53
8223,-1.50,3.06,0.00,0.00,0.00,-0.12,0.11,0.04,-0.25,0.00,0.00,0.53
8232,-1.50,3.06,0.00,0.00,-0.25,0.06,0.11,0.02,-0.25,0.00,0.00,0.55
8245,-1.50,3.06,0.00,0.06,0.12,-0.12,0.06,0.02,-0.24,0.00,0.00,0.53
8253,-1.50,3.06,0.00,0.06,-0.06,0.00,0.07,0.06,-0.23,0.00,0.00,0.54
8265,-1.50,3.06,0.00,0.06,-0.06,0.00,0.07,0.05,-0.26,0.00,0.00,0.53
8273,-1.50,3.06,0.00,0.06,0.00,-0.12,0.08,0.04,-0.21,0.00,0.00,0.53
8285,-1.50,3.06,0.00,0.06,0.00,-0.12,0.08,0.05,-0.24,0.00,0.00,0.53
8293,-1.50,3.06,0.00,-0.06,-0.19,0.06,0.07,0.04,-0.26,0.00,0.00,0.52
8304,-1.50,3.06,0.00,-0.06,-0.19,0.06,0.07,0.04,-0.25,0.00,0.00,0.54
8313,-1.50,3.06,0.00,0.06,-0.06,-0.19,0.07,0.05,-0.23,0.00,0.00,0.53
8322,-1.50,3.06,0.00,0.06,-0.06,-0.19,0.08,0.07,-0.22,0.00,0.00,0.53
8331,-1.50,3.06,0.00,0.00,-0.06,0.00,0.07,0.07,-0.22,0.00,0.00,0.52
8366,-1.50,3.06,0.00,0.06,0.19,-0.12,0.10,0.03,-0.22,0.00,0.00,0.54
8373,-1.50,3.06,0.00,-0.12,0.19,-0.06,0.07,0.04,-0.24,0.00,0.00,0.51
8386,-1.50,3.06,0.00,0.06,0.12,-0.12,0.07,0.06,-0.25,0.00,0.00,0.55
8394,-1.50,3.06,0.00,-0.12,0.19,-0.06,0.09,0.04,-0.24,0.00,0.00,0.53
8403,-1.50,3.06,0.00,0.00,-0.12,0.00,0.08,0.06,-0.22,0.00,0.00,0.52
8412,-1.50,3.06,0.00,0.00,-0.12,0.00,0.08,0.04,-0.23,0.00,0.00,0.54
8421,-1.50,3.06,0.00,0.00,-0.12,0.00,0.08,0.05,-0.23,0.00,0.00,0.53
8432,-1.50,3.06,0.00,0.06,0.00,-0.06,0.09,0.02,-0.28,0.00,0.00,0.53
8441,-1.50,3.06,0.00,0.00,0.06,0.00,0.07,0.04,-0.26,0.00,0.00,0.52
8453,-1.50,3.06,0.00,0.06,-0.19,0.00,0.09,0.04,-0.23,0.00,0.00,0.53
8462,-1.50,3.06,0.00,0.06,0.12,-0.12,0.07,0.06,-0.22,0.00,0.00,0.54
8473,-1.50,3.06,0.00,0.06,0.12,-0.12,0.06,0.05,-0.26,0.00,0.00,0.53
8482,-1.50,3.06,0.00,-0.19,-0.25,0.06,0.06,0.04,-0.26,0.00,0.00,0.53
8494,-1.50,3.06,0.00,-0.19,-0.25,0.06,0.07,0.02,-0.25,0.00,0.00,0.52
8502,-1.50,3.06,0.00,-0.12,-0.31,0.06,0.08,0.04,-0.24,0.00,0.00,0.54
8535,-1.50,3.06,0.00,-0.12,-0.06,0.06,0.13,0.09,-0.19,0.00,0.00,0.53
8542,-1.50,3.06,0.00,0.12,0.00,0.06,0.09,0.04,-0.25,0.00,0.00,0.54
8553,-1.50,3.06,0.00,0.00,0.19,0.06,0.06,0.02,-0.27,0.00,0.00,0.54
8562,-1.50,3.06,0.00,-0.06,0.25,0.00,0.04,0.02,-0.24,0.00,0.00,0.53
8571,-1.50,3.06,0.00,-0.06,0.25,0.00,0.04,0.05,-0.20,0.00,0.00,0.54
8580,-1.50,3.06,0.00,-0.06,-0.12,0.06,0.06,0.06,-0.24,0.00,0.00,0.52
8593,-1.50,3.06,0.00,0.00,0.00,0.00,0.07,0.08,-0.25,0.00,0.00,0.52
8601,-1.50,3.06,0.00,0.06,0.00,0.06,0.07,0.06,-0.25,0.00,0.00,0.53
8615,-1.50,3.06,0.00,0.06,0.00,0.06,0.10,0.04,-0.22,0.00,0.00,0.54
8627,-1.50,3.06,0.00,-0.12,-0.12,-0.06,0.11,0.02,-0.26,0.00,0.00,0.54
8637,-1.50,3.06,0.00,-0.06,0.00,0.06,0.11,0.04,-0.26,0.00,0.00,0.53
8648,-1.50,3.06,0.00,0.06,0.00,-0.12,0.08,0.03,-0.26,0.00,0.00,0.54
8659,-1.50,3.06,0.00,-0.06,0.12,0.00,0.08,0.08,-0.25,0.00,0.00,0.54
8671,-1.50,3.06,0.00,-0.06,-0.12,0.00,0.04,0.08,-0.24,0.00,0.00,0.53
8701,-1.50,3.06,0.00,0.06,0.06,0.06,0.11,0.05,-0.23,0.00,0.00,0.52
8710,-1.50,3.06,0.00,0.06,0.06,0.06,0.09,0.05,-0.24,0.00,0.00,0.52
8720,-1.50,3.06,0.00,-0.12,-0.19,0.00,0.06,0.05,-0.22,0.00,0.00,0.51
8730,-1.50,3.06,0.00,0.00,0.00,0.00,0.08,0.04,-0.23,0.00,0.00,0.53
8739,-1.50,3.06,0.00,-0.12,-0.06,0.06,0.07,0.07,-0.26,0.00,0.00,0.54
8752,-1.50,3.06,0.00,0.06,0.12,0.06,0.05,0.03,-0.23,0.00,0.00,0.52
8760,-1.50,3.06,0.00,-0.06,0.06,0.00,0.10,0.04,-0.26,0.00,0.00,0.54
8772,-1.50,3.06,0.00,-0.06,0.06,0.00,0.07,0.01,-0.22,0.00,0.00,0.52
8780,-1.50,3.06,0.00,0.00,-0.19,0.00,0.09,0.06,-0.21,0.00,0.00,0.53
8790,-1.50,3.06,0.00,0.00,-0.19,0.00,0.11,0.07,-0.24,0.00,0.00,0.53
8799,-1.50,3.06,0.00,-0.06,-0.06,-0.06,0.10,0.04,-0.23,0.00,0.00,0.52
8813,-1.50,3.06,0.00,0.00,-0.06,0.00,0.09,0.04,-0.25,0.00,0.00,0.54
8824,-1.50,3.06,0.00,0.06,-0.12,-0.06,0.09,0.04,-0.24,0.00,0.00,0.51
8832,-1.50,3.06,0.00,0.06,0.06,0.00,0.05,0.04,-0.22,0.00,0.00,0.53
8843,-1.50,3.06,0.00,0.06,0.00,-0.12,0.07,0.05,-0.25,0.00,0.00,0.54
8875,-1.50,3.06,0.00,-0.25,-0.06,-0.06,0.06,0.04,-0.24,0.00,0.00,0.52
8890,-1.50,3.06,0.00,-0.25,-0.12,0.00,0.09,0.04,-0.23,0.00,0.00,0.55
8899,-1.50,3.06,0.00,-0.12,-0.19,0.00,0.10,0.04,-0.23,0.00,0.00,0.53
8910,-1.50,3.06,0.00,-0.12,-0.19,0.00,0.13,0.06,-0.23,0.00,0.00,0.54
8919,-1.50,3.06,0.00,-0.06,0.06,-0.12,0.12,0.04,-0.24,0.00,0.00,0.53
8931,-1.50,3.06,0.00,-0.06,0.06,-0.12,0.07,0.05,-0.26,0.00,0.00,0.52
8939,-1.50,3.06,0.00,-0.12,0.00,-0.12,0.06,0.04,-0.25,0.00,0.00,0.51
8951,-1.50,3.06,0.00,-0.12,0.00,-0.12,0.06,0.03,-0.22,0.00,0.00,0.52
8959,-1.50,3.06,0.00,-0.12,0.00,0.00,0.03,0.04,-0.25,0.00,0.00,0.53
8969,-1.50,3.06,0.00,-0.12,0.00,0.00,0.07,0.08,-0.22,0.00,0.00,0.53
8978,-1.50,3.06,0.00,-0.06,-0.12,0.19,0.11,0.05,-0.23,0.00,0.00,0.53
8989,-1.50,3.06,0.00,-0.06,-0.12,0.19,0.09,0.04,-0.25,0.00,0.00,0.53
8998,-1.50,3.06,0.00,-0.12,-0.06,0.00,0.09,0.04,-0.25,0.00,0.00,0.52
9011,-1.50,3.06,0.00,-0.12,-0.06,0.00,0.12,0.04,-0.21,0.00,0.00,0.52
9019,-1.50,3.06,0.00,0.00,0.38,0.00,0.09,0.04,-0.21,0.00,0.00,0.53
9052,-1.50,3.06,0.00,0.19,0.12,0.06,0.04,0.06,-0.19,0.00,0.00,0.53
9059,-1.50,3.06,0.00,0.06,-0.12,0.06,0.05,0.05,-0.21,0.00,0.00,0.54
9070,-1.50,3.06,0.00,-0.19,-0.12,-0.06,0.07,0.05,-0.22,0.00,0.00,0.53
9078,-1.50,3.06,0.00,-0.12,0.00,0.00,0.06,0.02,-0.24,0.00,0.00,0.54
9087,-1.50,3.06,0.00,-0.12,0.00,0.00,0.09,0.04,-0.22,0.00,0.00,0.54
9097,-1.50,3.06,0.00,0.00,0.06,0.06,0.10,0.04,-0.23,0.00,0.00,0.54
9107,-1.50,3.06,0.00,-0.06,0.12,0.00,0.11,0.06,-0.24,0.00,0.00,0.53
9116,-1.50,3.06,0.00,0.12,0.19,-0.12,0.11,0.06,-0.24,0.00,0.00,0.53
9126,-1.50,3.06,0.00,0.00,0.06,0.12,0.11,0.05,-0.23,0.00,0.00,0.52
9136,-1.50,3.06,0.00,-0.12,-0.12,0.12,0.09,0.06,-0.25,0.00,0.00,0.53
9146,-1.50,3.06,0.00,0.19,-0.06,0.00,0.09,0.04,-0.23,0.00,0.00,0.53
9156,-1.50,3.06,0.00,0.19,0.06,0.12,0.06,0.05,-0.23,0.00,0.00,0.53
9168,-1.50,3.06,0.00,0.06,0.06,0.00,0.07,0.04,-0.23,0.00,0.00,0.51
9177,-1.50,3.06,0.00,-0.06,-0.12,0.06,0.07,0.05,-0.24,0.00,0.00,0.54
9189,-1.50,3.06,0.00,-0.06,-0.12,0.06,0.10,0.06,-0.23,0.00,0.00,0.54
9219,-1.50,3.06,0.00,0.06,0.00,-0.06,0.10,0.04,-0.23,0.00,0.00,0.53
9227,-1.50,3.06,0.00,0.06,-0.06,0.06,0.09,0.03,-0.21,0.00,0.00,0.53
9236,-1.50,3.06,0.00,0.06,-0.06,0.06,0.07,0.06,-0.25,0.00,0.00,0.53
9246,-1.50,3.06,0.00,0.06,0.19,0.06,0.07,0.06,-0.22,0.00,0.00,0.53
9256,-1.50,3.06,0.00,-0.19,0.06,0.00,0.09,0.06,-0.23,0.00,0.00,0.53
9265,-1.50,3.06,0.00,0.00,0.06,-0.12,0.09,0.06,-0.23,0.00,0.00,0.53
9275,-1.50,3.06,0.00,0.00,0.06,0.00,0.07,0.08,-0.22,0.00,0.00,0.53
9285,-1.50,3.06,0.00,0.06,0.19,-0.06,0.09,0.04,-0.23,0.00,0.00,0.54
9295,-1.50,3.06,0.00,0.31,0.25,-0.12,0.09,0.06,-0.24,0.00,0.00,0.52
9306,-1.50,3.06,0.00,0.19,0.38,0.06,0.08,0.06,-0.21,0.00,0.00,0.52
9316,-1.50,3.06,0.00,0.00,0.12,0.06,0.08,0.06,-0.21,0.00,0.00,0.55
9326,-1.50,3.06,0.00,0.06,0.19,0.06,0.08,0.07,-0.23,0.00,0.00,0.53
9337,-1.50,3.06,0.00,0.06,0.06,0.12,0.09,0.04,-0.24,0.00,0.00,0.53
9346,-1.50,3.06,0.00,-0.06,0.12,0.00,0.07,0.05,-0.25,0.00,0.00,0.52
9357,-1.50,3.06,0.00,0.00,0.12,-0.06,0.09,0.06,-0.24,0.00,0.00,0.55
9387,-1.50,3.06,0.00,0.12,0.50,0.00,0.07,0.03,-0.24,0.00,0.00,0.53
9396,-1.50,3.06,0.00,0.12,0.38,0.00,0.08,0.08,-0.22,0.00,0.00,0.54
9405,-1.50,3.06,0.00,0.12,0.38,0.00,0.07,0.04,-0.24,0.00,0.00,0.52
9414,-1.50,3.06,0.00,0.12,0.00,0.00,0.07,0.04,-0.24,0.00,0.00,0.53
9424,-1.50,3.06,0.00,0.06,0.19,0.00,0.07,0.05,-0.24,0.00,0.00,0.52
9434,-1.50,3.06,0.00,-0.25,0.06,0.00,0.07,0.04,-0.25,0.00,0.00,0.53
9446,-1.50,3.06,0.00,0.00,0.00,0.06,0.08,0.05,-0.24,0.00,0.00,0.52
9455,-1.50,3.06,0.00,-0.06,-0.12,-0.06,0.06,0.05,-0.25,0.00,0.00,0.52
9466,-1.50,3.06,0.00,0.06,-0.06,-0.12,0.09,0.04,-0.23,0.00,0.00,0.53
9475,-1.50,3.06,0.00,-0.06,-0.12,0.06,0.09,0.04,-0.21,0.00,0.00,0.52
9487,-1.50,3.06,0.00,-0.19,-0.25,-0.12,0.10,0.05,-0.24,0.00,0.00,0.51
9496,-1.50,3.06,0.00,0.00,0.06,0.00,0.09,0.05,-0.24,0.00,0.00,0.55
9508,-1.50,3.06,0.00,0.00,0.06,0.00,0.06,0.04,-0.24,0.00,0.00,0.54
9516,-1.50,3.06,0.00,0.00,0.25,0.00,0.05,0.02,-0.22,0.00,0.00,0.54
9529,-1.50,3.06,0.00,-0.19,0.00,-0.06,0.08,0.03,-0.23,0.00,0.00,0.55
9565,-1.50,3.06,0.00,-0.06,0.00,0.00,0.08,0.05,-0.23,0.00,0.00,0.54
9574,-1.50,3.06,0.00,-0.06,-0.06,0.12,0.11,0.04,-0.24,0.00,0.00,0.52
9584,-1.50,3.06,0.00,-0.19,-0.25,0.12,0.09,0.05,-0.25,0.00,0.00,0.53
9594,-1.50,3.06,0.00,-0.06,-0.19,-0.06,0.09,0.06,-0.21,0.00,0.00,0.52
9604,-1.50,3.06,0.00,-0.06,-0.12,-0.06,0.07,0.06,-0.21,0.00,0.00,0.52
9613,-1.50,3.06,0.00,0.00,0.00,0.06,0.07,0.06,-0.21,0.00,0.00,0.53
9623,-1.50,3.06,0.00,-0.06,0.06,0.00,0.06,0.07,-0.21,0.00,0.00,0.54
9633,-1.50,3.06,0.00,0.19,0.06,0.00,0.07,0.04,-0.24,0.00,0.00,0.53
9647,-1.50,3.06,0.00,0.06,-0.06,0.12,0.09,0.05,-0.23,0.00,0.00,0.52
9655,-1.50,3.06,0.00,-0.12,-0.06,0.00,0.09,0.04,-0.24,0.00,0.00,0.52
9664,-1.50,3.06,0.00,-0.12,-0.06,0.00,0.10,0.05,-0.22,0.00,0.00,0.53
9674,-1.50,3.06,0.00,0.12,0.25,0.00,0.10,0.03,-0.21,0.00,0.00,0.53
9683,-1.50,3.06,0.00,0.06,0.06,0.12,0.11,0.05,-0.24,0.00,0.00,0.50
9693,-1.50,3.06,0.00,-0.19,0.00,0.00,0.08,0.04,-0.23,0.00,0.00,0.52
9724,-1.50,3.06,0.00,0.00,-0.12,0.00,0.07,0.06,-0.24,0.00,0.00,0.53
9734,-1.50,3.06,0.00,0.00,-0.12,0.00,0.07,0.00,-0.27,0.00,0.00,0.53
9744,-1.50,3.06,0.00,-0.06,0.00,0.00,0.03,0.10,-0.21,0.00,0.00,0.53
9754,-1.50,3.06,0.00,0.06,0.06,0.06,0.00,0.15,-0.20,0.00,0.00,0.54
9763,-1.50,3.06,0.00,0.06,0.00,0.06,0.10,0.09,-0.21,0.00,0.00,0.53
9775,-1.50,3.06,0.00,-0.06,0.06,0.00,0.14,-0.01,-0.28,0.00,0.00,0.52
9784,-1.50,3.06,0.00,-0.19,0.00,0.06,0.18,-0.04,-0.24,0.00,0.00,0.54
9794,-1.50,3.06,0.00,-0.19,0.00,0.06,0.14,-0.02,-0.24,0.00,0.00,0.53
9803,-1.50,3.06,0.00,0.00,0.31,0.06,0.09,0.04,-0.24,0.00,0.00,0.52
9812,-1.50,3.06,0.00,0.06,0.12,0.00,0.02,0.19,-0.19,0.00,0.00,0.52
9822,-1.50,3.06,0.00,0.12,0.06,-0.12,0.01,0.19,-0.20,0.00,0.00,0.53
9832,-1.50,3.06,0.00,0.12,0.19,0.06,0.01,0.19,-0.20,0.00,0.00,0.52
9842,-1.50,3.06,0.00,-0.25,0.06,0.12,-0.05,0.09,-0.24,0.00,0.00,0.54
9852,-1.50,3.06,0.00,-0.31,-0.38,0.00,0.09,-0.06,-0.26,0.00,0.00,0.51
9863,-1.50,3.06,0.00,-0.25,-0.44,0.06,0.09,-0.06,-0.26,0.00,0.00,0.54
9893,-1.50,3.06,0.00,-0.12,-0.12,-0.12,0.09,0.06,-0.25,0.00,0.00,0.54
9905,-1.50,3.06,0.00,-0.12,-0.12,-0.12,0.14,0.00,-0.23,0.00,0.00,0.53
9913,-1.50,3.06,0.00,-0.25,-0.25,0.06,0.13,0.00,-0.21,0.00,0.00,0.55
9923,-1.50,3.06,0.00,-0.25,-0.25,0.06,0.17,0.03,-0.24,0.00,0.00,0.54
9932,-1.50,3.06,0.00,0.06,0.00,-0.12,0.05,0.07,-0.24,0.00,0.00,0.53
9944,-1.50,3.06,0.00,0.06,-0.06,0.06,0.03,0.08,-0.21,0.00,0.00,0.53
9953,-1.50,3.06,0.00,-0.06,-0.06,-0.06,-0.01,0.09,-0.22,0.00,0.00,0.54
9964,-1.50,3.06,0.00,-0.06,-0.06,-0.06,-0.01,0.06,-0.24,0.00,0.00,0.53
9973,-1.50,3.06,0.00,-0.06,-0.06,-0.06,0.08,0.02,-0.22,0.00,0.00,0.52
9985,-1.50,3.06,0.00,-0.06,-0.06,-0.06,0.13,0.04,-0.24,0.00,0.00,0.55
9993,-1.50,3.06,0.00,-0.06,-0.06,-0.06,0.14,0.02,-0.24,0.00,0.00,0.52
10007,-1.50,3.06,0.00,-0.06,-0.06,-0.06,0.16,0.03,-0.23,0.00,0.00,0.53
10017,-1.50,3.06,0.00,0.12,0.12,-0.06,0.10,0.07,-0.22,0.00,0.00,0.53
10024,-1.50,3.06,0.00,0.00,0.25,0.00,0.09,0.06,-0.24,0.00,0.00,0.53
10033,-1.50,3.06,0.00,-0.06,0.38,0.00,0.07,0.05,-0.24,0.00,0.00,0.53
10063,-1.50,3.06,0.00,-0.06,0.06,-0.06,0.05,0.05,-0.24,0.00,0.00,0.52
10076,-1.50,3.06,0.00,-0.06,0.06,-0.06,0.06,0.07,-0.23,0.00,0.00,0.53
10084,-1.50,3.06,0.00,-0.06,0.00,-0.06,0.08,0.07,-0.24,0.00,0.00,0.53
10092,-1.50,3.06,0.00,0.19,-0.06,-0.12,0.07,0.04,-0.25,0.00,0.00,0.54
10101,-1.50,3.06,0.00,0.19,-0.06,-0.12,0.09,0.03,-0.25,0.00,0.00,0.53
10111,-1.50,3.06,0.00,0.06,0.00,-0.12,0.09,0.03,-0.25,0.00,0.00,0.53
10121,-1.50,3.06,0.00,0.00,-0.06,-0.12,0.13,0.06,-0.21,0.00,0.00,0.54
10132,-1.50,3.06,0.00,-0.12,0.00,-0.06,0.14,0.08,-0.25,0.00,0.00,0.54
10141,-1.50,3.06,0.00,0.06,-0.19,0.00,0.11,0.08,-0.25,0.00,0.00,0.51
10154,-1.50,3.06,0.00,-0.06,0.25,-0.06,0.07,0.07,-0.22,0.00,0.00,0.55
10162,-1.50,3.06,0.00,0.00,0.19,-0.06,0.02,0.03,-0.24,0.00,0.00,0.51
10173,-1.50,3.06,0.00,0.00,0.19,-0.06,0.04,0.02,-0.23,0.00,0.00,0.54
10182,-1.50,3.06,0.00,0.00,0.06,-0.19,0.04,0.06,-0.26,0.00,0.00,0.52
10194,-1.50,3.06,0.00,0.00,0.06,-0.19,0.06,0.09,-0.25,0.00,0.00,0.53
10226,-1.50,3.06,0.00,0.12,-0.06,-0.19,0.11,0.01,-0.21,0.00,0.00,0.52
10236,-1.50,3.06,0.00,0.00,0.12,0.06,0.10,0.02,-0.26,0.00,0.00,0.53
10244,-1.50,3.06,0.00,-0.12,0.06,0.00,0.09,0.04,-0.20,0.00,0.00,0.53
10253,-1.50,3.06,0.00,0.12,-0.06,-0.06,0.10,0.05,-0.20,0.00,0.00,0.53
10261,-1.50,3.06,0.00,0.12,-0.25,-0.06,0.07,0.06,-0.21,0.00,0.00,0.54
10273,-1.50,3.06,0.00,0.12,-0.25,-0.06,0.09,0.06,-0.21,0.00,0.00,0.53
10281,-1.50,3.06,0.00,0.12,-0.06,0.00,0.09,0.05,-0.27,0.00,0.00,0.52
10293,-1.50,3.06,0.00,0.12,-0.06,0.00,0.07,0.03,-0.23,0.00,0.00,0.52
10301,-1.50,3.06,0.00,0.00,0.12,0.00,0.07,0.04,-0.23,0.00,0.00,0.53
10311,-1.50,3.06,0.00,0.06,-0.12,0.00,0.08,0.06,-0.24,0.00,0.00,0.53
10320,-1.50,3.06,0.00,-0.12,-0.06,-0.25,0.09,0.07,-0.20,0.00,0.00,0.52
10330,-1.50,3.06,0.00,-0.12,-0.06,-0.25,0.08,0.08,-0.24,0.00,0.00,0.53
10340,-1.50,3.06,0.00,0.00,0.00,-0.12,0.07,0.07,-0.23,0.00,0.00,0.52
10350,-1.50,3.06,0.00,-0.06,0.12,0.06,0.07,0.04,-0.25,0.00,0.00,0.53
10360,-1.50,3.06,0.00,-0.12,0.00,-0.12,0.05,0.03,-0.24,0.00,0.00,0.53
10391,-1.50,3.06,0.00,0.06,-0.06,-0.19,0.12,0.09,-0.21,0.00,0.00,0.52
10400,-1.50,3.06,0.00,0.12,0.12,0.06,0.10,0.08,-0.23,0.00,0.00,0.51
10409,-1.50,3.06,0.00,0.12,0.12,0.06,0.10,0.08,-0.23,0.00,0.00,0.53
10419,-1.50,3.06,0.00,0.06,-0.38,-0.12,0.09,0.01,-0.22,0.00,0.00,0.52
10429,-1.50,3.06,0.00,0.06,0.12,-0.12,0.07,0.00,-0.24,0.00,0.00,0.54
10439,-1.50,3.06,0.00,-0.06,0.00,0.06,0.07,0.05,-0.23,0.00,0.00,0.53
10449,-1.50,3.06,0.00,0.12,0.19,0.00,0.06,0.07,-0.22,0.00,0.00,0.54
10459,-1.50,3.06,0.00,0.12,0.25,0.06,0.07,0.10,-0.24,0.00,0.00,0.53
10470,-1.50,3.06,0.00,0.06,-0.06,-0.06,0.07,0.05,-0.24,0.00,0.00,0.53
10479,-1.50,3.06,0.00,0.06,-0.06,0.12,0.09,0.03,-0.26,0.00,0.00,0.52
10490,-1.50,3.06,0.00,0.00,-0.19,0.00,0.09,0.02,-0.26,0.00,0.00,0.55
10499,-1.50,3.06,0.00,-0.06,-0.12,0.00,0.09,0.03,-0.23,0.00,0.00,0.53
10508,-1.50,3.06,0.00,0.06,-0.12,0.12,0.09,0.03,-0.23,0.00,0.00,0.54
10521,-1.50,3.06,0.00,0.06,0.06,-0.06,0.06,0.05,-0.23,0.00,0.00,0.53
10551,-1.50,3.06,0.00,0.00,-0.12,0.06,0.12,0.03,-0.23,0.00,0.00,0.54
10564,-1.50,3.06,0.00,-0.25,-0.19,0.00,0.10,0.02,-0.22,0.00,0.00,0.53
10573,-1.50,3.06,0.00,0.06,-0.19,0.06,0.09,0.03,-0.24,0.00,0.00,0.52
10580,-1.50,3.06,0.00,0.31,0.12,0.00,0.10,0.05,-0.25,0.00,0.00,0.52
10591,-1.50,3.06,0.00,0.12,0.19,0.06,0.07,0.09,-0.23,0.00,0.00,0.53
10599,-1.50,3.06,0.00,0.06,-0.06,-0.06,0.10,0.07,-0.22,0.00,0.00,0.54
10608,-1.50,3.06,0.00,0.06,-0.06,-0.06,0.11,0.06,-0.24,0.00,0.00,0.52
10618,-1.50,3.06,0.00,0.06,0.00,-0.06,0.07,0.02,-0.23,0.00,0.00,0.50
10632,-1.50,3.06,0.00,-0.06,0.06,-0.19,0.06,0.00,-0.24,0.00,0.00,0.53
10642,-1.50,3.06,0.00,-0.06,-0.25,0.06,0.06,0.04,-0.24,0.00,0.00,0.53
10650,-1.50,3.06,0.00,0.12,-0.06,-0.06,0.05,0.05,-0.20,0.00,0.00,0.52
10660,-1.50,3.06,0.00,0.06,0.12,0.00,0.07,0.07,-0.22,0.00,0.00,0.51
10668,-1.50,3.06,0.00,0.00,-0.06,0.00,0.08,0.04,-0.24,0.00,0.00,0.53
10681,-1.50,3.06,0.00,0.00,-0.06,0.00,0.10,0.02,-0.23,0.00,0.00,0.51
10689,-1.50,3.06,0.00,-0.06,-0.06,0.12,0.11,0.03,-0.25,0.00,0.00,0.53
10722,-1.50,3.06,0.00,0.12,0.25,-0.06,0.09,0.06,-0.22,0.00,0.00,0.53
10729,-1.50,3.06,0.00,-0.12,0.19,0.00,0.07,0.07,-0.22,0.00,0.00,0.53
10740,-1.50,3.06,0.00,-0.06,0.25,-0.06,0.07,0.03,-0.23,0.00,0.00,0.53
10749,-1.50,3.06,0.00,-0.19,-0.12,0.06,0.07,0.03,-0.24,0.00,0.00,0.52
10760,-1.50,3.06,0.00,0.12,0.06,0.00,0.07,0.04,-0.23,0.00,0.00,0.52
10768,-1.50,3.06,0.00,0.12,0.12,0.06,0.11,0.03,-0.22,0.00,0.00,0.52
10780,-1.50,3.06,0.00,0.12,0.12,0.06,0.09,0.06,-0.25,0.00,0.00,0.54
10788,-1.50,3.06,0.00,0.06,-0.19,0.00,0.08,0.07,-0.25,0.00,0.00,0.53
10802,-1.50,3.06,0.00,0.12,0.00,-0.12,0.08,0.06,-0.23,0.00,0.00,0.51
10809,-1.50,3.06,0.00,-0.06,0.00,-0.06,0.10,0.06,-0.22,0.00,0.00,0.53
10822,-1.50,3.06,0.00,0.00,0.06,0.06,0.07,0.03,-0.26,0.00,0.00,0.51
10834,-1.50,3.06,0.00,-0.06,-0.19,0.00,0.09,0.00,-0.22,0.00,0.00,0.52
10847,-1.50,3.06,0.00,0.00,0.06,0.12,0.08,0.03,-0.23,0.00,0.00,0.53
10856,-1.50,3.06,0.00,0.12,-0.25,0.12,0.10,0.06,-0.23,0.00,0.00,0.53
10867,-1.50,3.06,0.00,0.06,0.00,-0.19,0.10,0.04,-0.19,0.00,0.00,0.53
10898,-1.50,3.06,0.00,0.06,0.25,0.06,0.06,0.06,-0.23,0.00,0.00,0.52
10906,-1.50,3.06,0.00,0.06,0.25,0.06,0.06,0.07,-0.23,0.00,0.00,0.52
10916,-1.50,3.06,0.00,0.12,0.44,0.12,0.06,0.05,-0.23,0.00,0.00,0.52
10929,-1.50,3.06,0.00,0.38,0.19,0.25,0.05,0.04,-0.25,0.00,0.00,0.52
10937,-1.50,3.06,0.00,0.00,-0.19,0.06,0.04,0.02,-0.22,0.00,0.00,0.52
10949,-1.50,3.06,0.00,0.00,-0.19,0.06,0.07,0.03,-0.22,0.00,0.00,0.51
10957,-1.50,3.06,0.00,0.00,-0.19,-0.12,0.09,0.04,-0.23,0.00,0.00,0.53
10971,-1.50,3.06,0.00,0.00,-0.19,-0.12,0.13,0.04,-0.25,0.00,0.00,0.52
10979,-1.50,3.06,0.00,-0.06,-0.12,-0.06,0.13,0.05,-0.25,0.00,0.00,0.53
10987,-1.50,3.06,0.00,0.06,0.12,-0.06,0.14,0.07,-0.24,0.00,0.00,0.53
11001,-1.50,3.06,0.00,0.06,0.12,-0.06,0.11,0.07,-0.22,0.00,0.00,0.50
11010,-1.50,3.06,0.00,0.19,0.12,0.00,0.07,0.04,-0.26,0.00,0.00,0.52
11017,-1.50,3.06,0.00,-0.06,-0.12,-0.06,0.06,0.04,-0.24,0.00,0.00,0.52
11028,-1.50,3.06,0.00,0.06,-0.06,0.00,0.04,0.03,-0.25,0.00,0.00,0.51
11059,-1.50,3.06,0.00,-0.12,0.00,0.06,0.06,0.06,-0.23,0.00,0.00,0.52
11070,-1.50,3.06,0.00,0.00,-0.12,-0.06,0.11,0.05,-0.24,0.00,0.00,0.53
11078,-1.50,3.06,0.00,0.06,-0.38,0.06,0.13,0.04,-0.27,0.00,0.00,0.53
11089,-1.50,3.06,0.00,0.00,0.06,-0.06,0.16,0.04,-0.25,0.00,0.00,0.52
11097,-1.50,3.06,0.00,0.06,-0.06,0.06,0.13,0.04,-0.22,0.00,0.00,0.55
11108,-1.50,3.06,0.00,0.06,0.19,0.12,0.11,0.05,-0.22,0.00,0.00,0.51
11116,-1.50,3.06,0.00,0.12,0.38,-0.12,0.13,0.08,-0.23,0.00,0.00,0.54
11128,-1.50,3.06,0.00,0.12,0.38,-0.12,0.04,0.02,-0.27,0.00,0.00,0.53
11136,-1.50,3.06,0.00,0.00,0.00,0.06,0.04,0.04,-0.25,0.00,0.00,0.52
11149,-1.50,3.06,0.00,0.00,0.00,0.06,0.00,0.03,-0.24,0.00,0.00,0.54
11157,-1.50,3.06,0.00,0.06,-0.12,0.00,0.06,0.03,-0.23,0.00,0.00,0.53
11168,-1.50,3.06,0.00,-0.19,0.00,-0.06,0.03,0.10,-0.24,0.00,0.00,0.53
11176,-1.50,3.06,0.00,-0.06,-0.06,-0.06,0.10,0.07,-0.25,0.00,0.00,0.52
11186,-1.50,3.06,0.00,-0.06,-0.06,-0.06,0.16,0.04,-0.22,0.00,0.00,0.52
11195,-1.50,3.06,0.00,-0.12,0.00,-0.06,0.06,0.09,-0.22,0.00,0.00,0.52
11226,-1.50,3.06,0.00,0.00,0.12,-0.19,0.03,0.05,-0.26,0.00,0.00,0.54
11235,-1.50,3.06,0.00,0.00,0.12,-0.19,0.12,0.05,-0.22,0.00,0.00,0.51
11244,-1.50,3.06,0.00,0.12,0.12,0.06,0.01,0.08,-0.21,0.00,0.00,0.52
11254,-1.50,3.06,0.00,-0.12,0.25,0.00,0.01,0.08,-0.21,0.00,0.00,0.53
11264,-1.50,3.06,0.00,-0.12,0.06,0.00,0.06,0.04,-0.22,0.00,0.00,0.53
11274,-1.50,3.06,0.00,-0.06,-0.25,-0.06,0.04,0.02,-0.24,0.00,0.00,0.53
11284,-1.50,3.06,0.00,0.00,-0.19,-0.06,0.05,0.04,-0.24,0.00,0.00,0.53
11294,-1.50,3.06,0.00,0.06,0.00,0.06,0.11,0.03,-0.23,0.00,0.00,0.53
11304,-1.50,3.06,0.00,0.00,-0.19,0.00,0.11,0.03,-0.23,0.00,0.00,0.53
11314,-1.50,3.06,0.00,0.00,-0.25,0.00,0.11,0.05,-0.26,0.00,0.00,0.53
11326,-1.50,3.06,0.00,0.06,-0.06,0.06,0.16,0.04,-0.26,0.00,0.00,0.54
11335,-1.50,3.06,0.00,-0.06,0.06,0.06,0.13,0.03,-0.24,0.00,0.00,0.54
11347,-1.50,3.06,0.00,-0.06,0.06,0.06,0.07,0.03,-0.26,0.00,0.00,0.53
11355,-1.50,3.06,0.00,-0.12,0.19,0.12,0.05,0.04,-0.22,0.00,0.00,0.53
11386,-1.50,3.06,0.00,-0.06,0.00,-0.12,0.05,0.07,-0.26,0.00,0.00,0.52
11395,-1.50,3.06,0.00,0.00,-0.25,0.06,0.06,0.04,-0.24,0.00,0.00,0.51
11405,-1.50,3.06,0.00,0.00,-0.25,0.06,0.07,0.05,-0.25,0.00,0.00,0.52
11414,-1.50,3.06,0.00,0.06,-0.06,0.06,0.11,0.04,-0.23,0.00,0.00,0.54
11423,-1.50,3.06,0.00,0.06,-0.06,0.06,0.10,0.05,-0.23,0.00,0.00,0.55
11433,-1.50,3.06,0.00,0.06,0.06,-0.12,0.13,0.04,-0.25,0.00,0.00,0.53
11447,-1.50,3.06,0.00,0.19,0.00,0.00,0.10,0.06,-0.23,0.00,0.00,0.52
11456,-1.50,3.06,0.00,0.00,-0.06,0.06,0.09,0.03,-0.22,0.00,0.00,0.53
11464,-1.50,3.06,0.00,-0.19,0.12,0.06,0.09,0.03,-0.22,0.00,0.00,0.53
11476,-1.50,3.06,0.00,0.00,0.19,-0.06,0.03,0.04,-0.24,0.00,0.00,0.52
11484,-1.50,3.06,0.00,-0.12,-0.12,0.06,0.05,0.02,-0.24,0.00,0.00,0.53
11496,-1.50,3.06,0.00,-0.12,-0.12,0.06,0.06,0.05,-0.24,0.00,0.00,0.53
11504,-1.50,3.06,0.00,0.00,-0.06,-0.12,0.06,0.05,-0.24,0.00,0.00,0.54
11514,-1.50,3.06,0.00,0.00,-0.06,-0.12,0.07,0.06,-0.23,0.00,0.00,0.51
11523,-1.50,3.06,0.00,0.06,0.06,0.00,0.09,0.05,-0.23,0.00,0.00,0.53
11554,-1.50,3.06,0.00,0.06,0.06,0.12,0.12,0.04,-0.22,0.00,0.00,0.53
11563,-1.50,3.06,0.00,0.06,0.06,0.12,0.10,0.05,-0.22,0.00,0.00,0.54
11572,-1.50,3.06,0.00,0.19,0.12,0.06,0.08,0.06,-0.22,0.00,0.00,0.53
11582,-1.50,3.06,0.00,0.00,0.19,0.00,0.07,0.05,-0.24,0.00,0.00,0.55
11592,-1.50,3.06,0.00,0.12,0.25,0.06,0.05,0.05,-0.20,0.00,0.00,0.53
11603,-1.50,3.06,0.00,0.00,-0.06,0.19,0.05,0.05,-0.20,0.00,0.00,0.52
11612,-1.50,3.06,0.00,-0.06,-0.19,0.06,0.06,0.02,-0.25,0.00,0.00,0.52
11623,-1.50,3.06,0.00,0.00,-0.06,-0.06,0.08,0.06,-0.24,0.00,0.00,0.53
11632,-1.50,3.06,0.00,0.12,0.12,-0.06,0.08,0.06,-0.25,0.00,0.00,0.55
11642,-1.50,3.06,0.00,0.06,-0.12,0.00,0.09,0.06,-0.21,0.00,0.00,0.53
11652,-1.50,3.06,0.00,0.00,-0.12,0.00,0.10,0.07,-0.23,0.00,0.00,0.53
11662,-1.50,3.06,0.00,-0.06,-0.06,0.00,0.10,0.04,-0.23,0.00,0.00,0.53
11673,-1.50,3.06,0.00,0.00,-0.31,0.06,0.08,0.04,-0.23,0.00,0.00,0.52
11682,-1.50,3.06,0.00,0.12,0.06,-0.06,0.09,0.04,-0.25,0.00,0.00,0.54
11695,-1.50,3.06,0.00,0.12,0.06,-0.06,0.10,0.04,-0.24,0.00,0.00,0.54
11740,-1.50,3.06,0.00,0.06,-0.25,0.06,0.09,0.04,-0.25,0.00,0.00,0.51
11755,-1.50,3.06,0.00,-0.06,0.19,0.12,0.08,0.04,-0.23,0.00,0.00,0.53
11764,-1.50,3.06,0.00,0.12,0.00,0.06,0.10,0.08,-0.23,0.00,0.00,0.52
11772,-1.50,3.06,0.00,0.00,0.00,-0.12,0.09,0.05,-0.24,0.00,0.00,0.52
11781,-1.50,3.06,0.00,0.06,0.00,0.06,0.07,0.05,-0.22,0.00,0.00,0.52
11791,-1.50,3.06,0.00,0.06,0.00,0.06,0.06,0.04,-0.21,0.00,0.00,0.54
11802,-1.50,3.06,0.00,-0.06,0.06,0.06,0.06,0.04,-0.21,0.00,0.00,0.52
11811,-1.50,3.06,0.00,0.12,0.12,0.06,0.07,0.02,-0.22,0.00,0.00,0.52
11824,-1.50,3.06,0.00,0.12,0.12,0.06,0.08,0.06,-0.23,0.00,0.00,0.53
11832,-1.50,3.06,0.00,0.12,0.00,-0.06,0.06,0.05,-0.20,0.00,0.00,0.52
11844,-1.50,3.06,0.00,0.06,-0.12,0.00,0.08,0.05,-0.23,0.00,0.00,0.52
11852,-1.50,3.06,0.00,-0.06,0.00,0.06,0.10,0.04,-0.22,0.00,0.00,0.53
11863,-1.50,3.06,0.00,-0.06,0.00,0.06,0.08,0.03,-0.23,0.00,0.00,0.53
11871,-1.50,3.06,0.00,-0.06,0.06,0.06,0.09,0.04,-0.25,0.00,0.00,0.55
11904,-1.50,3.06,0.00,-0.06,0.06,0.12,0.08,0.09,-0.20,0.00,0.00,0.52
11912,-1.50,3.06,0.00,-0.12,0.12,-0.19,0.05,0.06,-0.20,0.00,0.00,0.53
11925,-1.50,3.06,0.00,0.00,0.00,0.06,0.07,0.04,-0.22,0.00,0.00,0.53
11937,-1.50,3.06,0.00,0.00,-0.06,0.12,0.07,0.04,-0.21,0.00,0.00,0.53
11945,-1.50,3.06,0.00,0.00,0.00,-0.06,0.08,0.05,-0.23,0.00,0.00,0.53
11956,-1.50,3.06,0.00,0.00,-0.06,0.06,0.09,0.05,-0.24,0.00,0.00,0.53
11965,-1.50,3.06,0.00,0.19,0.19,0.00,0.08,0.06,-0.22,0.00,0.00,0.53
11978,-1.50,3.06,0.00,0.00,0.00,0.00,0.07,0.06,-0.24,0.00,0.00,0.53
11992,-1.50,3.06,0.00,0.00,0.19,0.00,0.10,0.04,-0.24,0.00,0.00,0.53
12000,-1.50,3.06,0.00,-0.06,-0.06,0.12,0.07,0.01,-0.24,0.00,0.00,0.55
12010,-1.50,3.06,0.00,-0.06,-0.06,0.12,0.07,0.05,-0.24,0.00,0.00,0.54
12021,-1.50,3.06,0.00,-0.06,0.00,0.06,0.07,0.05,-0.24,0.00,0.00,0.55
12030,-1.50,3.06,0.00,0.19,0.19,-0.12,0.07,0.06,-0.25,0.00,0.00,0.53
12040,-1.50,3.06,0.00,0.19,0.19,-0.12,0.09,0.04,-0.20,0.00,0.00,0.53
12049,-1.50,3.06,0.00,-0.12,-0.19,0.00,0.08,0.06,-0.25,0.00,0.00,0.53
12080,-1.50,3.06,0.00,-0.12,-0.25,0.06,0.10,0.05,-0.26,0.00,0.00,0.52
12089,-1.50,3.06,0.00,-0.12,-0.25,0.06,0.08,0.06,-0.23,0.00,0.00,0.54
12100,-1.50,3.06,0.00,0.12,-0.12,-0.06,0.08,0.06,-0.23,0.00,0.00,0.52
12109,-1.50,3.06,0.00,0.06,-0.12,0.06,0.08,0.08,-0.23,0.00,0.00,0.54
12121,-1.50,3.06,0.00,0.06,-0.06,0.00,0.07,0.07,-0.26,0.00,0.00,0.54
12130,-1.50,3.06,0.00,0.06,0.25,-0.06,0.10,0.04,-0.23,0.00,0.00,0.55
12142,-1.50,3.06,0.00,0.06,0.25,-0.06,0.08,0.03,-0.22,0.00,0.00,0.53
12150,-1.50,3.06,0.00,0.12,-0.06,0.00,0.11,0.04,-0.20,0.00,0.00,0.53
12162,-1.50,3.06,0.00,0.12,-0.06,0.00,0.09,0.07,-0.27,0.00,0.00,0.53
12170,-1.50,3.06,0.00,0.06,0.12,0.00,0.08,0.07,-0.23,0.00,0.00,0.54
12181,-1.50,3.06,0.00,-0.12,0.06,0.00,0.07,0.07,-0.21,0.00,0.00,0.54
12190,-1.50,3.06,0.00,0.00,-0.06,0.00,0.09,0.04,-0.21,0.00,0.00,0.53
12200,-1.50,3.06,0.00,0.00,-0.06,0.00,0.04,0.04,-0.22,0.00,0.00,0.54
12209,-1.50,3.06,0.00,0.00,-0.12,0.19,0.07,0.04,-0.24,0.00,0.00,0.53
12241,-1.50,3.06,0.00,-0.12,-0.19,0.19,0.08,0.03,-0.26,0.00,0.00,0.52
12249,-1.50,3.06,0.00,0.25,-0.06,-0.06,0.13,0.04,-0.21,0.00,0.00,0.53
12258,-1.50,3.06,0.00,0.25,-0.06,-0.06,0.11,0.06,-0.20,0.00,0.00,0.51
12268,-1.50,3.06,0.00,0.06,-0.12,0.12,0.12,0.05,-0.25,0.00,0.00,0.54
12278,-1.50,3.06,0.00,-0.06,0.00,0.00,0.07,0.05,-0.23,0.00,0.00,0.54
12288,-1.50,3.06,0.00,0.00,0.06,-0.06,0.07,0.04,-0.23,0.00,0.00,0.53
12299,-1.50,3.06,0.00,0.06,0.00,-0.12,0.07,0.04,-0.23,0.00,0.00,0.53
12308,-1.50,3.06,0.00,0.12,-0.06,0.12,0.04,0.04,-0.23,0.00,0.00,0.53
12321,-1.50,3.06,0.00,0.06,0.00,0.06,0.07,0.06,-0.25,0.00,0.00,0.52
12329,-1.50,3.06,0.00,0.00,0.12,0.00,0.05,0.04,-0.23,0.00,0.00,0.51
12340,-1.50,3.06,0.00,-0.06,0.00,-0.06,0.10,0.04,-0.24,0.00,0.00,0.52
12349,-1.50,3.06,0.00,0.12,0.06,0.06,0.10,0.04,-0.25,0.00,0.00,0.55
12360,-1.50,3.06,0.00,0.12,0.06,0.06,0.11,0.05,-0.23,0.00,0.00,0.53
12368,-1.50,3.06,0.00,0.00,0.12,0.00,0.12,0.06,-0.25,0.00,0.00,0.55
12379,-1.50,3.06,0.00,0.00,0.12,0.00,0.11,0.04,-0.22,0.00,0.00,0.53
12409,-1.50,3.06,0.00,-0.06,0.12,0.12,0.06,0.04,-0.25,0.00,0.00,0.54
12419,-1.50,3.06,0.00,0.06,0.31,-0.06,0.05,0.04,-0.22,0.00,0.00,0.53
12428,-1.50,3.06,0.00,0.00,0.12,0.12,0.04,0.07,-0.22,0.00,0.00,0.54
12438,-1.50,3.06,0.00,0.00,0.12,0.12,0.08,0.05,-0.24,0.00,0.00,0.53
12447,-1.50,3.06,0.00,0.06,-0.06,-0.06,0.09,0.06,-0.22,0.00,0.00,0.54
12461,-1.50,3.06,0.00,0.06,0.06,0.00,0.10,0.04,-0.23,0.00,0.00,0.53
12471,-1.50,3.06,0.00,-0.12,-0.12,0.12,0.13,0.06,-0.23,0.00,0.00,0.54
12479,-1.50,3.06,0.00,-0.06,-0.06,-0.12,0.10,0.04,-0.24,0.00,0.00,0.54
12490,-1.50,3.06,0.00,0.06,0.00,0.12,0.10,0.08,-0.24,0.00,0.00,0.54
12498,-1.50,3.06,0.00,-0.06,0.25,0.06,0.08,0.06,-0.22,0.00,0.00,0.54
12511,-1.50,3.06,0.00,-0.06,0.25,0.06,0.05,0.05,-0.21,0.00,0.00,0.53
12518,-1.50,3.06,0.00,0.06,-0.12,0.06,0.08,0.04,-0.26,0.00,0.00,0.52
12530,-1.50,3.06,0.00,-0.06,0.00,0.00,0.06,0.04,-0.23,0.00,0.00,0.51
12538,-1.50,3.06,0.00,0.00,-0.19,0.00,0.07,0.05,-0.22,0.00,0.00,0.51
12549,-1.50,3.06,0.00,0.00,0.12,0.00,0.09,0.04,-0.23,0.00,0.00,0.53
12578,-1.50,3.06,0.00,0.00,0.00,-0.06,0.09,0.06,-0.25,0.00,0.00,0.53
12587,-1.50,3.06,0.00,0.00,0.12,0.12,0.09,0.05,-0.22,0.00,0.00,0.53
12596,-1.50,3.06,0.00,0.00,0.12,0.12,0.06,0.03,-0.24,0.00,0.00,0.53
12606,-1.50,3.06,0.00,0.06,0.12,0.06,0.07,0.05,-0.22,0.00,0.00,0.52
12616,-1.50,3.06,0.00,0.25,-0.12,0.12,0.06,0.04,-0.24,0.00,0.00,0.53
12627,-1.50,3.06,0.00,0.19,0.12,0.06,0.07,0.05,-0.20,0.00,0.00,0.53
12637,-1.50,3.06,0.00,-0.06,-0.19,-0.12,0.07,0.04,-0.24,0.00,0.00,0.54
12649,-1.50,3.06,0.00,0.00,-0.25,0.12,0.08,0.04,-0.25,0.00,0.00,0.53
12657,-1.50,3.06,0.00,0.06,0.19,0.00,0.10,0.04,-0.23,0.00,0.00,0.55
12669,-1.50,3.06,0.00,0.06,0.19,0.00,0.09,0.06,-0.25,0.00,0.00,0.55
12677,-1.50,3.06,0.00,0.12,-0.19,-0.06,0.10,0.06,-0.24,0.00,0.00,0.52
12689,-1.50,3.06,0.00,0.12,0.06,0.00,0.09,0.07,-0.24,0.00,0.00,0.51
12697,-1.50,3.06,0.00,0.25,0.25,-0.19,0.07,0.04,-0.22,0.00,0.00,0.53
12708,-1.50,3.06,0.00,0.25,0.25,-0.19,0.05,0.03,-0.27,0.00,0.00,0.50
12738,-1.50,3.06,0.00,0.00,0.00,0.06,0.09,0.03,-0.25,0.00,0.00,0.50
12746,-1.50,3.06,0.00,0.12,0.12,0.06,0.08,0.04,-0.23,0.00,0.00,0.52
12756,-1.50,3.06,0.00,0.12,0.12,0.06,0.10,0.05,-0.23,0.00,0.00,0.52
12765,-1.50,3.06,0.00,0.12,-0.12,0.00,0.09,0.07,-0.26,0.00,0.00,0.52
12775,-1.50,3.06,0.00,0.25,0.25,0.00,0.08,0.04,-0.26,0.00,0.00,0.52
12785,-1.50,3.06,0.00,-0.25,0.00,0.12,0.09,0.08,-0.21,0.00,0.00,0.53
12794,-1.50,3.06,0.00,0.06,0.12,0.00,0.09,0.08,-0.21,0.00,0.00,0.54
12805,-1.50,3.06,0.00,0.12,0.00,0.12,0.09,0.05,-0.23,0.00,0.00,0.54
12815,-1.50,3.06,0.00,0.06,0.06,-0.06,0.08,0.04,-0.21,0.00,0.00,0.54
12825,-1.50,3.06,0.00,0.00,0.06,0.00,0.08,0.04,-0.25,0.00,0.00,0.54
12835,-1.50,3.06,0.00,-0.12,0.00,0.06,0.07,0.05,-0.24,0.00,0.00,0.53
12844,-1.50,3.06,0.00,-0.12,0.00,0.00,0.07,0.06,-0.24,0.00,0.00,0.51
12854,-1.50,3.06,0.00,0.12,-0.06,0.00,0.07,0.04,-0.24,0.00,0.00,0.51
12864,-1.50,3.06,0.00,0.06,0.12,-0.06,0.07,0.03,-0.25,0.00,0.00,0.53
12875,-1.50,3.06,0.00,0.12,0.06,0.00,0.09,0.05,-0.22,0.00,0.00,0.52
12906,-1.50,3.06,0.00,-0.06,0.00,0.06,0.09,0.05,-0.25,0.00,0.00,0.52
12916,-1.50,3.06,0.00,0.00,-0.19,0.12,0.08,0.04,-0.26,0.00,0.00,0.52
12925,-1.50,3.06,0.00,0.00,0.00,0.06,0.05,0.04,-0.24,0.00,0.00,0.53
12936,-1.50,3.06,0.00,0.00,0.00,0.06,0.09,0.04,-0.23,0.00,0.00,0.52
12945,-1.50,3.06,0.00,-0.06,0.12,-0.06,0.06,0.05,-0.23,0.00,0.00,0.53
12957,-1.50,3.06,0.00,-0.06,0.12,-0.06,0.06,0.07,-0.21,0.00,0.00,0.52
12965,-1.50,3.06,0.00,0.00,-0.19,0.06,0.07,0.06,-0.24,0.00,0.00,0.52
12977,-1.50,3.06,0.00,0.00,-0.19,0.06,0.09,0.03,-0.25,0.00,0.00,0.53
12985,-1.50,3.06,0.00,0.12,0.19,0.00,0.08,0.04,-0.24,0.00,0.00,0.53
12997,-1.50,3.06,0.00,-0.25,0.06,0.00,0.08,0.04,-0.23,0.00,0.00,0.53
13005,-1.50,3.06,0.00,-0.19,-0.12,-0.12,0.10,0.04,-0.22,0.00,0.00,0.53
13015,-1.50,3.06,0.00,-0.19,-0.12,-0.12,0.06,0.07,-0.23,0.00,0.00,0.53
13024,-1.50,3.06,0.00,-0.12,-0.06,0.12,0.07,0.04,-0.23,0.00,0.00,0.53
13034,-1.50,3.06,0.00,-0.12,-0.06,0.12,0.09,0.06,-0.24,0.00,0.00,0.52
13043,-1.50,3.06,0.00,0.00,0.25,0.06,0.09,0.04,-0.21,0.00,0.00,0.52
13075,-1.50,3.06,0.00,0.00,-0.06,0.06,0.08,0.05,-0.23,0.00,0.00,0.54
13084,-1.50,3.06,0.00,0.06,0.06,0.06,0.09,0.05,-0.21,0.00,0.00,0.53
13096,-1.50,3.06,0.00,0.06,0.06,0.06,0.08,0.05,-0.22,0.00,0.00,0.52
13104,-1.50,3.06,0.00,-0.06,-0.06,0.00,0.08,0.06,-0.19,0.00,0.00,0.54
13114,-1.50,3.06,0.00,-0.06,-0.06,0.00,0.08,0.07,-0.24,0.00,0.00,0.53
13123,-1.50,3.06,0.00,0.00,0.12,0.00,0.06,0.07,-0.22,0.00,0.00,0.55
13134,-1.50,3.06,0.00,-0.12,0.00,0.12,0.08,0.06,-0.22,0.00,0.00,0.54
13143,-1.50,3.06,0.00,0.00,0.00,-0.06,0.10,0.06,-0.22,0.00,0.00,0.53
13153,-1.50,3.06,0.00,0.12,0.12,0.12,0.07,0.04,-0.22,0.00,0.00,0.53
13163,-1.50,3.06,0.00,-0.06,0.06,0.06,0.08,0.05,-0.24,0.00,0.00,0.53
13172,-1.50,3.06,0.00,-0.12,-0.19,0.25,0.08,0.04,-0.23,0.00,0.00,0.55
13182,-1.50,3.06,0.00,0.00,0.00,0.06,0.07,0.04,-0.24,0.00,0.00,0.53
13193,-1.50,3.06,0.00,0.12,0.25,0.00,0.07,0.04,-0.24,0.00,0.00,0.52
13202,-1.50,3.06,0.00,-0.06,0.06,-0.06,0.09,0.04,-0.22,0.00,0.00,0.54
13233,-1.50,3.06,0.00,-0.12,0.19,-0.06,0.07,0.06,-0.21,0.00,0.00,0.54
13243,-1.50,3.06,0.00,-0.12,0.19,-0.06,0.07,0.04,-0.21,0.00,0.00,0.54
13252,-1.50,3.06,0.00,0.00,0.00,0.06,0.07,0.04,-0.23,0.00,0.00,0.54
13262,-1.50,3.06,0.00,0.00,0.12,0.12,0.08,0.05,-0.26,0.00,0.00,0.53
13271,-1.50,3.06,0.00,0.00,0.19,0.06,0.09,0.07,-0.23,0.00,0.00,0.53
13282,-1.50,3.06,0.00,0.06,-0.12,0.12,0.08,0.05,-0.21,0.00,0.00,0.54
13291,-1.50,3.06,0.00,0.06,0.00,0.00,0.08,0.05,-0.21,0.00,0.00,0.53
13303,-1.50,3.06,0.00,0.06,0.00,0.00,0.10,0.05,-0.25,0.00,0.00,0.51
13312,-1.50,3.06,0.00,-0.06,-0.19,0.12,0.09,0.04,-0.26,0.00,0.00,0.54
13322,-1.50,3.06,0.00,-0.12,-0.25,0.12,0.09,0.05,-0.23,0.00,0.00,0.53
13332,-1.50,3.06,0.00,0.06,-0.31,0.06,0.09,0.05,-0.22,0.00,0.00,0.54
13341,-1.50,3.06,0.00,0.00,0.00,-0.12,0.09,0.05,-0.22,0.00,0.00,0.51
13351,-1.50,3.06,0.00,-0.31,-0.25,-0.06,0.08,0.03,-0.25,0.00,0.00,0.53
13361,-1.50,3.06,0.00,-0.12,-0.06,-0.06,0.09,0.06,-0.25,0.00,0.00,0.53
13371,-1.50,3.06,0.00,0.12,0.06,0.06,0.10,0.04,-0.21,0.00,0.00,0.54
13404,-1.50,3.06,0.00,0.00,0.06,0.00,0.08,0.07,-0.25,0.00,0.00,0.52
13412,-1.50,3.06,0.00,-0.12,0.00,0.00,0.08,0.06,-0.23,0.00,0.00,0.54
13424,-1.50,3.06,0.00,-0.12,0.00,0.00,0.09,0.06,-0.25,0.00,0.00,0.54
13432,-1.50,3.06,0.00,0.00,-0.12,-0.12,0.08,0.04,-0.26,0.00,0.00,0.53
13444,-1.50,3.06,0.00,0.00,-0.25,0.06,0.08,0.04,-0.25,0.00,0.00,0.53
13452,-1.50,3.06,0.00,0.00,0.00,0.00,0.08,0.03,-0.22,0.00,0.00,0.50
13461,-1.50,3.06,0.00,0.00,0.00,0.00,0.08,0.04,-0.22,0.00,0.00,0.53
13471,-1.50,3.06,0.00,-0.06,0.00,0.12,0.08,0.05,-0.24,0.00,0.00,0.54
13481,-1.50,3.06,0.00,-0.25,-0.06,0.00,0.08,0.06,-0.23,0.00,0.00,0.55
13490,-1.50,3.06,0.00,0.00,0.00,0.06,0.08,0.06,-0.23,0.00,0.00,0.55
13502,-1.50,3.06,0.00,-0.12,0.00,-0.12,0.10,0.04,-0.20,0.00,0.00,0.51
13511,-1.50,3.06,0.00,0.00,0.00,0.00,0.06,0.04,-0.25,0.00,0.00,0.52
13523,-1.50,3.06,0.00,0.00,0.00,0.00,0.07,0.06,-0.23,0.00,0.00,0.53
13531,-1.50,3.06,0.00,-0.19,0.00,-0.06,0.07,0.05,-0.22,0.00,0.00,0.53
13542,-1.50,3.06,0.00,-0.19,0.00,-0.06,0.07,0.05,-0.20,0.00,0.00,0.53
13573,-1.50,3.06,0.00,-0.06,0.00,0.00,0.07,0.05,-0.23,0.00,0.00,0.53
13581,-1.50,3.06,0.00,0.12,-0.12,-0.12,0.08,0.05,-0.24,0.00,0.00,0.51
13590,-1.50,3.06,0.00,0.12,-0.12,-0.12,0.09,0.04,-0.23,0.00,0.00,0.52
13600,-1.50,3.06,0.00,0.00,-0.12,0.19,0.09,0.03,-0.21,0.00,0.00,0.53
13609,-1.50,3.06,0.00,0.00,-0.12,0.00,0.09,0.05,-0.24,0.00,0.00,0.53
13619,-1.50,3.06,0.00,0.06,0.06,-0.06,0.08,0.04,-0.22,0.00,0.00,0.52
13630,-1.50,3.06,0.00,-0.06,0.25,0.00,0.10,0.05,-0.23,0.00,0.00,0.52
13639,-1.50,3.06,0.00,0.06,0.12,-0.06,0.07,0.06,-0.23,0.00,0.00,0.53
13649,-1.50,3.06,0.00,-0.12,0.06,-0.06,0.09,0.04,-0.22,0.00,0.00,0.53
13661,-1.50,3.06,0.00,0.00,0.19,-0.19,0.09,0.05,-0.25,0.00,0.00,0.53
13670,-1.50,3.06,0.00,0.00,-0.06,0.06,0.07,0.05,-0.21,0.00,0.00,0.54
13683,-1.50,3.06,0.00,0.00,-0.06,0.06,0.07,0.05,-0.23,0.00,0.00,0.53
13691,-1.50,3.06,0.00,-0.06,-0.06,0.00,0.07,0.04,-0.22,0.00,0.00,0.52
13703,-1.50,3.06,0.00,-0.06,-0.06,0.00,0.07,0.04,-0.23,0.00,0.00,0.54
13734,-1.50,3.06,0.00,-0.06,0.06,-0.06,0.07,0.04,-0.21,0.00,0.00,0.55
13744,-1.50,3.06,0.00,-0.12,-0.25,-0.06,0.10,0.04,-0.23,0.00,0.00,0.52
13752,-1.50,3.06,0.00,-0.25,0.00,0.06,0.08,0.05,-0.23,0.00,0.00,0.52
13760,-1.50,3.06,0.00,-0.31,-0.12,-0.06,0.09,0.05,-0.27,0.00,0.00,0.54
13769,-1.50,3.06,0.00,-0.12,-0.19,0.00,0.08,0.06,-0.23,0.00,0.00,0.53
13779,-1.50,3.06,0.00,-0.12,-0.19,0.00,0.10,0.05,-0.22,0.00,0.00,0.54
13793,-1.50,3.06,0.00,0.00,0.00,0.06,0.10,0.05,-0.22,0.00,0.00,0.53
13803,-1.50,3.06,0.00,-0.06,-0.38,0.19,0.07,0.04,-0.23,0.00,0.00,0.54
13810,-1.50,3.06,0.00,0.06,-0.06,0.00,0.10,0.04,-0.26,0.00,0.00,0.53
13822,-1.50,3.06,0.00,0.06,0.00,0.00,0.08,0.06,-0.25,0.00,0.00,0.52
13830,-1.50,3.06,0.00,-0.12,-0.06,0.00,0.07,0.04,-0.21,0.00,0.00,0.53
13841,-1.50,3.06,0.00,-0.06,0.00,0.00,0.09,0.03,-0.21,0.00,0.00,0.52
13849,-1.50,3.06,0.00,-0.06,-0.06,-0.06,0.09,0.06,-0.17,0.00,0.00,0.53
13862,-1.50,3.06,0.00,-0.06,-0.06,-0.06,0.08,0.06,-0.25,0.00,0.00,0.54
13869,-1.50,3.06,0.00,-0.19,0.00,0.00,0.09,0.05,-0.22,0.00,0.00,0.53
13904,-1.50,3.06,0.00,-0.12,-0.19,-0.06,0.08,0.05,-0.22,0.00,0.00,0.52
13912,-1.50,3.06,0.00,0.00,0.00,0.00,0.07,0.04,-0.25,0.00,0.00,0.52
13924,-1.50,3.06,0.00,0.19,0.25,0.12,0.11,0.05,-0.26,0.00,0.00,0.53
13931,-1.50,3.06,0.00,-0.06,0.00,0.19,0.07,0.06,-0.24,0.00,0.00,0.53
13943,-1.50,3.06,0.00,-0.12,0.25,0.06,0.08,0.04,-0.24,0.00,0.00,0.53
13951,-1.50,3.06,0.00,-0.06,0.19,0.00,0.09,0.05,-0.23,0.00,0.00,0.53
13962,-1.50,3.06,0.00,0.12,0.19,-0.12,0.07,0.04,-0.27,0.00,0.00,0.53
13970,-1.50,3.06,0.00,0.06,0.19,-0.06,0.07,0.04,-0.22,0.00,0.00,0.53
13982,-1.50,3.06,0.00,-0.06,0.12,-0.06,0.08,0.04,-0.23,0.00,0.00,0.53
13989,-1.50,3.06,0.00,-0.06,0.19,-0.06,0.07,0.04,-0.24,0.00,0.00,0.54
14001,-1.50,3.06,0.00,0.00,0.00,0.00,0.09,0.06,-0.23,0.00,0.00,0.53
14009,-1.50,3.06,0.00,0.00,0.00,0.00,0.09,0.06,-0.25,0.00,0.00,0.54
14022,-1.50,3.06,0.00,-0.19,-0.12,0.19,0.08,0.06,-0.23,0.00,0.00,0.54
14031,-1.50,3.06,0.00,-0.06,0.25,-0.06,0.08,0.04,-0.24,0.00,0.00,0.53
14063,-1.50,3.06,0.00,0.00,0.12,0.06,0.11,0.06,-0.25,0.00,0.00,0.54
14074,-1.50,3.06,0.00,0.12,0.19,-0.06,0.10,0.05,-0.24,0.00,0.00,0.54
14082,-1.50,3.06,0.00,0.25,0.00,-0.19,0.07,0.07,-0.25,0.00,0.00,0.53
14089,-1.50,3.06,0.00,-0.06,-0.06,0.00,0.07,0.02,-0.21,0.00,0.00,0.53
14098,-1.50,3.06,0.00,-0.06,0.00,0.00,0.09,0.04,-0.21,0.00,0.00,0.53
14109,-1.50,3.06,0.00,-0.06,0.00,0.00,0.07,0.03,-0.25,0.00,0.00,0.54
14117,-1.50,3.06,0.00,-0.06,0.00,-0.12,0.07,0.07,-0.24,0.00,0.00,0.54
14131,-1.50,3.06,0.00,-0.06,0.00,-0.12,0.08,0.07,-0.20,0.00,0.00,0.53
14143,-1.50,3.06,0.00,-0.12,-0.06,0.06,0.09,0.04,-0.24,0.00,0.00,0.55
14156,-1.50,3.06,0.00,0.00,0.00,0.00,0.07,0.06,-0.24,0.00,0.00,0.54
14166,-1.50,3.06,0.00,0.00,0.19,0.00,0.07,0.04,-0.23,0.00,0.00,0.54
14181,-1.50,3.06,0.00,0.12,0.19,0.00,0.09,0.04,-0.19,0.00,0.00,0.52
14189,-1.50,3.06,0.00,-0.06,0.19,-0.06,0.07,0.05,-0.25,0.00,0.00,0.55
14197,-1.50,3.06,0.00,-0.12,0.06,0.00,0.10,0.05,-0.26,0.00,0.00,0.55
14209,-1.50,3.06,0.00,0.06,0.19,0.00,0.08,0.06,-0.26,0.00,0.00,0.51
14239,-1.50,3.06,0.00,-0.06,-0.06,0.00,0.08,0.03,-0.22,0.00,0.00,0.54
14249,-1.50,3.06,0.00,0.06,-0.06,0.06,0.07,0.04,-0.24,0.00,0.00,0.53
14257,-1.50,3.06,0.00,0.00,0.25,0.00,0.08,0.04,-0.26,0.00,0.00,0.52
14267,-1.50,3.06,0.00,0.00,0.25,0.00,0.07,0.07,-0.24,0.00,0.00,0.54
14276,-1.50,3.06,0.00,0.12,0.31,0.06,0.10,0.04,-0.23,0.00,0.00,0.51
14286,-1.50,3.06,0.00,0.12,0.31,0.00,0.10,0.04,-0.23,0.00,0.00,0.53
14295,-1.50,3.06,0.00,0.12,0.06,0.00,0.08,0.06,-0.25,0.00,0.00,0.52
14305,-1.50,3.06,0.00,0.06,0.12,0.00,0.08,0.04,-0.26,0.00,0.00,0.53
14315,-1.50,3.06,0.00,0.12,-0.06,0.00,0.09,0.06,-0.24,0.00,0.00,0.51
14326,-1.50,3.06,0.00,0.12,0.25,-0.06,0.08,0.04,-0.22,0.00,0.00,0.53
14335,-1.50,3.06,0.00,0.12,0.12,0.06,0.08,0.05,-0.22,0.00,0.00,0.52
14346,-1.50,3.06,0.00,0.12,0.19,-0.12,0.09,0.04,-0.22,0.00,0.00,0.52
14355,-1.50,3.06,0.00,0.06,0.31,0.00,0.09,0.05,-0.24,0.00,0.00,0.51
14366,-1.50,3.06,0.00,0.12,0.25,-0.06,0.07,0.04,-0.24,0.00,0.00,0.52
14375,-1.50,3.06,0.00,0.06,-0.06,0.00,0.09,0.06,-0.22,0.00,0.00,0.53
14406,-1.50,3.06,0.00,-0.12,-0.12,0.12,0.08,0.05,-0.25,0.00,0.00,0.52
14416,-1.50,3.06,0.00,-0.12,-0.12,0.12,0.08,0.04,-0.23,0.00,0.00,0.53
14425,-1.50,3.06,0.00,-0.06,-0.19,0.00,0.06,0.04,-0.23,0.00,0.00,0.55
14437,-1.50,3.06,0.00,-0.06,-0.19,0.00,0.09,0.05,-0.21,0.00,0.00,0.53
14445,-1.50,3.06,0.00,-0.25,-0.31,0.00,0.08,0.06,-0.22,0.00,0.00,0.54
14458,-1.50,3.06,0.00,-0.25,-0.31,0.00,0.08,0.05,-0.25,0.00,0.00,0.53
14466,-1.50,3.06,0.00,0.00,-0.19,0.12,0.10,0.06,-0.25,0.00,0.00,0.53
14479,-1.50,3.06,0.00,0.00,-0.19,0.12,0.09,0.05,-0.21,0.00,0.00,0.55
14489,-1.50,3.06,0.00,-0.06,0.12,-0.12,0.08,0.03,-0.23,0.00,0.00,0.52
14497,-1.50,3.06,0.00,0.00,-0.06,-0.06,0.09,0.04,-0.21,0.00,0.00,0.54
14507,-1.50,3.06,0.00,0.06,-0.19,0.00,0.08,0.04,-0.23,0.00,0.00,0.54
14515,-1.50,3.06,0.00,0.00,-0.06,0.00,0.08,0.04,-0.21,0.00,0.00,0.54
14525,-1.50,3.06,0.00,0.00,-0.06,0.00,0.08,0.04,-0.24,0.00,0.00,0.52
14534,-1.50,3.06,0.00,-0.19,-0.12,-0.06,0.10,0.05,-0.22,0.00,0.00,0.53
14565,-1.50,3.06,0.00,0.00,0.00,0.06,0.07,0.05,-0.25,0.00,0.00,0.55
14574,-1.50,3.06,0.00,-0.12,-0.12,0.06,0.08,0.04,-0.21,0.00,0.00,0.53
14587,-1.50,3.06,0.00,-0.12,-0.12,0.06,0.06,0.04,-0.23,0.00,0.00,0.55
14595,-1.50,3.06,0.00,0.00,0.06,0.00,0.08,0.04,-0.26,0.00,0.00,0.54
14606,-1.50,3.06,0.00,0.00,0.06,0.00,0.09,0.04,-0.23,0.00,0.00,0.52
14614,-1.50,3.06,0.00,0.00,-0.06,0.12,0.08,0.04,-0.22,0.00,0.00,0.54
14624,-1.50,3.06,0.00,0.00,-0.06,0.12,0.07,0.05,-0.20,0.00,0.00,0.53
14634,-1.50,3.06,0.00,0.19,0.00,0.06,0.07,0.06,-0.22,0.00,0.00,0.54
14643,-1.50,3.06,0.00,0.06,0.19,0.06,0.07,0.03,-0.20,0.00,0.00,0.53
14653,-1.50,3.06,0.00,0.00,0.00,0.06,0.08,0.05,-0.26,0.00,0.00,0.55
14663,-1.50,3.06,0.00,0.00,0.00,0.00,0.07,0.06,-0.24,0.00,0.00,0.54
14673,-1.50,3.06,0.00,-0.06,-0.12,0.12,0.08,0.05,-0.21,0.00,0.00,0.55
14682,-1.50,3.06,0.00,0.12,0.00,-0.06,0.08,0.05,-0.21,0.00,0.00,0.54
14692,-1.50,3.06,0.00,-0.06,-0.06,0.19,0.07,0.04,-0.21,0.00,0.00,0.55
14702,-1.50,3.06,0.00,0.00,-0.25,0.00,0.09,0.04,-0.23,0.00,0.00,0.52
14736,-1.50,3.06,0.00,0.00,-0.25,0.12,0.08,0.06,-0.24,0.00,0.00,0.52
14744,-1.50,3.06,0.00,0.06,0.12,0.12,0.09,0.03,-0.26,0.00,0.00,0.53
14753,-1.50,3.06,0.00,0.06,0.12,0.12,0.08,0.04,-0.24,0.00,0.00,0.54
14763,-1.50,3.06,0.00,-0.19,-0.19,0.06,0.08,0.05,-0.23,0.00,0.00,0.53
14773,-1.50,3.06,0.00,-0.12,-0.12,-0.12,0.08,0.06,-0.23,0.00,0.00,0.52
14782,-1.50,3.06,0.00,-0.19,-0.12,0.12,0.08,0.06,-0.23,0.00,0.00,0.55
14792,-1.50,3.06,0.00,-0.19,-0.19,0.00,0.08,0.05,-0.23,0.00,0.00,0.53
14802,-1.50,3.06,0.00,-0.06,0.00,-0.12,0.09,0.04,-0.24,0.00,0.00,0.54
14812,-1.50,3.06,0.00,-0.12,-0.19,0.19,0.07,0.04,-0.25,0.00,0.00,0.53
14822,-1.50,3.06,0.00,0.00,-0.06,-0.06,0.09,0.04,-0.22,0.00,0.00,0.53
14831,-1.50,3.06,0.00,-0.12,-0.19,-0.19,0.09,0.04,-0.22,0.00,0.00,0.53
14842,-1.50,3.06,0.00,-0.12,-0.25,0.06,0.08,0.05,-0.24,0.00,0.00,0.55
14852,-1.50,3.06,0.00,0.00,-0.12,0.06,0.08,0.04,-0.25,0.00,0.00,0.53
14862,-1.50,3.06,0.00,0.00,0.00,0.06,0.09,0.04,-0.26,0.00,0.00,0.53
14894,-1.50,3.06,0.00,0.12,0.12,-0.12,0.09,0.05,-0.25,0.00,0.00,0.53
14905,-1.50,3.06,0.00,0.06,0.06,-0.12,0.07,0.04,-0.25,0.00,0.00,0.53
14913,-1.50,3.06,0.00,0.00,0.06,-0.12,0.07,0.07,-0.24,0.00,0.00,0.53
14924,-1.50,3.06,0.00,0.00,0.06,-0.12,0.07,0.05,-0.23,0.00,0.00,0.52
14932,-1.50,3.06,0.00,0.00,-0.12,-0.19,0.08,0.03,-0.21,0.00,0.00,0.53
14943,-1.50,3.06,0.00,0.00,-0.12,-0.19,0.07,0.04,-0.25,0.00,0.00,0.51
14952,-1.50,3.06,0.00,0.12,-0.06,0.00,0.09,0.04,-0.25,0.00,0.00,0.53
14962,-1.50,3.06,0.00,0.12,-0.06,0.00,0.09,0.03,-0.21,0.00,0.00,0.53
14971,-1.50,3.06,0.00,-0.06,-0.12,-0.06,0.08,0.05,-0.26,0.00,0.00,0.55
14983,-1.50,3.06,0.00,0.00,-0.19,-0.12,0.08,0.05,-0.26,0.00,0.00,0.54
14992,-1.50,3.06,0.00,0.00,0.00,0.00,0.08,0.02,-0.22,0.00,0.00,0.53
15003,-1.50,3.06,0.00,0.00,0.00,0.00,0.09,0.04,-0.23,0.00,0.00,0.53
15012,-1.50,3.06,0.00,0.06,-0.31,-0.06,0.08,0.05,-0.24,0.00,0.00,0.52
15022,-1.50,3.06,0.00,0.06,-0.31,-0.06,0.08,0.05,-0.21,0.00,0.00,0.54
15031,-1.50,3.06,0.00,0.00,0.06,0.00,0.07,0.03,-0.22,0.00,0.00,0.54
15062,-1.50,3.06,0.00,0.12,0.00,0.00,0.08,0.05,-0.26,0.00,0.00,0.53
15071,-1.50,3.06,0.00,0.12,0.00,0.00,0.09,0.06,-0.23,0.00,0.00,0.54
15082,-1.50,3.06,0.00,-0.19,0.12,-0.06,0.07,0.04,-0.24,0.00,0.00,0.54
15091,-1.50,3.06,0.00,0.00,-0.06,-0.06,0.09,0.03,-0.25,0.00,0.00,0.54
15103,-1.50,3.06,0.00,-0.19,0.00,-0.19,0.09,0.05,-0.25,0.00,0.00,0.53
15112,-1.50,3.06,0.00,0.00,0.19,-0.06,0.08,0.05,-0.26,0.00,0.00,0.53
15121,-1.50,3.06,0.00,0.00,0.19,-0.06,0.08,0.05,-0.25,0.00,0.00,0.54
15130,-1.50,3.06,0.00,0.06,0.19,-0.19,0.08,0.04,-0.20,0.00,0.00,0.52
15140,-1.50,3.06,0.00,0.06,-0.31,0.06,0.08,0.05,-0.25,0.00,0.00,0.53
15152,-1.50,3.06,0.00,0.06,-0.31,0.06,0.10,0.05,-0.24,0.00,0.00,0.54
15161,-1.50,3.06,0.00,0.00,0.06,-0.12,0.08,0.04,-0.24,0.00,0.00,0.54
15172,-1.50,3.06,0.00,0.00,0.06,-0.12,0.09,0.05,-0.23,0.00,0.00,0.54
15181,-1.50,3.06,0.00,0.06,0.25,-0.12,0.07,0.06,-0.22,0.00,0.00,0.54
15193,-1.50,3.06,0.00,0.06,0.25,-0.12,0.07,0.06,-0.25,0.00,0.00,0.53
15201,-1.50,3.06,0.00,0.00,0.19,0.06,0.08,0.05,-0.24,0.00,0.00,0.53
15234,-1.50,3.06,0.00,0.06,0.19,-0.12,0.08,0.03,-0.22,0.00,0.00,0.54
15241,-1.50,3.06,0.00,0.00,0.06,0.06,0.09,0.05,-0.22,0.00,0.00,0.54
15251,-1.50,3.06,0.00,0.06,0.06,0.00,0.07,0.05,-0.24,0.00,0.00,0.51
15260,-1.50,3.06,0.00,0.12,0.12,-0.12,0.06,0.03,-0.26,0.00,0.00,0.54
15270,-1.50,3.06,0.00,0.12,0.12,-0.12,0.07,0.05,-0.25,0.00,0.00,0.52
15279,-1.50,3.06,0.00,-0.06,0.19,-0.06,0.07,0.05,-0.25,0.00,0.00,0.53
15289,-1.50,3.06,0.00,0.06,0.06,0.00,0.10,0.06,-0.21,0.00,0.00,0.52
15300,-1.50,3.06,0.00,0.00,-0.06,0.00,0.08,0.05,-0.24,0.00,0.00,0.54
15310,-1.50,3.06,0.00,0.19,0.19,-0.12,0.08,0.05,-0.25,0.00,0.00,0.52
15321,-1.50,3.06,0.00,-0.06,0.12,-0.06,0.09,0.05,-0.20,0.00,0.00,0.53
15330,-1.50,3.06,0.00,-0.19,-0.25,-0.12,0.09,0.05,-0.23,0.00,0.00,0.54
15341,-1.50,3.06,0.00,-0.19,-0.25,-0.12,0.10,0.04,-0.24,0.00,0.00,0.53
15349,-1.50,3.06,0.00,0.00,0.00,-0.12,0.08,0.06,-0.26,0.00,0.00,0.52
15361,-1.50,3.06,0.00,0.00,0.00,-0.12,0.08,0.03,-0.23,0.00,0.00,0.53
15391,-1.50,3.06,0.00,0.06,0.12,0.00,0.08,0.04,-0.23,0.00,0.00,0.53
15402,-1.50,3.06,0.00,-0.06,-0.06,-0.06,0.09,0.03,-0.23,0.00,0.00,0.54
15410,-1.50,3.06,0.00,-0.06,-0.06,-0.06,0.07,0.03,-0.22,0.00,0.00,0.53
15420,-1.50,3.06,0.00,-0.06,-0.06,-0.06,0.07,0.05,-0.26,0.00,0.00,0.53
15429,-1.50,3.06,0.00,0.00,0.12,0.06,0.10,0.05,-0.22,0.00,0.00,0.53
15438,-1.50,3.06,0.00,0.00,0.12,0.06,0.09,0.06,-0.25,0.00,0.00,0.53
15448,-1.50,3.06,0.00,-0.19,0.06,-0.25,0.08,0.04,-0.25,0.00,0.00,0.53
15458,-1.50,3.06,0.00,-0.06,0.25,-0.12,0.09,0.05,-0.26,0.00,0.00,0.53
15468,-1.50,3.06,0.00,-0.06,-0.25,-0.06,0.09,0.05,-0.26,0.00,0.00,0.54
15480,-1.50,3.06,0.00,-0.06,0.19,0.00,0.09,0.04,-0.21,0.00,0.00,0.53
15489,-1.50,3.06,0.00,-0.06,-0.19,0.06,0.09,0.05,-0.23,0.00,0.00,0.53
15500,-1.50,3.06,0.00,-0.06,-0.19,0.06,0.08,0.04,-0.24,0.00,0.00,0.52
15509,-1.50,3.06,0.00,-0.19,0.19,-0.06,0.08,0.04,-0.25,0.00,0.00,0.54
15520,-1.50,3.06,0.00,-0.19,0.19,-0.06,0.09,0.05,-0.22,0.00,0.00,0.51
15529,-1.50,3.06,0.00,-0.25,0.00,0.06,0.08,0.04,-0.23,0.00,0.00,0.54
15562,-1.50,3.06,0.00,0.19,-0.06,0.00,0.08,0.05,-0.20,0.00,0.00,0.53
15570,-1.50,3.06,0.00,0.25,-0.19,0.00,0.09,0.04,-0.24,0.00,0.00,0.54
15581,-1.50,3.06,0.00,0.19,-0.12,0.06,0.07,0.05,-0.22,0.00,0.00,0.52
15589,-1.50,3.06,0.00,0.00,0.00,0.00,0.06,0.04,-0.21,0.00,0.00,0.52
15600,-1.50,3.06,0.00,0.06,0.19,0.06,0.07,0.07,-0.26,0.00,0.00,0.54
15608,-1.50,3.06,0.00,0.00,0.00,0.12,0.08,0.05,-0.23,0.00,0.00,0.53
15622,-1.50,3.06,0.00,0.00,0.00,0.12,0.09,0.05,-0.22,0.00,0.00,0.52
15633,-1.50,3.06,0.00,-0.12,-0.12,-0.06,0.09,0.05,-0.25,0.00,0.00,0.54
15642,-1.50,3.06,0.00,-0.06,-0.06,-0.06,0.09,0.06,-0.21,0.00,0.00,0.51
15653,-1.50,3.06,0.00,0.00,-0.12,0.00,0.09,0.06,-0.26,0.00,0.00,0.53
15663,-1.50,3.06,0.00,0.00,-0.06,0.19,0.07,0.07,-0.24,0.00,0.00,0.53
15673,-1.50,3.06,0.00,0.00,-0.19,0.12,0.10,0.05,-0.22,0.00,0.00,0.52
15683,-1.50,3.06,0.00,0.25,0.00,0.00,0.10,0.05,-0.25,0.00,0.00,0.52
15692,-1.50,3.06,0.00,0.00,0.06,0.12,0.08,0.04,-0.24,0.00,0.00,0.51
15723,-1.50,3.06,0.00,-0.06,0.12,0.06,0.09,0.04,-0.24,0.00,0.00,0.53
15732,-1.50,3.06,0.00,-0.06,-0.31,0.06,0.05,0.03,-0.19,0.00,0.00,0.53
15740,-1.50,3.06,0.00,0.12,-0.25,0.12,0.08,0.06,-0.25,0.00,0.00,0.52
15748,-1.50,3.06,0.00,-0.12,0.19,0.00,0.06,0.05,-0.26,0.00,0.00,0.54
15758,-1.50,3.06,0.00,-0.12,0.19,0.00,0.10,0.04,-0.23,0.00,0.00,0.53
15767,-1.50,3.06,0.00,0.12,-0.19,-0.12,0.07,0.05,-0.21,0.00,0.00,0.51
15779,-1.50,3.06,0.00,0.12,-0.19,-0.12,0.07,0.04,-0.21,0.00,0.00,0.53
15787,-1.50,3.06,0.00,0.00,0.25,0.00,0.07,0.01,-0.22,0.00,0.00,0.53
15801,-1.50,3.06,0.00,0.00,0.25,0.00,0.07,0.05,-0.22,0.00,0.00,0.51
15808,-1.50,3.06,0.00,0.00,0.00,0.00,0.07,0.04,-0.24,0.00,0.00,0.50
15822,-1.50,3.06,0.00,-0.06,0.19,0.12,0.07,0.04,-0.21,0.00,0.00,0.53
15832,-1.50,3.06,0.00,0.00,0.12,0.12,0.08,0.04,-0.23,0.00,0.00,0.52
15840,-1.50,3.06,0.00,0.25,0.12,-0.06,0.09,0.06,-0.21,0.00,0.00,0.51
15847,-1.50,3.06,0.00,0.00,0.19,0.00,0.07,0.07,-0.24,0.00,0.00,0.54
15856,-1.50,3.06,0.00,0.00,0.19,0.00,0.07,0.06,-0.24,0.00,0.00,0.52
15889,-1.50,3.06,0.00,0.12,0.06,-0.06,0.08,0.05,-0.22,0.00,0.00,0.51
15897,-1.50,3.06,0.00,0.19,-0.12,-0.12,0.08,0.05,-0.24,0.00,0.00,0.52
15908,-1.50,3.06,0.00,0.00,0.19,-0.06,0.10,0.05,-0.26,0.00,0.00,0.54
15917,-1.50,3.06,0.00,0.06,0.00,0.00,0.09,0.04,-0.24,0.00,0.00,0.52
15927,-1.50,3.06,0.00,0.06,0.00,0.00,0.08,0.05,-0.24,0.00,0.00,0.53
15936,-1.50,3.06,0.00,-0.19,0.00,0.00,0.06,0.06,-0.25,0.00,0.00,0.52
15945,-1.50,3.06,0.00,-0.12,-0.19,-0.12,0.09,0.04,-0.24,0.00,0.00,0.52
15955,-1.50,3.06,0.00,0.12,0.06,-0.12,0.09,0.04,-0.25,0.00,0.00,0.52
