Time,sensPitch,sensRoll,sensYaw,xGyro,yGyro,ZGyro,xAcc,yAcc,zAcc,latitude,longitude,altitude
6035,-0.75,2.38,0.00,0.19,0.06,-0.06,0.02,0.00,-0.23,0.00,0.00,0.52
6044,-0.75,2.38,0.00,-0.25,-0.06,0.00,0.04,-0.10,-0.30,0.00,0.00,0.53
6053,-0.75,2.38,0.00,-0.25,-0.06,0.00,0.01,-0.12,-0.30,0.00,0.00,0.52
6063,-0.75,2.38,0.00,-0.12,-0.12,0.19,0.00,-0.06,-0.27,0.00,0.00,0.53
6075,-0.75,2.38,0.00,0.12,-0.06,-0.12,0.00,-0.06,-0.27,0.00,0.00,0.53
6084,-0.75,2.38,0.00,0.19,-0.19,0.06,-0.04,0.12,-0.21,0.00,0.00,0.52
6095,-0.75,2.38,0.00,0.19,-0.19,0.06,-0.03,0.09,-0.22,0.00,0.00,0.54
6104,-0.75,2.38,0.00,-0.31,-0.44,0.00,0.00,0.01,-0.26,0.00,0.00,0.50
6114,-0.75,2.38,0.00,-0.31,-0.44,0.00,0.01,-0.11,-0.27,0.00,0.00,0.53
6123,-0.75,2.38,0.00,0.00,-0.19,0.06,0.02,-0.10,-0.24,0.00,0.00,0.52
6136,-0.75,2.38,0.00,0.00,-0.19,0.06,0.04,-0.02,-0.23,0.00,0.00,0.52
6144,-0.75,2.38,0.00,0.06,0.06,0.06,0.03,0.05,-0.23,0.00,0.00,0.51
6157,-0.75,2.38,0.00,0.06,0.06,0.06,0.00,0.10,-0.20,0.00,0.00,0.51
6169,-0.75,2.38,0.00,0.06,0.00,0.06,0.00,0.05,-0.22,0.00,0.00,0.53
6915,-0.81,2.38,0.00,-1.56,0.19,0.12,0.18,-0.90,-0.47,0.00,0.00,0.53
6924,-0.81,2.38,0.00,0.88,0.88,0.06,0.81,-1.19,-0.56,0.00,0.00,0.51
6935,-0.81,2.38,0.00,0.88,0.88,0.06,0.05,0.25,-0.22,0.00,0.00,0.54
6946,-0.81,2.38,0.00,2.38,1.62,0.00,-0.74,1.71,0.14,0.00,0.00,0.53
6960,-0.81,2.38,0.00,-1.19,0.56,-0.06,-0.85,2.14,0.34,0.00,0.00,0.54
6968,-0.81,2.38,0.00,-3.38,-0.06,-0.06,0.23,-1.66,-0.66,0.00,0.00,0.52
6979,-0.81,2.44,0.00,-2.81,0.00,0.06,0.23,-1.66,-0.66,0.00,0.00,0.51
6988,-0.81,2.44,0.00,-2.81,0.00,0.06,0.17,-1.20,-0.59,0.00,0.00,0.52
6999,-0.81,2.44,0.00,1.94,0.12,0.31,-0.32,0.01,-0.15,0.00,0.00,0.50
7008,-0.81,2.38,0.00,2.94,-0.12,0.19,-0.43,0.64,-0.02,0.00,0.00,0.48
7015,-0.81,2.38,0.00,2.94,-0.12,0.19,-0.43,0.64,-0.02,0.00,0.00,0.51
7023,-0.81,2.38,0.00,1.75,-0.44,0.12,-0.34,1.16,0.04,0.00,0.00,0.50
7032,-0.81,2.38,0.00,-0.12,-0.56,-0.06,-0.14,1.26,0.03,0.00,0.00,0.49
7039,-0.81,2.38,0.00,-1.31,-0.44,-0.19,0.14,0.01,-0.24,0.00,0.00,0.50
7072,-0.81,2.38,-0.06,-0.56,0.25,0.94,0.50,-0.10,-0.29,0.00,0.00,0.51
7079,-0.81,2.38,-0.06,-0.81,0.50,1.25,-0.05,0.26,-0.14,0.00,0.00,0.49
7089,-0.81,2.38,-0.06,-1.12,0.44,0.75,-0.10,-0.06,-0.19,0.00,0.00,0.52
7097,-0.81,2.38,-0.06,-0.75,0.50,-0.38,-0.24,-0.37,-0.29,0.00,0.00,0.51
7108,-0.81,2.44,-0.06,-0.75,0.50,-0.38,0.16,-0.61,-0.43,0.00,0.00,0.51
7117,-0.81,2.44,-0.06,0.69,0.44,-0.94,0.03,-0.21,-0.26,0.00,0.00,0.52
7128,-0.81,2.38,-0.06,0.69,0.44,-0.94,-0.23,-0.14,-0.23,0.00,0.00,0.51
7137,-0.81,2.38,-0.06,1.44,0.06,0.25,-0.18,0.03,-0.27,0.00,0.00,0.53
7149,-0.81,2.38,-0.06,1.44,0.06,0.25,-0.13,0.45,-0.13,0.00,0.00,0.51
7158,-0.81,2.38,-0.06,0.25,0.00,-0.81,-0.28,0.51,-0.07,0.00,0.00,0.51
7170,-0.81,2.38,0.00,0.25,0.00,-0.81,-0.10,0.28,-0.10,0.00,0.00,0.50
7177,-0.81,2.38,0.00,-0.75,-0.31,-0.75,0.22,0.00,-0.20,0.00,0.00,0.53
7189,-0.81,2.38,0.00,-0.75,-0.31,-0.75,-0.01,-0.17,-0.33,0.00,0.00,0.54
7197,-0.81,2.38,0.00,-0.31,-0.50,1.50,-0.01,-0.13,-0.26,0.00,0.00,0.51
7207,-0.81,2.38,0.00,-0.31,-0.50,1.50,-0.26,0.09,-0.23,0.00,0.00,0.52
7237,-0.81,2.38,-0.06,-0.25,0.00,0.00,-0.20,-0.38,-0.27,0.00,0.00,0.52
7246,-0.81,2.38,-0.06,-0.25,0.00,0.00,-0.33,-0.32,-0.23,0.00,0.00,0.52
7256,-0.81,2.38,-0.06,0.12,0.00,-0.88,0.03,-0.33,-0.31,0.00,0.00,0.52
7265,-0.81,2.38,-0.06,0.62,-0.38,-1.31,0.24,0.73,-0.09,0.00,0.00,0.52
7275,-0.81,2.38,-0.06,0.88,0.00,-0.62,0.12,0.68,-0.15,0.00,0.00,0.54
7286,-0.81,2.38,-0.06,0.06,0.06,0.38,0.12,0.68,-0.15,0.00,0.00,0.54
7295,-0.81,2.38,-0.06,-0.62,0.25,0.88,0.18,0.06,-0.23,0.00,0.00,0.53
7305,-0.81,2.38,-0.06,-0.88,0.19,1.31,-0.23,0.00,-0.22,0.00,0.00,0.53
7313,-0.81,2.38,-0.06,-0.56,0.38,1.50,-0.23,0.00,-0.22,0.00,0.00,0.52
7320,-0.81,2.38,-0.06,-0.38,0.12,1.44,-0.45,-0.12,-0.24,0.00,0.00,0.52
7327,-0.81,2.38,-0.12,-0.12,-0.25,0.88,-0.63,-0.29,-0.23,0.00,0.00,0.52
7339,-0.81,2.38,-0.12,0.38,-0.50,0.44,-0.18,-0.66,-0.41,0.00,0.00,0.52
7347,-0.81,2.38,-0.12,0.62,-0.94,-0.62,-0.26,-0.08,-0.19,0.00,0.00,0.52
7357,-0.81,2.38,-0.06,0.62,-0.94,-0.62,0.05,0.12,-0.16,0.00,0.00,0.51
7405,-0.75,2.38,0.00,0.06,-0.94,-1.19,0.30,0.52,0.02,0.00,0.00,0.51
7414,-0.75,2.38,0.00,-0.19,-0.69,-0.62,0.30,0.52,0.02,0.00,0.00,0.51
7424,-0.75,2.38,0.00,-1.00,-0.25,0.19,0.00,0.32,0.01,0.00,0.00,0.51
7435,-0.75,2.38,0.00,-1.19,0.00,0.50,0.09,-0.25,-0.23,0.00,0.00,0.50
7444,-0.75,2.38,0.00,-1.06,0.69,-0.25,-0.45,-0.10,-0.26,0.00,0.00,0.51
7456,-0.75,2.44,0.00,-0.69,0.44,-0.94,-0.01,-0.37,-0.27,0.00,0.00,0.51
7463,-0.75,2.44,0.00,0.00,0.00,-1.75,-0.01,-0.37,-0.27,0.00,0.00,0.51
7472,-0.75,2.44,0.00,0.38,-0.12,-2.00,-0.22,-0.19,-0.30,0.00,0.00,0.50
7483,-0.75,2.38,0.06,0.94,-0.19,-2.56,0.16,0.14,-0.13,0.00,0.00,0.49
7493,-0.75,2.38,0.06,0.56,-0.31,-1.25,-0.05,0.14,-0.11,0.00,0.00,0.50
7504,-0.75,2.38,0.06,0.25,-0.38,-0.12,-0.35,0.90,0.14,0.00,0.00,0.49
7512,-0.75,2.44,0.06,-0.81,-0.62,0.56,0.06,0.44,0.14,0.00,0.00,0.52
7519,-0.75,2.44,0.06,-1.38,-0.44,0.94,0.02,0.25,0.08,0.00,0.00,0.51
7526,-0.75,2.44,0.06,-1.56,-0.38,0.69,-0.11,0.02,-0.03,0.00,0.00,0.51
7535,-0.75,2.44,0.06,-1.44,0.06,0.31,0.03,-0.45,-0.31,0.00,0.00,0.51
7565,-0.75,2.44,0.06,0.62,0.25,-0.62,-0.50,-0.04,-0.19,0.00,0.00,0.51
7574,-0.75,2.44,0.06,0.62,0.25,-0.62,-0.19,0.37,-0.03,0.00,0.00,0.51
7584,-0.75,2.44,0.06,0.38,-1.06,-0.56,-0.59,0.28,-0.12,0.00,0.00,0.51
7594,-0.69,2.44,0.06,-0.25,-2.00,-0.06,0.29,0.20,-0.06,0.00,0.00,0.53
7603,-0.69,2.44,0.06,-0.88,-3.00,0.19,0.48,0.13,-0.12,0.00,0.00,0.51
7611,-0.69,2.44,0.06,-1.12,-2.62,0.62,0.48,0.13,-0.12,0.00,0.00,0.53
7618,-0.62,2.50,0.06,-0.69,-1.88,0.75,0.12,-0.30,-0.49,0.00,0.00,0.53
7630,-0.62,2.50,0.06,-0.38,-1.19,0.88,0.31,-0.42,-0.59,0.00,0.00,0.52
7639,-0.62,2.50,0.00,-0.12,-0.81,0.94,0.43,-0.43,-0.66,0.00,0.00,0.52
7649,-0.62,2.50,0.00,0.12,-0.38,1.00,0.04,-0.12,-0.66,0.00,0.00,0.51
7656,-0.62,2.50,0.00,-0.12,-0.56,0.88,-0.26,0.00,-0.50,0.00,0.00,0.51
7668,-0.62,2.50,0.00,-0.44,-0.81,0.81,-0.46,0.16,-0.37,0.00,0.00,0.53
7675,-0.62,2.50,0.00,-1.00,-1.50,0.75,-0.64,0.21,-0.22,0.00,0.00,0.54
7687,-0.62,2.50,0.00,-1.19,-2.19,0.44,-0.33,-0.03,-0.19,0.00,0.00,0.52
7717,-0.50,2.50,0.00,-0.38,-1.31,-0.44,0.48,-0.23,-0.31,0.00,0.00,0.53
7727,-0.50,2.50,0.00,0.50,-0.19,-0.31,0.71,-0.51,-0.43,0.00,0.00,0.54
7735,-0.50,2.50,0.00,0.94,0.06,0.12,0.24,-0.14,-0.28,0.00,0.00,0.51
7745,-0.50,2.50,0.00,1.00,0.56,-0.12,0.21,-0.13,-0.07,0.00,0.00,0.53
7754,-0.50,2.50,0.00,1.12,0.44,0.00,-0.16,0.30,0.21,0.00,0.00,0.53
7764,-0.50,2.50,0.00,1.12,0.44,0.00,0.01,0.17,0.30,0.00,0.00,0.52
7773,-0.50,2.50,0.00,0.56,0.19,0.00,0.04,0.12,0.34,0.00,0.00,0.54
7783,-0.50,2.50,0.00,-0.25,-0.25,-0.06,-0.03,0.37,0.32,0.00,0.00,0.52
7793,-0.50,2.50,0.00,-0.62,-0.44,0.00,0.11,0.13,0.15,0.00,0.00,0.54
7803,-0.50,2.50,0.00,-1.25,-0.62,0.12,0.19,-0.12,0.05,0.00,0.00,0.52
7812,-0.50,2.50,0.00,-1.50,-0.69,0.50,0.19,-0.12,0.05,0.00,0.00,0.51
7822,-0.50,2.50,0.00,-1.12,-0.94,1.00,0.32,-0.25,-0.02,0.00,0.00,0.52
7832,-0.50,2.56,0.00,-0.69,-0.31,1.38,0.35,-0.29,-0.10,0.00,0.00,0.51
7842,-0.50,2.56,-0.06,-0.31,-0.06,1.44,0.36,-0.25,-0.15,0.00,0.00,0.52
7852,-0.50,2.56,-0.06,0.06,0.56,1.44,0.29,-0.06,-0.36,0.00,0.00,0.54
7883,-0.56,2.56,-0.12,-0.94,1.31,2.12,0.07,0.17,-0.23,0.00,0.00,0.55
7892,-0.56,2.56,-0.12,-0.94,1.31,2.12,0.59,-0.28,-0.30,0.00,0.00,0.53
7902,-0.56,2.56,-0.12,-1.56,1.88,2.62,-0.60,0.93,0.18,0.00,0.00,0.53
7913,-0.56,2.56,-0.19,-2.06,1.88,3.25,-0.60,0.93,0.18,0.00,0.00,0.52
7920,-0.62,2.62,-0.19,-2.75,1.81,3.31,0.23,-0.03,0.00,0.00,0.00,0.55
7934,-0.62,2.62,-0.25,-3.12,2.06,3.56,-0.27,0.28,-0.06,0.00,0.00,0.54
7942,-0.62,2.69,-0.31,-3.62,2.31,3.88,0.22,-0.17,-0.33,0.00,0.00,0.54
7955,-0.69,2.69,-0.31,-3.62,2.31,3.88,0.14,-0.12,-0.27,0.00,0.00,0.52
7963,-0.69,2.75,-0.38,-3.06,3.06,4.50,0.09,-0.24,-0.27,0.00,0.00,0.52
7971,-0.75,2.75,-0.38,-3.06,3.06,4.50,0.09,-0.24,-0.27,0.00,0.00,0.52
7981,-0.75,2.81,-0.44,-2.69,3.75,4.62,-0.02,-0.32,-0.02,0.00,0.00,0.52
7992,-0.81,2.81,-0.50,-2.19,3.69,4.50,-0.18,-0.31,0.06,0.00,0.00,0.55
8002,-0.88,2.81,-0.50,-1.50,3.94,3.88,-0.04,0.10,0.41,0.00,0.00,0.50
8012,-0.88,2.81,-0.56,-0.75,4.25,3.31,-0.04,0.10,0.41,0.00,0.00,0.52
8042,-1.06,2.88,-0.62,-1.31,6.44,0.56,-0.09,-0.05,0.34,0.00,0.00,0.54
8054,-1.12,2.88,-0.62,-1.31,6.44,0.56,-0.06,-0.06,0.40,0.00,0.00,0.55
8062,-1.19,2.88,-0.62,-1.12,6.88,0.19,0.02,-0.11,0.36,0.00,0.00,0.52
8072,-1.25,2.88,-0.62,-1.00,6.94,-0.19,0.02,-0.11,0.36,0.00,0.00,0.56
8081,-1.31,2.94,-0.62,-1.00,7.50,-0.38,0.11,-0.07,0.24,0.00,0.00,0.52
8093,-1.38,2.94,-0.56,-0.44,7.88,-0.62,0.20,-0.14,0.12,0.00,0.00,0.53
8102,-1.44,2.94,-0.56,-0.06,8.50,-1.12,0.08,-0.24,0.02,0.00,0.00,0.52
8110,-1.56,2.94,-0.56,-0.06,8.50,-1.12,0.08,-0.24,0.02,0.00,0.00,0.52
8117,-1.62,2.94,-0.56,0.19,8.56,-1.19,-0.02,-0.23,-0.10,0.00,0.00,0.52
8128,-1.69,2.94,-0.56,0.44,8.25,-1.19,-0.09,-0.20,-0.12,0.00,0.00,0.53
8139,-1.81,2.94,-0.50,1.00,8.19,-1.81,-0.26,-0.05,-0.13,0.00,0.00,0.50
8152,-1.88,2.88,-0.50,1.25,7.62,-1.94,-0.36,-0.04,-0.15,0.00,0.00,0.51
8160,-1.94,2.88,-0.50,1.44,7.31,-2.38,-0.63,0.00,-0.03,0.00,0.00,0.52
8171,-2.00,2.88,-0.44,1.56,6.31,-3.00,-0.63,0.00,-0.03,0.00,0.00,0.50
8180,-2.06,2.88,-0.38,1.62,5.38,-3.44,-0.63,0.03,-0.07,0.00,0.00,0.52
8214,-2.12,2.81,-0.25,1.81,2.81,-4.69,-0.41,0.09,-0.20,0.00,0.00,0.54
8222,-2.25,2.81,-0.19,1.62,1.31,-5.12,-0.43,0.05,-0.23,0.00,0.00,0.52
8230,-2.25,2.81,-0.19,1.81,0.81,-5.25,-0.30,-0.07,-0.24,0.00,0.00,0.53
8240,-2.25,2.75,-0.12,1.81,0.81,-5.25,-0.22,0.02,-0.19,0.00,0.00,0.52
8250,-2.25,2.75,-0.06,1.62,-0.25,-5.19,-0.29,-0.01,-0.15,0.00,0.00,0.52
8257,-2.25,2.75,0.00,1.69,-0.62,-5.56,-0.29,-0.01,-0.15,0.00,0.00,0.52
8265,-2.25,2.75,0.06,1.50,-1.12,-6.00,-0.39,0.05,-0.10,0.00,0.00,0.52
8272,-2.25,2.69,0.12,1.44,-1.88,-6.06,-0.36,0.00,-0.07,0.00,0.00,0.56
8281,-2.25,2.69,0.12,1.25,-2.06,-6.25,-0.36,0.08,-0.12,0.00,0.00,0.51
8290,-2.25,2.69,0.12,1.25,-2.06,-6.25,-0.20,0.06,-0.11,0.00,0.00,0.52
8299,-2.25,2.69,0.19,1.12,-2.94,-6.12,-0.02,0.00,-0.12,0.00,0.00,0.54
8309,-2.25,2.69,0.25,1.00,-3.44,-6.00,-0.02,0.00,-0.12,0.00,0.00,0.57
8316,-2.19,2.69,0.31,0.88,-3.81,-5.44,0.18,0.03,-0.20,0.00,0.00,0.54
8328,-2.12,2.69,0.38,0.69,-3.81,-5.06,0.22,0.00,-0.17,0.00,0.00,0.54
8358,-2.06,2.62,0.50,0.69,-3.38,-3.44,0.30,-0.10,-0.38,0.00,0.00,0.58
8366,-2.00,2.62,0.50,1.00,-3.12,-2.75,0.32,-0.07,-0.38,0.00,0.00,0.55
8375,-2.00,2.62,0.56,0.94,-2.88,-2.19,0.31,0.02,-0.37,0.00,0.00,0.56
8383,-1.94,2.62,0.56,1.00,-2.88,-1.50,0.15,0.01,-0.32,0.00,0.00,0.54
8391,-1.94,2.62,0.56,1.00,-2.81,-0.75,0.11,0.07,-0.29,0.00,0.00,0.56
8403,-1.94,2.62,0.56,0.88,-2.81,-0.06,0.17,0.06,-0.23,0.00,0.00,0.55
8410,-1.88,2.62,0.56,0.81,-2.69,0.38,0.27,0.04,-0.21,0.00,0.00,0.55
8421,-1.88,2.62,0.56,0.81,-2.69,0.38,0.27,0.04,-0.21,0.00,0.00,0.56
8429,-1.81,2.56,0.56,1.00,-1.81,0.88,0.41,-0.02,-0.32,0.00,0.00,0.56
8442,-1.75,2.56,0.56,1.00,-1.81,0.88,0.25,0.02,-0.31,0.00,0.00,0.56
8450,-1.75,2.56,0.56,0.88,-0.88,1.00,0.23,0.03,-0.28,0.00,0.00,0.57
8462,-1.75,2.56,0.50,1.00,-0.50,1.12,0.18,-0.03,-0.26,0.00,0.00,0.59
8470,-1.69,2.56,0.50,0.88,-0.19,1.19,0.14,-0.04,-0.26,0.00,0.00,0.57
8482,-1.69,2.56,0.50,0.94,0.06,0.94,0.15,-0.08,-0.27,0.00,0.00,0.55
8490,-1.69,2.56,0.50,1.00,-0.06,0.81,0.12,-0.10,-0.30,0.00,0.00,0.58
8525,-1.69,2.50,0.44,1.62,0.50,0.81,0.00,-0.09,-0.37,0.00,0.00,0.57
8538,-1.69,2.50,0.44,1.81,0.12,0.88,0.04,-0.10,-0.39,0.00,0.00,0.55
8552,-1.69,2.50,0.44,1.69,0.56,0.62,-0.12,0.07,-0.32,0.00,0.00,0.56
8560,-1.69,2.44,0.44,1.56,0.12,-0.06,-0.02,0.06,-0.29,0.00,0.00,0.57
8570,-1.69,2.44,0.44,1.56,0.12,-0.06,-0.02,0.06,-0.29,0.00,0.00,0.57
8579,-1.69,2.44,0.44,1.50,0.25,-1.19,-0.07,0.02,-0.29,0.00,0.00,0.57
8592,-1.69,2.44,0.44,1.50,0.25,-1.19,-0.02,0.00,-0.26,0.00,0.00,0.56
8600,-1.69,2.38,0.50,1.38,0.25,-2.19,0.09,0.03,-0.25,0.00,0.00,0.56
8612,-1.69,2.38,0.50,1.38,0.25,-2.19,0.16,0.04,-0.25,0.00,0.00,0.56
8620,-1.69,2.38,0.56,1.25,0.88,-2.69,0.04,0.06,-0.23,0.00,0.00,0.57
8633,-1.69,2.38,0.56,1.19,1.06,-2.94,0.08,0.06,-0.21,0.00,0.00,0.57
8640,-1.75,2.31,0.62,1.25,1.19,-2.75,0.15,0.07,-0.21,0.00,0.00,0.57
8649,-1.75,2.31,0.62,1.06,1.31,-2.56,0.17,0.07,-0.19,0.00,0.00,0.56
8656,-1.75,2.31,0.62,1.06,1.31,-2.56,0.17,0.07,-0.19,0.00,0.00,0.55
8667,-1.75,2.31,0.69,1.19,1.25,-2.25,0.22,0.00,-0.19,0.00,0.00,0.57
8698,-1.75,2.31,0.69,1.12,2.19,0.19,0.09,0.02,-0.17,0.00,0.00,0.57
8709,-1.75,2.25,0.69,1.12,2.19,0.19,0.09,0.02,-0.17,0.00,0.00,0.55
8717,-1.81,2.25,0.69,1.00,2.19,1.00,0.12,-0.03,-0.17,0.00,0.00,0.60
8729,-1.81,2.25,0.69,1.06,1.94,1.69,0.27,0.02,-0.28,0.00,0.00,0.58
8737,-1.81,2.25,0.62,0.88,2.25,3.12,0.22,0.00,-0.30,0.00,0.00,0.59
8747,-1.81,2.25,0.62,0.88,2.25,3.12,0.26,0.01,-0.28,0.00,0.00,0.55
8755,-1.88,2.25,0.56,0.94,2.44,3.50,0.26,0.01,-0.28,0.00,0.00,0.59
8763,-1.88,2.19,0.56,0.88,2.81,4.12,0.31,0.10,-0.26,0.00,0.00,0.58
8771,-1.88,2.19,0.50,0.56,2.44,4.94,0.09,0.15,-0.33,0.00,0.00,0.57
8779,-1.94,2.19,0.44,0.31,2.69,5.38,0.06,0.14,-0.30,0.00,0.00,0.57
8787,-1.94,2.19,0.44,0.06,2.31,6.25,0.03,0.14,-0.31,0.00,0.00,0.59
8797,-1.94,2.19,0.38,0.06,2.31,6.25,0.00,0.16,-0.27,0.00,0.00,0.58
8806,-1.94,2.19,0.31,-0.19,2.12,7.31,0.00,0.16,-0.27,0.00,0.00,0.57
8813,-2.00,2.19,0.25,-0.50,1.56,8.44,0.02,0.03,-0.39,0.00,0.00,0.59
8823,-2.00,2.19,0.12,-0.62,1.56,9.69,0.07,-0.04,-0.39,0.00,0.00,0.58
8853,-2.00,2.19,-0.19,-0.88,0.50,12.38,-0.03,0.04,-0.35,0.00,0.00,0.57
8863,-2.00,2.19,-0.31,-1.19,-0.12,13.00,0.00,0.02,-0.39,0.00,0.00,0.59
8872,-2.00,2.19,-0.44,-1.25,-0.31,13.69,0.00,0.02,-0.44,0.00,0.00,0.58
8879,-2.00,2.25,-0.62,-1.12,-0.69,14.62,-0.04,0.06,-0.45,0.00,0.00,0.59
8887,-2.00,2.25,-0.75,-1.25,-1.06,15.38,-0.06,0.03,-0.42,0.00,0.00,0.58
8896,-2.00,2.25,-0.75,-1.38,-1.44,15.88,-0.09,0.01,-0.42,0.00,0.00,0.59
8904,-2.00,2.25,-0.94,-1.38,-1.44,15.88,-0.09,0.01,-0.42,0.00,0.00,0.58
8911,-2.00,2.25,-1.06,-1.25,-1.94,16.19,-0.08,0.03,-0.38,0.00,0.00,0.59
8921,-2.00,2.25,-1.25,-1.50,-2.31,16.88,-0.05,0.07,-0.32,0.00,0.00,0.58
8929,-2.00,2.25,-1.38,-1.44,-2.56,17.12,0.01,0.11,-0.32,0.00,0.00,0.58
8940,-2.00,2.25,-1.38,-1.44,-2.38,17.25,0.01,0.05,-0.33,0.00,0.00,0.58
8948,-1.94,2.25,-1.75,-1.69,-2.88,17.50,0.08,-0.02,-0.35,0.00,0.00,0.59
8960,-1.94,2.25,-1.75,-1.50,-2.88,17.75,-0.01,-0.11,-0.37,0.00,0.00,0.59
8967,-1.88,2.31,-2.06,-1.44,-3.00,17.88,0.10,-0.19,-0.38,0.00,0.00,0.59
8999,-1.81,2.31,-2.62,-0.38,-2.50,17.94,0.02,0.00,-0.36,0.00,0.00,0.58
9007,-1.81,2.31,-2.81,-0.12,-2.44,18.25,0.05,0.00,-0.33,0.00,0.00,0.59
9017,-1.81,2.31,-2.81,-0.12,-2.44,18.25,0.05,0.00,-0.33,0.00,0.00,0.59
9025,-1.81,2.31,-2.94,0.19,-2.75,18.25,0.07,-0.05,-0.29,0.00,0.00,0.58
9038,-1.75,2.31,-3.12,0.19,-2.75,18.25,0.25,-0.02,-0.31,0.00,0.00,0.59
9046,-1.75,2.31,-3.31,0.50,-2.00,18.12,0.28,0.00,-0.34,0.00,0.00,0.59
9056,-1.75,2.31,-3.50,0.50,-2.00,18.12,0.28,0.00,-0.34,0.00,0.00,0.59
9063,-1.69,2.25,-3.69,0.81,-1.50,17.88,0.34,0.00,-0.36,0.00,0.00,0.58
9073,-1.69,2.25,-3.81,1.06,-1.19,17.69,0.27,0.08,-0.36,0.00,0.00,0.59
9084,-1.69,2.25,-4.00,1.06,-0.69,17.31,0.17,0.09,-0.33,0.00,0.00,0.59
9095,-1.69,2.25,-4.19,1.12,-0.38,17.25,0.10,0.18,-0.28,0.00,0.00,0.58
9102,-1.69,2.19,-4.31,1.06,-0.31,17.31,0.00,0.10,-0.27,0.00,0.00,0.59
9112,-1.69,2.19,-4.50,1.12,0.06,17.62,0.09,0.14,-0.27,0.00,0.00,0.60
9120,-1.69,2.19,-4.69,1.06,-0.06,17.81,0.19,0.00,-0.28,0.00,0.00,0.59
9151,-1.69,2.12,-5.25,1.19,0.12,19.56,0.30,-0.05,-0.38,0.00,0.00,0.60
9158,-1.69,2.12,-5.44,1.38,0.19,20.44,0.36,-0.17,-0.41,0.00,0.00,0.59
9166,-1.69,2.06,-5.62,1.69,0.31,21.19,0.34,-0.15,-0.39,0.00,0.00,0.60
9174,-1.69,2.06,-5.62,2.06,0.44,22.19,0.19,-0.07,-0.34,0.00,0.00,0.59
9183,-1.69,2.06,-5.88,2.06,0.44,22.19,0.10,-0.03,-0.33,0.00,0.00,0.59
9198,-1.69,2.06,-6.06,2.19,0.88,22.69,0.10,-0.03,-0.33,0.00,0.00,0.59
9207,-1.69,2.00,-6.31,2.50,0.81,23.75,0.14,0.14,-0.29,0.00,0.00,0.59
9215,-1.69,2.00,-6.50,2.25,0.75,24.25,0.19,0.15,-0.30,0.00,0.00,0.60
9225,-1.75,1.94,-6.75,2.25,0.75,24.25,0.33,0.14,-0.32,0.00,0.00,0.59
9234,-1.75,1.94,-7.00,2.25,1.19,24.44,0.49,0.11,-0.35,0.00,0.00,0.59
9246,-1.75,1.88,-7.25,2.12,1.69,24.75,0.46,0.10,-0.35,0.00,0.00,0.60
9253,-1.75,1.81,-7.50,2.00,2.12,25.12,0.46,0.10,-0.35,0.00,0.00,0.59
9263,-1.75,1.81,-7.75,2.06,2.56,25.69,0.44,0.05,-0.34,0.00,0.00,0.60
9272,-1.75,1.75,-8.00,2.00,3.06,26.19,0.26,0.12,-0.33,0.00,0.00,0.60
9283,-1.75,1.75,-8.25,1.94,3.50,26.88,0.25,0.16,-0.36,0.00,0.00,0.59
9312,-1.88,1.62,-9.06,1.62,3.88,29.19,0.11,-0.06,-0.36,0.00,0.00,0.59
9325,-1.88,1.62,-9.38,1.56,4.06,29.62,0.02,0.02,-0.32,0.00,0.00,0.60
9333,-1.94,1.62,-9.62,1.38,3.56,30.38,-0.16,0.03,-0.28,0.00,0.00,0.60
9346,-2.00,1.56,-9.94,1.38,3.56,30.38,-0.21,0.04,-0.22,0.00,0.00,0.60
9354,-2.06,1.56,-10.25,1.56,2.31,31.12,-0.06,0.04,-0.27,0.00,0.00,0.59
9366,-2.06,1.50,-10.50,1.56,2.31,31.12,-0.06,0.04,-0.27,0.00,0.00,0.60
9374,-2.12,1.44,-11.12,1.50,1.81,32.31,0.04,0.02,-0.37,0.00,0.00,0.59
9384,-2.12,1.44,-11.12,1.50,1.81,32.31,0.07,-0.03,-0.38,0.00,0.00,0.60
9393,-2.12,1.44,-11.44,1.50,1.44,32.94,-0.05,-0.03,-0.36,0.00,0.00,0.60
9401,-2.19,1.44,-11.81,1.94,1.50,33.44,-0.05,-0.03,-0.36,0.00,0.00,0.60
9408,-2.19,1.38,-12.12,2.00,1.19,33.75,-0.08,-0.06,-0.32,0.00,0.00,0.61
9416,-2.19,1.38,-12.44,2.19,1.12,34.00,-0.10,-0.03,-0.32,0.00,0.00,0.60
9424,-2.19,1.31,-12.75,2.25,0.56,34.19,-0.20,0.07,-0.30,0.00,0.00,0.59
9432,-2.19,1.31,-12.75,2.25,0.56,34.19,-0.08,0.05,-0.32,0.00,0.00,0.60
9462,-2.25,1.19,-13.75,2.00,-0.31,34.25,-0.13,0.30,-0.27,0.00,0.00,0.60
9471,-2.25,1.19,-14.12,1.56,-0.31,34.00,-0.13,0.30,-0.27,0.00,0.00,0.60
9481,-2.25,1.12,-14.44,1.19,-0.62,33.50,-0.11,0.29,-0.26,0.00,0.00,0.60
9491,-2.25,1.06,-14.75,0.81,-1.00,32.94,-0.09,0.33,-0.19,0.00,0.00,0.59
9501,-2.25,1.06,-15.06,0.31,-0.88,32.31,-0.08,0.40,-0.15,0.00,0.00,0.60
9508,-2.31,1.00,-15.38,-0.56,-0.81,31.56,-0.10,0.26,-0.13,0.00,0.00,0.60
9519,-2.31,1.00,-15.69,-0.94,-1.12,31.44,-0.08,0.18,-0.10,0.00,0.00,0.59
9528,-2.31,1.00,-16.00,-1.50,-1.06,31.19,-0.16,0.18,-0.11,0.00,0.00,0.60
9540,-2.31,1.00,-16.25,-1.75,-1.38,31.25,-0.11,0.02,-0.14,0.00,0.00,0.60
9547,-2.25,1.00,-16.56,-1.81,-1.62,31.31,0.00,-0.08,-0.13,0.00,0.00,0.60
9555,-2.25,1.00,-16.88,-1.94,-1.94,31.06,0.09,-0.08,-0.20,0.00,0.00,0.60
9562,-2.25,1.00,-17.19,-2.12,-1.69,30.94,0.05,-0.09,-0.20,0.00,0.00,0.61
9571,-2.25,1.00,-17.19,-2.12,-1.69,30.94,-0.12,0.04,-0.23,0.00,0.00,0.60
9580,-2.25,1.00,-17.50,-2.06,-1.69,30.62,-0.16,0.08,-0.24,0.00,0.00,0.60
9610,-2.19,1.06,-18.38,-2.50,-2.00,29.56,-0.09,0.03,-0.28,0.00,0.00,0.60
9618,-2.19,1.06,-18.62,-2.50,-2.25,29.19,-0.05,-0.04,-0.37,0.00,0.00,0.60
9626,-2.19,1.06,-18.94,-2.50,-2.19,28.75,-0.04,-0.09,-0.42,0.00,0.00,0.60
9633,-2.19,1.12,-19.19,-2.50,-2.25,28.31,-0.11,-0.11,-0.41,0.00,0.00,0.60
9641,-2.19,1.12,-19.19,-2.44,-2.56,28.12,-0.09,-0.12,-0.45,0.00,0.00,0.60
9648,-2.12,1.12,-19.44,-2.44,-2.56,28.12,-0.09,-0.12,-0.45,0.00,0.00,0.60
9657,-2.12,1.12,-19.75,-2.31,-2.38,27.81,-0.07,-0.20,-0.46,0.00,0.00,0.60
9664,-2.12,1.12,-20.00,-2.12,-2.69,28.00,-0.14,-0.14,-0.39,0.00,0.00,0.60
9675,-2.12,1.19,-20.25,-2.00,-2.94,28.25,-0.25,-0.10,-0.38,0.00,0.00,0.61
9682,-2.06,1.19,-20.56,-1.81,-3.38,28.69,-0.24,-0.09,-0.39,0.00,0.00,0.60
9691,-2.06,1.19,-20.56,-1.81,-3.38,28.69,-0.08,-0.05,-0.35,0.00,0.00,0.59
9698,-2.06,1.19,-20.81,-1.50,-3.81,29.25,-0.08,-0.05,-0.35,0.00,0.00,0.60
9707,-2.00,1.19,-21.12,-1.62,-4.50,29.38,0.03,-0.01,-0.35,0.00,0.00,0.60
9739,-1.94,1.19,-22.00,-1.12,-4.31,29.38,-0.23,0.00,-0.20,0.00,0.00,0.61
9748,-1.88,1.25,-22.25,-1.38,-4.50,29.25,-0.30,-0.01,-0.08,0.00,0.00,0.61
9755,-1.88,1.25,-22.56,-1.50,-4.75,28.75,-0.09,-0.10,-0.09,0.00,0.00,0.61
9764,-1.81,1.25,-22.81,-1.19,-4.62,28.44,-0.05,-0.03,-0.05,0.00,0.00,0.61
9771,-1.81,1.25,-22.81,-1.31,-4.31,28.00,0.08,-0.16,-0.07,0.00,0.00,0.61
9780,-1.75,1.25,-23.12,-1.31,-4.31,28.00,0.06,-0.17,-0.05,0.00,0.00,0.60
9789,-1.75,1.25,-23.38,-1.38,-4.00,27.56,0.12,-0.14,-0.05,0.00,0.00,0.61
9798,-1.69,1.25,-23.62,-1.25,-3.69,27.00,0.12,-0.14,-0.05,0.00,0.00,0.62
9805,-1.69,1.25,-23.88,-1.25,-3.25,26.56,0.29,-0.19,0.00,0.00,0.00,0.60
9815,-1.69,1.25,-24.12,-1.00,-2.75,26.56,0.09,-0.03,0.05,0.00,0.00,0.60
9822,-1.62,1.25,-24.38,-0.94,-2.44,26.62,0.11,-0.12,0.00,0.00,0.00,0.61
9833,-1.62,1.25,-24.38,-0.88,-2.25,26.75,0.20,-0.22,-0.04,0.00,0.00,0.61
9841,-1.62,1.25,-24.69,-0.62,-2.00,26.75,0.12,-0.22,-0.06,0.00,0.00,0.61
9852,-1.62,1.25,-24.94,-0.62,-2.00,26.75,0.12,-0.22,-0.06,0.00,0.00,0.61
9883,-1.56,1.25,-25.94,0.25,-0.88,26.88,0.21,-0.06,-0.24,0.00,0.00,0.61
9894,-1.56,1.25,-25.94,0.38,-0.69,27.19,0.18,-0.09,-0.26,0.00,0.00,0.62
9902,-1.56,1.25,-26.50,0.44,-0.69,27.31,0.28,-0.17,-0.27,0.00,0.00,0.62
9912,-1.56,1.25,-26.50,0.44,-0.69,27.31,0.40,-0.17,-0.30,0.00,0.00,0.63
9920,-1.56,1.25,-26.75,0.69,0.06,28.25,0.48,-0.21,-0.29,0.00,0.00,0.61
9930,-1.50,1.25,-27.00,0.69,0.06,28.25,0.58,-0.17,-0.28,0.00,0.00,0.61
9939,-1.50,1.25,-27.31,0.81,0.31,29.19,0.51,-0.10,-0.28,0.00,0.00,0.61
9948,-1.56,1.25,-27.62,1.25,1.12,30.06,0.51,-0.10,-0.28,0.00,0.00,0.63
9955,-1.56,1.19,-27.88,1.44,1.62,30.81,0.52,-0.16,-0.25,0.00,0.00,0.62
9965,-1.56,1.19,-28.19,1.44,2.12,31.25,0.35,-0.13,-0.19,0.00,0.00,0.62
9972,-1.62,1.19,-28.50,1.38,2.69,31.62,0.32,-0.15,-0.21,0.00,0.00,0.62
9980,-1.62,1.19,-28.50,1.50,3.19,31.88,0.26,-0.05,-0.21,0.00,0.00,0.62
9989,-1.62,1.12,-28.81,1.62,3.56,31.69,0.24,-0.01,-0.20,0.00,0.00,0.63
9996,-1.62,1.12,-29.12,1.62,3.56,31.69,0.24,-0.01,-0.20,0.00,0.00,0.63
10029,-1.75,1.06,-30.00,0.50,4.62,30.44,0.04,0.07,-0.24,0.00,0.00,0.62
10038,-1.81,1.06,-30.31,0.12,4.62,29.69,0.03,0.06,-0.23,0.00,0.00,0.63
10046,-1.88,1.06,-30.56,-0.38,4.75,29.19,0.03,0.06,-0.23,0.00,0.00,0.63
10053,-1.94,1.06,-30.88,-0.88,4.81,28.94,-0.01,-0.02,-0.21,0.00,0.00,0.63
10060,-2.00,1.06,-31.12,-0.88,4.75,28.81,-0.12,0.02,-0.15,0.00,0.00,0.63
10068,-2.00,1.06,-31.12,-0.88,4.75,28.81,-0.06,-0.04,-0.15,0.00,0.00,0.63
10078,-2.00,1.06,-31.44,-1.19,4.31,29.06,0.13,0.03,-0.20,0.00,0.00,0.64
10090,-2.06,1.06,-31.69,-1.50,4.06,29.50,0.13,0.03,-0.20,0.00,0.00,0.64
10097,-2.12,1.06,-32.00,-1.75,3.56,30.12,0.33,-0.13,-0.32,0.00,0.00,0.64
10108,-2.12,1.06,-32.31,-2.00,3.31,30.88,0.33,-0.13,-0.32,0.00,0.00,0.65
10117,-2.19,1.06,-32.62,-2.06,3.50,31.62,0.06,-0.17,-0.25,0.00,0.00,0.64
10130,-2.19,1.12,-32.94,-2.19,3.25,32.69,0.06,-0.17,-0.25,0.00,0.00,0.65
10138,-2.25,1.12,-33.25,-2.12,2.88,33.81,0.04,0.02,-0.12,0.00,0.00,0.64
10147,-2.25,1.12,-33.56,-2.12,2.88,33.81,0.04,0.02,-0.12,0.00,0.00,0.64
10178,-2.38,1.12,-34.56,-2.56,2.00,35.56,-0.03,-0.14,-0.22,0.00,0.00,0.64
10190,-2.38,1.19,-34.94,-2.56,2.00,35.56,0.15,-0.22,-0.40,0.00,0.00,0.65
10198,-2.44,1.19,-35.25,-2.44,1.62,35.88,0.26,-0.25,-0.48,0.00,0.00,0.66
10208,-2.44,1.19,-35.62,-2.19,1.44,36.25,0.26,-0.25,-0.48,0.00,0.00,0.64
10217,-2.44,1.19,-36.00,-2.25,1.25,35.94,0.25,-0.27,-0.55,0.00,0.00,0.64
10229,-2.44,1.19,-36.31,-2.31,1.25,35.62,0.00,-0.09,-0.43,0.00,0.00,0.64
10238,-2.50,1.19,-36.69,-1.94,1.75,34.19,0.01,-0.10,-0.39,0.00,0.00,0.64
10245,-2.50,1.19,-37.00,-1.94,1.75,34.19,0.01,-0.10,-0.39,0.00,0.00,0.65
10252,-2.56,1.25,-37.31,-2.06,1.94,33.19,0.07,-0.09,-0.38,0.00,0.00,0.65
10259,-2.56,1.25,-37.62,-2.12,1.94,32.25,0.09,-0.05,-0.37,0.00,0.00,0.66
10267,-2.56,1.25,-37.62,-2.06,2.06,31.12,0.22,-0.04,-0.40,0.00,0.00,0.65
10278,-2.56,1.25,-37.94,-2.06,2.06,31.12,0.04,0.02,-0.37,0.00,0.00,0.66
10287,-2.62,1.25,-38.25,-2.12,2.25,30.31,0.03,-0.06,-0.37,0.00,0.00,0.65
10295,-2.62,1.25,-38.50,-2.12,2.44,29.56,0.03,-0.06,-0.37,0.00,0.00,0.65
10326,-2.69,1.31,-39.38,-1.88,2.12,28.75,0.19,-0.06,-0.54,0.00,0.00,0.65
10338,-2.75,1.31,-39.62,-1.62,2.12,28.94,0.19,-0.06,-0.54,0.00,0.00,0.66
10346,-2.75,1.31,-39.94,-1.25,2.25,29.12,0.04,0.03,-0.51,0.00,0.00,0.66
10353,-2.81,1.31,-40.19,-1.38,1.69,29.75,0.03,-0.01,-0.41,0.00,0.00,0.66
10364,-2.81,1.31,-40.50,-1.81,0.75,30.69,0.11,0.22,-0.34,0.00,0.00,0.66
10375,-2.81,1.31,-40.81,-1.62,0.56,31.44,-0.17,0.18,-0.23,0.00,0.00,0.67
10389,-2.81,1.31,-41.12,-2.06,-0.31,32.25,-0.15,0.08,-0.11,0.00,0.00,0.68
10397,-2.81,1.31,-41.44,-2.38,-1.94,34.38,0.05,-0.17,-0.17,0.00,0.00,0.65
10406,-2.81,1.31,-41.75,-2.38,-1.94,34.38,0.05,-0.17,-0.17,0.00,0.00,0.68
10416,-2.81,1.31,-42.12,-2.62,-2.38,35.56,0.38,-0.32,-0.32,0.00,0.00,0.67
10427,-2.75,1.31,-42.50,-2.44,-2.81,37.00,0.30,-0.30,-0.33,0.00,0.00,0.69
10436,-2.75,1.38,-42.88,-2.12,-2.69,38.25,0.37,-0.35,-0.34,0.00,0.00,0.70
10443,-2.75,1.38,-43.25,-1.88,-2.75,39.25,0.37,-0.35,-0.34,0.00,0.00,0.69
10451,-2.69,1.31,-43.62,-1.69,-2.88,39.62,0.41,-0.34,-0.31,0.00,0.00,0.70
10483,-2.69,1.31,-44.75,-0.94,-1.75,39.44,0.15,-0.11,-0.29,0.00,0.00,0.69
10490,-2.69,1.31,-45.12,-0.88,-1.25,38.75,0.03,-0.04,-0.23,0.00,0.00,0.71
10498,-2.69,1.31,-45.50,-0.62,-1.06,37.75,-0.01,0.00,-0.21,0.00,0.00,0.71
10505,-2.69,1.31,-45.50,-0.62,-1.06,37.75,0.02,0.10,-0.16,0.00,0.00,0.71
10515,-2.69,1.31,-45.88,-0.69,-0.69,36.44,0.03,0.15,-0.22,0.00,0.00,0.72
10525,-2.69,1.31,-46.19,-0.88,-0.94,35.38,0.03,0.15,-0.22,0.00,0.00,0.72
10536,-2.69,1.31,-46.56,-0.88,-0.75,33.81,-0.04,0.22,-0.21,0.00,0.00,0.71
10543,-2.69,1.31,-46.88,-1.31,-0.62,32.81,0.12,0.19,-0.23,0.00,0.00,0.71
10555,-2.69,1.31,-47.19,-1.56,-0.25,31.69,0.16,0.15,-0.26,0.00,0.00,0.71
10569,-2.69,1.31,-47.44,-1.50,-0.06,31.00,0.27,-0.05,-0.39,0.00,0.00,0.71
10580,-2.62,1.31,-48.06,-1.56,0.38,29.94,0.39,-0.16,-0.42,0.00,0.00,0.71
10592,-2.69,1.31,-48.31,-1.38,0.75,29.44,0.37,-0.20,-0.41,0.00,0.00,0.71
10603,-2.69,1.31,-48.62,-0.94,1.31,29.44,0.30,-0.25,-0.38,0.00,0.00,0.71
10614,-2.69,1.31,-48.94,-0.62,1.38,29.69,0.32,-0.35,-0.36,0.00,0.00,0.71
10645,-2.75,1.25,-49.81,0.81,1.31,30.69,0.35,-0.18,-0.34,0.00,0.00,0.71
10652,-2.75,1.25,-50.06,1.31,1.50,31.19,0.26,-0.07,-0.35,0.00,0.00,0.71
10659,-2.75,1.19,-50.38,1.81,1.44,31.62,0.17,-0.01,-0.35,0.00,0.00,0.71
10666,-2.75,1.19,-50.69,1.94,1.06,32.12,0.18,-0.01,-0.31,0.00,0.00,0.71
10674,-2.75,1.19,-50.69,2.12,0.88,32.44,0.04,-0.01,-0.26,0.00,0.00,0.72
10685,-2.75,1.12,-51.00,2.12,0.88,32.44,0.08,0.04,-0.24,0.00,0.00,0.71
10692,-2.81,1.12,-51.31,2.31,0.88,32.69,0.08,0.04,-0.24,0.00,0.00,0.71
10700,-2.81,1.06,-51.62,2.19,0.88,32.75,0.00,0.17,-0.21,0.00,0.00,0.72
10708,-2.81,1.00,-51.94,2.19,0.19,32.62,0.00,0.25,-0.23,0.00,0.00,0.71
10716,-2.81,1.00,-52.31,2.06,0.25,32.94,0.10,0.23,-0.29,0.00,0.00,0.72
10724,-2.81,1.00,-52.31,2.00,-0.12,32.94,0.13,0.19,-0.33,0.00,0.00,0.72
10734,-2.81,0.94,-52.62,2.00,-0.12,32.94,0.29,-0.03,-0.38,0.00,0.00,0.71
10741,-2.81,0.88,-52.94,1.50,-0.81,33.50,0.29,-0.03,-0.38,0.00,0.00,0.71
10750,-2.81,0.88,-53.25,1.31,-0.88,33.94,0.36,-0.10,-0.43,0.00,0.00,0.71
10783,-2.75,0.75,-54.31,1.81,-1.19,36.31,0.35,-0.13,-0.28,0.00,0.00,0.72
10791,-2.75,0.75,-54.62,1.75,-1.25,37.00,0.22,-0.12,-0.25,0.00,0.00,0.72
10799,-2.75,0.69,-55.00,1.94,-1.06,37.62,0.17,-0.14,-0.24,0.00,0.00,0.70
10806,-2.69,0.69,-55.38,2.00,-1.12,38.06,0.13,0.04,-0.16,0.00,0.00,0.72
10814,-2.69,0.69,-55.38,2.06,-1.62,38.56,0.13,0.08,-0.16,0.00,0.00,0.71
10823,-2.69,0.62,-55.75,2.06,-1.62,38.56,0.07,0.11,-0.11,0.00,0.00,0.70
10833,-2.69,0.62,-56.12,1.88,-1.50,38.81,0.18,0.03,-0.13,0.00,0.00,0.72
10840,-2.69,0.56,-56.50,1.81,-1.75,39.31,0.18,0.03,-0.13,0.00,0.00,0.72
10847,-2.62,0.56,-56.88,1.56,-2.12,39.50,0.24,0.12,-0.10,0.00,0.00,0.72
10854,-2.62,0.56,-56.88,1.56,-1.62,39.31,0.31,0.04,-0.07,0.00,0.00,0.71
10863,-2.62,0.50,-57.25,1.56,-1.62,39.31,0.26,0.11,-0.11,0.00,0.00,0.72
10873,-2.62,0.44,-57.62,1.12,-1.38,39.12,0.15,0.16,-0.07,0.00,0.00,0.72
10883,-2.56,0.44,-58.00,1.00,-1.38,38.38,-0.06,0.30,0.03,0.00,0.00,0.72
10891,-2.56,0.38,-58.38,0.88,-1.00,37.81,-0.06,0.30,0.03,0.00,0.00,0.72
10922,-2.56,0.31,-59.44,-0.06,-1.00,36.44,-0.01,-0.12,-0.17,0.00,0.00,0.72
10933,-2.56,0.31,-59.81,-0.31,-1.12,36.12,-0.01,-0.12,-0.17,0.00,0.00,0.72
10940,-2.56,0.31,-60.19,-0.31,-1.38,36.12,0.00,-0.23,-0.21,0.00,0.00,0.72
10947,-2.50,0.25,-60.50,-0.06,-1.25,35.94,-0.11,-0.28,-0.21,0.00,0.00,0.73
10954,-2.50,0.25,-60.88,0.12,-1.69,36.12,-0.20,-0.24,-0.24,0.00,0.00,0.72
10963,-2.50,0.25,-60.88,0.12,-1.69,36.12,-0.05,-0.33,-0.29,0.00,0.00,0.72
10972,-2.50,0.25,-61.19,0.25,-2.38,36.25,-0.01,-0.33,-0.34,0.00,0.00,0.73
10982,-2.50,0.25,-61.56,0.88,-2.62,36.06,-0.01,-0.33,-0.34,0.00,0.00,0.71
10989,-2.44,0.19,-61.94,1.12,-2.88,36.38,-0.08,-0.31,-0.35,0.00,0.00,0.72
10999,-2.44,0.19,-62.25,1.62,-3.56,36.81,-0.08,-0.30,-0.42,0.00,0.00,0.71
11006,-2.38,0.19,-62.62,2.06,-3.75,37.06,0.03,-0.34,-0.48,0.00,0.00,0.71
11016,-2.38,0.19,-63.00,2.31,-4.25,37.12,0.07,-0.36,-0.59,0.00,0.00,0.72
11024,-2.31,0.12,-63.31,2.81,-4.44,37.19,0.24,-0.35,-0.60,0.00,0.00,0.71
11053,-2.19,0.00,-64.38,3.81,-3.94,36.44,-0.04,-0.18,-0.39,0.00,0.00,0.72
11061,-2.19,0.00,-64.38,3.81,-3.94,36.44,-0.16,-0.11,-0.36,0.00,0.00,0.71
11071,-2.12,0.00,-64.75,4.06,-4.25,36.19,-0.16,-0.11,-0.36,0.00,0.00,0.73
11081,-2.12,-0.06,-65.12,4.31,-4.31,36.06,0.13,-0.12,-0.30,0.00,0.00,0.72
11088,-2.06,-0.06,-65.44,4.31,-4.62,35.94,0.13,-0.12,-0.30,0.00,0.00,0.72
11095,-2.00,-0.12,-65.81,4.06,-4.88,36.06,0.27,-0.10,-0.28,0.00,0.00,0.72
11103,-2.00,-0.12,-65.81,4.12,-4.50,35.94,0.31,-0.12,-0.30,0.00,0.00,0.71
11112,-1.94,-0.19,-66.12,4.12,-4.50,35.94,0.28,0.01,-0.18,0.00,0.00,0.72
11125,-1.94,-0.25,-66.50,3.94,-4.12,35.75,0.24,0.06,-0.13,0.00,0.00,0.72
11133,-1.81,-0.31,-67.19,3.81,-3.31,35.69,0.18,0.16,-0.07,0.00,0.00,0.72
11140,-1.81,-0.31,-67.19,3.81,-3.31,35.69,0.18,0.16,-0.07,0.00,0.00,0.71
11147,-1.81,-0.38,-67.50,3.19,-2.81,35.25,0.14,0.18,-0.02,0.00,0.00,0.71
11155,-1.81,-0.44,-67.88,3.19,-2.81,35.25,-0.01,0.21,0.07,0.00,0.00,0.72
11163,-1.81,-0.44,-67.88,2.62,-2.56,35.19,-0.14,0.24,0.09,0.00,0.00,0.71
11193,-1.69,-0.50,-69.19,0.19,-2.62,33.94,-0.07,0.21,0.08,0.00,0.00,0.72
11200,-1.69,-0.50,-69.19,0.19,-2.62,33.94,-0.07,0.21,0.08,0.00,0.00,0.71
11212,-1.62,-0.50,-69.56,0.19,-2.62,33.94,-0.04,0.17,0.02,0.00,0.00,0.72
11221,-1.62,-0.56,-69.88,-0.25,-2.50,33.81,-0.08,0.10,-0.05,0.00,0.00,0.72
11230,-1.56,-0.56,-70.19,-1.31,-2.50,33.50,-0.13,-0.02,-0.05,0.00,0.00,0.72
11238,-1.56,-0.56,-70.50,-1.56,-2.75,33.75,-0.13,-0.02,-0.05,0.00,0.00,0.72
11245,-1.50,-0.50,-70.81,-1.69,-2.88,33.69,-0.16,-0.07,-0.03,0.00,0.00,0.72
11252,-1.50,-0.50,-71.19,-1.69,-2.88,33.69,-0.13,-0.14,-0.12,0.00,0.00,0.72
11263,-1.50,-0.50,-71.19,-1.69,-2.88,33.69,-0.16,-0.13,-0.13,0.00,0.00,0.71
11271,-1.50,-0.50,-71.50,-1.62,-3.25,33.69,-0.11,-0.24,-0.18,0.00,0.00,0.72
11284,-1.44,-0.50,-71.81,-1.62,-3.25,33.69,-0.11,-0.26,-0.26,0.00,0.00,0.72
11291,-1.38,-0.44,-72.44,-1.44,-3.44,33.19,0.01,-0.30,-0.32,0.00,0.00,0.73
11303,-1.38,-0.44,-72.44,-1.44,-3.44,33.19,0.01,-0.30,-0.32,0.00,0.00,0.73
11314,-1.38,-0.44,-72.81,-1.00,-2.81,33.06,0.13,-0.25,-0.40,0.00,0.00,0.73
11343,-1.25,-0.44,-74.06,-0.62,-1.69,32.44,0.14,-0.16,-0.37,0.00,0.00,0.73
11352,-1.25,-0.44,-74.06,-0.75,-1.75,32.25,0.11,-0.23,-0.41,0.00,0.00,0.72
11360,-1.19,-0.38,-74.38,-0.75,-1.31,32.00,0.13,-0.25,-0.46,0.00,0.00,0.72
11371,-1.19,-0.38,-74.69,-0.75,-1.31,32.00,0.07,-0.25,-0.39,0.00,0.00,0.73
11380,-1.19,-0.38,-75.00,0.00,-0.88,31.31,-0.02,-0.19,-0.34,0.00,0.00,0.72
11391,-1.19,-0.38,-75.31,0.00,-0.88,31.31,-0.02,-0.19,-0.34,0.00,0.00,0.72
11399,-1.12,-0.38,-75.56,0.00,-0.75,30.94,-0.10,-0.25,-0.25,0.00,0.00,0.72
11410,-1.12,-0.38,-75.88,0.25,-0.81,30.62,-0.11,-0.19,-0.26,0.00,0.00,0.73
11419,-1.12,-0.38,-76.19,0.38,-0.94,30.25,-0.09,-0.21,-0.26,0.00,0.00,0.73
11433,-1.12,-0.38,-76.44,0.56,-0.69,29.75,-0.05,-0.20,-0.25,0.00,0.00,0.72
11440,-1.12,-0.38,-76.75,0.75,-0.38,29.25,0.00,-0.16,-0.23,0.00,0.00,0.73
11450,-1.12,-0.38,-77.00,0.75,-0.38,29.25,0.00,-0.16,-0.23,0.00,0.00,0.72
11459,-1.12,-0.38,-77.31,0.81,-0.38,28.94,0.04,-0.40,-0.24,0.00,0.00,0.73
11492,-1.12,-0.38,-78.12,1.19,0.06,28.31,0.07,-0.59,-0.28,0.00,0.00,0.73
11500,-1.12,-0.38,-78.44,1.75,0.12,27.75,0.02,-0.48,-0.22,0.00,0.00,0.73
11513,-1.12,-0.44,-78.69,1.75,0.12,27.75,0.08,-0.34,-0.20,0.00,0.00,0.72
11520,-1.12,-0.44,-79.19,2.25,0.56,27.38,0.04,-0.22,-0.17,0.00,0.00,0.73
11529,-1.12,-0.44,-79.19,2.25,0.56,27.38,0.11,-0.15,-0.10,0.00,0.00,0.73
11537,-1.12,-0.50,-79.50,2.19,0.75,27.12,0.11,-0.15,-0.10,0.00,0.00,0.73
11545,-1.12,-0.50,-79.75,1.94,1.00,27.19,0.23,0.22,0.09,0.00,0.00,0.73
11554,-1.12,-0.50,-80.00,1.19,1.38,27.25,0.42,0.21,0.13,0.00,0.00,0.72
11562,-1.12,-0.50,-80.25,0.38,1.81,27.25,0.53,0.26,0.15,0.00,0.00,0.72
11570,-1.12,-0.50,-80.25,-0.31,3.00,27.50,0.62,0.29,0.13,0.00,0.00,0.73
11578,-1.19,-0.50,-80.56,-0.31,3.00,27.50,0.75,0.15,0.00,0.00,0.00,0.74
11587,-1.19,-0.50,-80.81,-1.19,3.69,27.81,0.75,0.15,0.00,0.00,0.00,0.72
11594,-1.25,-0.50,-81.06,-2.00,4.56,28.31,0.74,0.03,-0.08,0.00,0.00,0.73
11604,-1.31,-0.50,-81.38,-2.19,5.56,28.69,0.68,-0.01,-0.17,0.00,0.00,0.75
11634,-1.50,-0.44,-82.19,-2.38,7.75,29.81,0.66,-0.31,-0.54,0.00,0.00,0.75
11644,-1.56,-0.44,-82.50,-2.25,8.50,30.38,0.51,-0.31,-0.59,0.00,0.00,0.73
11652,-1.69,-0.44,-82.81,-2.19,8.88,30.81,0.30,-0.33,-0.58,0.00,0.00,0.72
11663,-1.75,-0.38,-83.12,-1.94,8.56,31.31,-0.04,-0.26,-0.54,0.00,0.00,0.74
11675,-1.81,-0.38,-83.44,-1.94,8.19,31.50,-0.20,-0.20,-0.53,0.00,0.00,0.75
11686,-1.88,-0.38,-83.75,-1.88,7.56,31.69,-0.29,-0.16,-0.48,0.00,0.00,0.73
11698,-1.94,-0.38,-84.06,-2.00,6.50,31.62,-0.33,-0.11,-0.42,0.00,0.00,0.73
11707,-2.00,-0.38,-84.31,-2.12,5.88,31.19,-0.43,0.00,-0.18,0.00,0.00,0.74
11718,-2.06,-0.38,-84.62,-2.50,5.06,30.75,-0.43,0.00,-0.18,0.00,0.00,0.73
11727,-2.12,-0.31,-84.94,-2.62,4.25,29.94,-0.20,0.00,0.02,0.00,0.00,0.74
11735,-2.12,-0.31,-85.19,-3.06,3.81,29.12,-0.20,0.00,0.02,0.00,0.00,0.74
11742,-2.19,-0.31,-85.50,-3.25,3.69,28.44,-0.11,-0.11,0.06,0.00,0.00,0.74
11750,-2.19,-0.25,-85.75,-3.31,3.25,27.81,-0.28,0.00,0.10,0.00,0.00,0.74
11758,-2.19,-0.25,-85.75,-3.69,2.62,27.19,-0.07,-0.27,0.02,0.00,0.00,0.74
11799,-2.31,-0.19,-87.06,-2.56,2.25,27.44,0.23,-0.36,-0.29,0.00,0.00,0.75
11808,-2.31,-0.19,-87.06,-2.06,2.06,28.12,0.24,-0.38,-0.31,0.00,0.00,0.74
11818,-2.31,-0.19,-87.31,-2.06,2.06,28.12,0.27,-0.30,-0.31,0.00,0.00,0.73
11827,-2.38,-0.19,-87.62,-1.44,1.94,29.00,0.33,-0.34,-0.36,0.00,0.00,0.73
11838,-2.38,-0.19,-87.88,-1.44,1.94,29.00,0.33,-0.34,-0.36,0.00,0.00,0.73
11846,-2.38,-0.12,-88.19,-1.31,1.81,29.19,0.27,-0.33,-0.36,0.00,0.00,0.73
11859,-2.38,-0.12,-88.44,-0.88,1.94,29.31,0.16,-0.30,-0.37,0.00,0.00,0.74
11871,-2.38,-0.06,-88.75,-0.38,1.69,29.25,0.14,-0.28,-0.37,0.00,0.00,0.73
11878,-2.38,-0.06,-89.31,0.00,1.69,28.94,0.20,-0.39,-0.39,0.00,0.00,0.74
11888,-2.38,-0.06,-89.31,0.00,1.69,28.94,0.20,-0.39,-0.39,0.00,0.00,0.73
11896,-2.38,-0.06,-89.56,0.44,2.06,28.50,0.33,-0.37,-0.43,0.00,0.00,0.73
11907,-2.38,-0.06,-89.88,0.94,2.38,27.81,0.33,-0.32,-0.41,0.00,0.00,0.73
11916,-2.38,0.00,-90.12,1.25,2.56,27.62,0.26,-0.24,-0.34,0.00,0.00,0.73
11928,-2.38,0.00,-90.38,1.44,2.56,27.50,0.27,-0.25,-0.33,0.00,0.00,0.74
11958,-2.38,-0.06,-91.50,2.25,2.44,29.56,0.42,-0.29,-0.34,0.00,0.00,0.73
11969,-2.38,-0.06,-91.50,2.56,2.75,30.25,0.35,-0.20,-0.28,0.00,0.00,0.73
11977,-2.38,-0.06,-91.81,2.44,2.94,31.25,0.33,-0.13,-0.24,0.00,0.00,0.74
11984,-2.38,-0.06,-92.06,2.44,2.94,31.25,0.33,-0.13,-0.24,0.00,0.00,0.74
11991,-2.38,-0.12,-92.38,2.44,3.00,32.00,0.31,-0.12,-0.18,0.00,0.00,0.73
11998,-2.38,-0.12,-92.69,2.44,2.94,32.62,0.25,-0.07,-0.14,0.00,0.00,0.74
12006,-2.38,-0.12,-92.69,2.12,2.75,33.00,0.39,0.00,-0.22,0.00,0.00,0.74
12017,-2.38,-0.19,-93.00,2.12,2.75,33.00,0.39,-0.03,-0.24,0.00,0.00,0.74
12026,-2.38,-0.19,-93.38,1.94,3.25,33.25,0.37,0.02,-0.27,0.00,0.00,0.75
12035,-2.44,-0.25,-93.69,1.69,3.12,33.25,0.37,0.02,-0.27,0.00,0.00,0.74
12043,-2.44,-0.25,-94.00,1.50,3.25,32.88,0.34,0.14,-0.27,0.00,0.00,0.74
12051,-2.44,-0.31,-94.31,1.25,3.88,32.44,0.39,0.06,-0.34,0.00,0.00,0.74
12059,-2.44,-0.31,-94.62,0.62,4.25,31.62,0.43,0.08,-0.34,0.00,0.00,0.74
12089,-2.50,-0.38,-95.50,-0.69,5.19,29.69,0.08,0.13,-0.31,0.00,0.00,0.74
12096,-2.50,-0.38,-95.50,-0.94,5.19,29.31,0.06,0.11,-0.32,0.00,0.00,0.73
12109,-2.56,-0.38,-95.75,-0.94,5.19,29.31,0.00,0.13,-0.31,0.00,0.00,0.74
12116,-2.62,-0.38,-96.38,-1.88,4.44,29.44,-0.03,0.06,-0.31,0.00,0.00,0.76
12127,-2.62,-0.38,-96.38,-1.88,4.44,29.44,0.01,0.01,-0.35,0.00,0.00,0.75
12134,-2.69,-0.38,-96.62,-2.19,4.06,29.50,0.01,0.01,-0.35,0.00,0.00,0.75
12143,-2.75,-0.38,-96.94,-2.50,3.44,29.94,0.00,-0.11,-0.37,0.00,0.00,0.74
12153,-2.75,-0.31,-97.19,-2.75,2.69,30.25,-0.01,-0.18,-0.33,0.00,0.00,0.73
12165,-2.75,-0.31,-97.50,-2.88,2.69,30.44,0.00,-0.20,-0.34,0.00,0.00,0.73
12174,-2.81,-0.31,-97.81,-2.94,2.06,30.75,0.00,-0.12,-0.24,0.00,0.00,0.74
12184,-2.81,-0.25,-98.12,-2.94,1.44,30.88,0.00,-0.12,-0.24,0.00,0.00,0.76
12191,-2.81,-0.25,-98.44,-2.88,1.44,30.88,0.09,-0.27,-0.24,0.00,0.00,0.73
12200,-2.81,-0.25,-98.69,-2.88,1.06,30.88,0.00,-0.35,-0.18,0.00,0.00,0.75
12207,-2.81,-0.19,-99.00,-2.50,0.88,30.81,0.09,-0.48,-0.27,0.00,0.00,0.76
12242,-2.81,-0.19,-99.94,-1.69,0.19,31.06,0.16,-0.36,-0.24,0.00,0.00,0.75
12253,-2.81,-0.19,-100.19,-1.25,0.12,30.88,0.06,-0.21,-0.23,0.00,0.00,0.74
12263,-2.81,-0.19,-100.50,-1.06,-0.06,30.81,0.03,-0.12,-0.26,0.00,0.00,0.75
12273,-2.81,-0.19,-100.81,-1.12,-0.19,30.50,-0.03,-0.08,-0.24,0.00,0.00,0.74
12280,-2.81,-0.19,-101.12,-1.31,-0.50,30.25,0.02,-0.06,-0.25,0.00,0.00,0.74
12287,-2.81,-0.19,-101.38,-1.38,-0.69,30.00,-0.04,-0.01,-0.25,0.00,0.00,0.73
12295,-2.81,-0.19,-101.38,-1.50,-1.12,29.75,-0.15,0.06,-0.19,0.00,0.00,0.74
12304,-2.81,-0.19,-101.69,-1.50,-1.12,29.75,-0.18,0.02,-0.20,0.00,0.00,0.75
12313,-2.81,-0.19,-101.94,-1.69,-1.12,29.38,0.00,-0.01,-0.26,0.00,0.00,0.74
12323,-2.75,-0.19,-102.25,-1.81,-1.81,29.38,0.00,-0.01,-0.26,0.00,0.00,0.74
12330,-2.75,-0.12,-102.56,-2.12,-2.31,29.19,0.01,-0.08,-0.25,0.00,0.00,0.75
12341,-2.69,-0.12,-102.81,-2.19,-2.50,29.19,0.05,-0.02,-0.27,0.00,0.00,0.74
12348,-2.69,-0.12,-103.12,-2.12,-2.50,29.38,0.04,-0.12,-0.31,0.00,0.00,0.73
12381,-2.62,-0.12,-104.00,-2.38,-3.25,30.50,0.21,-0.13,-0.30,0.00,0.00,0.73
12388,-2.56,-0.06,-104.25,-2.31,-3.19,30.75,0.18,-0.11,-0.24,0.00,0.00,0.75
12399,-2.50,-0.06,-104.56,-2.19,-3.31,31.25,0.15,-0.11,-0.20,0.00,0.00,0.73
12407,-2.50,-0.06,-104.88,-2.12,-3.44,31.44,0.12,-0.02,-0.22,0.00,0.00,0.73
12417,-2.44,-0.06,-105.19,-2.12,-3.56,31.62,0.16,-0.09,-0.25,0.00,0.00,0.74
12425,-2.38,-0.06,-105.50,-2.19,-3.25,31.69,0.27,-0.07,-0.22,0.00,0.00,0.73
12434,-2.38,-0.06,-105.50,-2.19,-3.25,31.69,0.27,-0.07,-0.22,0.00,0.00,0.72
12442,-2.38,-0.06,-105.81,-2.25,-2.94,31.81,0.24,-0.10,-0.23,0.00,0.00,0.73
12453,-2.31,0.00,-106.12,-1.94,-2.81,31.94,0.18,-0.13,-0.25,0.00,0.00,0.74
12462,-2.31,0.00,-106.44,-1.75,-2.94,31.94,0.14,-0.14,-0.23,0.00,0.00,0.75
12474,-2.25,0.00,-106.75,-1.75,-2.62,31.62,0.14,-0.14,-0.23,0.00,0.00,0.72
12482,-2.25,0.00,-107.06,-1.56,-2.50,31.62,0.17,-0.11,-0.21,0.00,0.00,0.72
12489,-2.19,0.00,-107.31,-1.62,-2.38,31.50,0.20,-0.16,-0.21,0.00,0.00,0.73
12496,-2.19,0.00,-107.62,-1.38,-2.06,31.12,0.16,-0.16,-0.24,0.00,0.00,0.74
12530,-2.12,0.00,-108.56,-0.56,-1.81,30.31,0.04,-0.12,-0.23,0.00,0.00,0.73
12540,-2.12,0.00,-108.81,-0.44,-1.69,30.19,0.04,-0.19,-0.24,0.00,0.00,0.73
12547,-2.06,0.00,-109.12,-0.19,-1.75,29.81,0.07,-0.22,-0.22,0.00,0.00,0.72
12557,-2.06,0.00,-109.38,0.12,-1.56,29.62,0.11,-0.27,-0.24,0.00,0.00,0.73
12564,-2.06,0.00,-109.69,0.19,-1.50,29.31,0.19,-0.23,-0.18,0.00,0.00,0.73
12577,-2.06,0.00,-109.69,0.25,-1.00,29.06,0.19,-0.17,-0.17,0.00,0.00,0.74
12584,-2.00,0.00,-110.25,0.31,-0.81,28.94,0.18,0.11,-0.13,0.00,0.00,0.74
12594,-2.00,0.00,-110.25,0.31,-0.81,28.94,0.18,0.11,-0.13,0.00,0.00,0.75
12602,-2.00,0.00,-110.50,0.12,-0.31,28.88,0.13,0.19,-0.09,0.00,0.00,0.73
12612,-2.00,0.00,-110.81,0.12,-0.31,28.88,0.12,0.20,-0.03,0.00,0.00,0.73
12621,-2.00,0.00,-111.06,-0.25,-0.38,29.00,0.12,0.20,0.00,0.00,0.00,0.74
12628,-2.00,0.00,-111.38,-0.62,-0.06,28.69,0.12,0.20,0.00,0.00,0.00,0.73
12637,-2.00,0.00,-111.62,-0.94,0.38,28.69,0.06,0.18,0.01,0.00,0.00,0.74
12644,-2.00,-0.06,-111.94,-1.31,0.31,28.38,0.05,0.22,0.03,0.00,0.00,0.73
12676,-2.00,0.00,-112.75,-2.00,0.06,28.00,-0.22,-0.03,0.01,0.00,0.00,0.75
12683,-2.00,0.00,-113.00,-2.31,-0.38,28.06,-0.22,-0.08,0.03,0.00,0.00,0.75
12694,-2.00,0.00,-113.00,-2.31,-0.38,28.06,-0.22,-0.08,0.03,0.00,0.00,0.73
12702,-2.00,0.00,-113.25,-2.25,-0.81,28.06,-0.09,-0.23,-0.05,0.00,0.00,0.73
12716,-2.00,0.00,-113.56,-2.25,-0.81,28.06,-0.01,-0.31,-0.09,0.00,0.00,0.74
12723,-2.00,0.00,-114.06,-1.88,-0.62,27.50,0.00,-0.31,-0.10,0.00,0.00,0.75
12730,-2.00,0.00,-114.06,-1.88,-0.62,27.50,0.00,-0.27,-0.20,0.00,0.00,0.73
12742,-1.94,0.00,-114.38,-1.69,-0.81,27.31,0.00,-0.27,-0.20,0.00,0.00,0.75
12751,-1.94,0.00,-114.62,-1.31,-0.56,26.81,0.05,-0.26,-0.30,0.00,0.00,0.73
12760,-1.94,0.00,-114.88,-1.31,-0.38,26.50,0.14,-0.27,-0.28,0.00,0.00,0.75
12770,-1.94,0.06,-115.12,-1.25,-0.38,26.31,0.14,-0.27,-0.28,0.00,0.00,0.73
12777,-1.94,0.06,-115.38,-1.06,-0.38,25.88,0.04,-0.22,-0.35,0.00,0.00,0.73
12784,-1.94,0.06,-115.62,-0.94,-0.31,25.50,0.08,-0.20,-0.35,0.00,0.00,0.74
12816,-1.94,0.06,-116.38,-0.88,-0.62,25.69,-0.12,-0.17,-0.34,0.00,0.00,0.74
12824,-1.94,0.12,-116.62,-0.88,-1.00,26.00,-0.23,-0.07,-0.33,0.00,0.00,0.75
12833,-1.94,0.12,-116.62,-1.00,-1.75,26.19,-0.26,-0.05,-0.31,0.00,0.00,0.75
12841,-1.94,0.12,-116.88,-1.38,-2.25,26.25,-0.31,-0.09,-0.34,0.00,0.00,0.75
12850,-1.88,0.12,-117.12,-1.38,-2.25,26.25,-0.24,-0.27,-0.38,0.00,0.00,0.75
12860,-1.88,0.12,-117.38,-1.44,-3.12,26.06,-0.30,-0.25,-0.33,0.00,0.00,0.75
12869,-1.81,0.12,-117.62,-1.50,-3.44,25.88,-0.30,-0.25,-0.33,0.00,0.00,0.76
12876,-1.81,0.12,-117.88,-1.31,-3.62,25.12,-0.23,-0.33,-0.23,0.00,0.00,0.73
12885,-1.81,0.19,-118.12,-1.50,-4.31,24.44,-0.20,-0.23,-0.11,0.00,0.00,0.75
12893,-1.75,0.19,-118.31,-1.56,-4.62,23.81,0.02,-0.10,-0.05,0.00,0.00,0.73
12904,-1.75,0.19,-118.31,-1.88,-4.31,23.00,0.06,-0.10,0.02,0.00,0.00,0.74
12911,-1.69,0.19,-118.81,-1.94,-3.94,22.50,0.02,-0.04,0.14,0.00,0.00,0.74
12924,-1.69,0.19,-118.81,-1.94,-3.94,22.50,0.22,-0.14,0.11,0.00,0.00,0.74
12956,-1.56,0.25,-119.62,-2.31,-1.88,21.06,0.63,-0.31,-0.23,0.00,0.00,0.74
12966,-1.56,0.31,-119.81,-2.38,-1.25,20.69,0.65,-0.61,-0.30,0.00,0.00,0.75
12973,-1.56,0.31,-120.00,-2.06,-0.25,20.69,0.45,-0.59,-0.27,0.00,0.00,0.75
12984,-1.56,0.31,-120.00,-1.75,0.75,20.62,0.46,-0.65,-0.26,0.00,0.00,0.75
12993,-1.56,0.31,-120.44,-1.19,1.62,20.62,0.59,-0.73,-0.35,0.00,0.00,0.76
13001,-1.62,0.31,-120.62,-0.75,2.25,20.56,0.59,-0.72,-0.44,0.00,0.00,0.76
13012,-1.62,0.31,-120.62,-0.75,2.25,20.56,0.52,-0.70,-0.46,0.00,0.00,0.76
13020,-1.62,0.31,-120.81,-0.25,3.50,20.31,0.32,-0.62,-0.41,0.00,0.00,0.76
13032,-1.69,0.31,-121.00,-0.25,3.50,20.31,0.32,-0.62,-0.41,0.00,0.00,0.76
13040,-1.69,0.38,-121.19,0.44,4.19,20.00,0.15,-0.36,-0.37,0.00,0.00,0.77
13049,-1.69,0.38,-121.38,0.75,4.50,19.88,0.16,-0.30,-0.35,0.00,0.00,0.76
13059,-1.75,0.38,-121.56,0.81,4.81,19.44,0.07,-0.30,-0.35,0.00,0.00,0.77
13069,-1.81,0.38,-121.75,0.88,4.94,18.94,0.00,-0.29,-0.34,0.00,0.00,0.76
13077,-1.88,0.38,-121.94,0.69,5.00,18.25,0.00,-0.29,-0.34,0.00,0.00,0.76
13108,-2.00,0.31,-122.44,0.12,4.81,16.00,-0.05,-0.13,-0.29,0.00,0.00,0.76
13119,-2.06,0.31,-122.56,-0.12,4.94,15.44,0.00,-0.14,-0.28,0.00,0.00,0.77
13127,-2.12,0.31,-122.75,-0.31,4.56,14.62,0.00,-0.14,-0.28,0.00,0.00,0.76
13135,-2.12,0.31,-122.88,-0.56,4.56,14.12,0.01,-0.19,-0.31,0.00,0.00,0.76
13142,-2.19,0.31,-123.00,-0.94,4.25,13.50,-0.02,-0.21,-0.27,0.00,0.00,0.75
13153,-2.25,0.38,-123.12,-1.31,4.12,13.31,0.02,-0.25,-0.28,0.00,0.00,0.76
13160,-2.25,0.38,-123.25,-1.44,3.94,13.12,0.14,-0.42,-0.20,0.00,0.00,0.76
13172,-2.25,0.38,-123.25,-1.56,4.25,12.94,0.17,-0.44,-0.19,0.00,0.00,0.76
13179,-2.31,0.44,-123.50,-1.31,4.19,13.44,0.25,-0.57,-0.20,0.00,0.00,0.75
13191,-2.31,0.44,-123.50,-1.31,4.19,13.44,0.25,-0.57,-0.20,0.00,0.00,0.75
13203,-2.38,0.44,-123.62,-0.62,3.44,14.94,0.19,-0.73,-0.28,0.00,0.00,0.76
13212,-2.44,0.44,-123.94,-0.62,3.56,15.75,0.32,-0.72,-0.31,0.00,0.00,0.76
13219,-2.50,0.44,-124.12,0.00,3.31,16.81,0.45,-0.75,-0.35,0.00,0.00,0.76
13227,-2.50,0.44,-124.12,0.00,3.31,16.81,0.45,-0.75,-0.35,0.00,0.00,0.75
13258,-2.50,0.50,-124.62,1.69,3.56,19.62,0.34,-0.62,-0.41,0.00,0.00,0.77
13267,-2.44,0.62,-124.81,2.31,3.75,20.62,0.25,-0.38,-0.27,0.00,0.00,0.77
13275,-2.44,0.69,-125.06,2.56,3.62,21.44,0.25,-0.38,-0.27,0.00,0.00,0.76
13283,-2.50,0.62,-125.25,2.38,3.50,22.25,0.17,-0.24,-0.24,0.00,0.00,0.76
13292,-2.50,0.62,-125.50,2.44,3.31,22.69,0.12,-0.16,-0.21,0.00,0.00,0.76
13300,-2.56,0.56,-125.69,2.12,3.06,23.44,0.18,-0.12,-0.23,0.00,0.00,0.77
13311,-2.56,0.56,-125.69,1.75,3.12,23.38,0.17,0.01,-0.22,0.00,0.00,0.76
13319,-2.56,0.56,-125.94,1.31,3.19,23.38,0.20,0.02,-0.23,0.00,0.00,0.76
13329,-2.62,0.56,-126.12,1.31,3.19,23.38,0.20,0.02,-0.23,0.00,0.00,0.77
13336,-2.62,0.50,-126.38,0.62,2.94,23.56,0.13,0.05,-0.24,0.00,0.00,0.75
13348,-2.69,0.50,-126.62,0.25,2.56,23.88,0.13,0.05,-0.24,0.00,0.00,0.77
13357,-2.69,0.50,-126.81,-0.38,2.19,24.19,0.20,-0.18,-0.33,0.00,0.00,0.75
13367,-2.75,0.50,-127.06,-0.88,2.12,24.62,0.14,-0.18,-0.28,0.00,0.00,0.74
13374,-2.75,0.50,-127.31,-1.38,2.00,24.75,0.14,-0.18,-0.28,0.00,0.00,0.72
13406,-2.81,0.56,-128.06,-2.12,1.44,25.12,0.02,-0.18,-0.21,0.00,0.00,0.73
13416,-2.81,0.56,-128.31,-2.25,1.19,25.31,0.04,-0.17,-0.18,0.00,0.00,0.72
13424,-2.81,0.56,-128.56,-2.62,0.44,25.88,0.04,-0.25,-0.23,0.00,0.00,0.71
13432,-2.81,0.62,-128.81,-2.62,0.12,26.75,0.03,-0.30,-0.30,0.00,0.00,0.72
13441,-2.81,0.62,-129.06,-2.69,-0.62,27.50,0.03,-0.20,-0.32,0.00,0.00,0.74
13448,-2.81,0.69,-129.38,-2.56,-1.00,28.38,0.10,-0.26,-0.34,0.00,0.00,0.73
13459,-2.81,0.69,-129.38,-2.56,-1.38,29.00,0.05,-0.24,-0.38,0.00,0.00,0.77
13467,-2.75,0.69,-129.62,-2.44,-1.56,29.94,-0.08,-0.14,-0.21,0.00,0.00,0.74
13475,-2.75,0.69,-129.94,-2.44,-1.56,29.94,-0.08,-0.14,-0.21,0.00,0.00,0.76
13483,-2.75,0.69,-130.19,-2.44,-2.12,30.62,-0.15,-0.07,-0.13,0.00,0.00,0.77
13491,-2.75,0.75,-130.50,-2.44,-3.19,31.75,-0.14,0.00,-0.03,0.00,0.00,0.77
13499,-2.69,0.75,-130.88,-2.69,-3.75,32.81,-0.20,0.16,0.00,0.00,0.00,0.77
13507,-2.69,0.75,-130.88,-2.94,-4.62,33.69,0.12,0.09,-0.05,0.00,0.00,0.77
13537,-2.56,0.81,-131.88,-3.38,-4.88,35.75,0.26,-0.02,-0.32,0.00,0.00,0.78
13548,-2.50,0.81,-132.19,-3.38,-4.88,35.75,0.29,-0.07,-0.36,0.00,0.00,0.77
13556,-2.50,0.81,-132.56,-3.50,-4.50,36.31,0.24,-0.09,-0.38,0.00,0.00,0.78
13568,-2.44,0.81,-132.88,-3.50,-4.50,36.31,0.20,-0.13,-0.35,0.00,0.00,0.77
13576,-2.38,0.88,-133.25,-3.19,-4.25,35.88,0.12,-0.12,-0.36,0.00,0.00,0.77
13585,-2.38,0.88,-133.62,-2.88,-4.06,35.75,0.12,-0.12,-0.36,0.00,0.00,0.78
13593,-2.31,0.88,-133.94,-2.75,-4.06,35.06,0.19,-0.22,-0.36,0.00,0.00,0.76
13604,-2.31,0.94,-134.25,-2.50,-3.94,34.38,0.14,-0.26,-0.36,0.00,0.00,0.77
13615,-2.25,0.94,-134.62,-2.25,-3.38,34.12,0.19,-0.27,-0.35,0.00,0.00,0.78
13625,-2.19,0.94,-134.94,-1.69,-3.00,34.06,0.28,-0.40,-0.30,0.00,0.00,0.77
13632,-2.19,1.00,-135.25,-1.19,-2.75,34.19,0.22,-0.35,-0.27,0.00,0.00,0.77
13641,-2.12,1.00,-135.62,-0.75,-2.88,34.56,0.25,-0.32,-0.22,0.00,0.00,0.77
13648,-2.12,1.00,-135.94,-0.25,-2.81,35.12,0.31,-0.44,-0.21,0.00,0.00,0.77
13658,-2.12,1.00,-135.94,0.50,-2.56,35.75,0.22,-0.27,-0.19,0.00,0.00,0.77
13688,-2.00,1.00,-137.38,1.75,-1.88,37.50,0.33,-0.12,-0.26,0.00,0.00,0.77
13699,-2.00,1.00,-137.38,2.50,-1.62,38.00,0.27,0.02,-0.30,0.00,0.00,0.77
13706,-1.94,0.88,-138.12,2.38,-1.44,38.56,0.31,-0.02,-0.29,0.00,0.00,0.76
13718,-1.94,0.88,-138.12,2.38,-1.44,38.56,0.21,0.06,-0.29,0.00,0.00,0.79
13726,-1.94,0.88,-138.50,2.69,-0.50,38.81,0.24,0.04,-0.30,0.00,0.00,0.77
13736,-1.94,0.81,-138.88,2.69,-0.50,38.81,0.24,0.04,-0.30,0.00,0.00,0.77
13745,-1.94,0.81,-139.19,2.50,-0.31,38.38,-0.04,0.33,-0.26,0.00,0.00,0.76
13756,-2.00,0.75,-139.56,2.38,0.12,37.88,-0.11,0.40,-0.18,0.00,0.00,0.77
13765,-2.00,0.69,-139.94,2.00,0.31,37.25,-0.24,0.65,-0.11,0.00,0.00,0.77
13774,-2.00,0.69,-140.31,1.50,0.06,36.38,-0.24,0.65,-0.11,0.00,0.00,0.77
13781,-2.00,0.69,-140.62,0.69,0.00,35.31,-0.09,0.54,-0.17,0.00,0.00,0.77
13790,-2.00,0.69,-141.00,-0.12,0.06,34.38,0.02,0.47,-0.22,0.00,0.00,0.76
13799,-2.00,0.62,-141.31,-0.75,0.19,33.12,0.15,0.42,-0.31,0.00,0.00,0.77
13830,-2.00,0.69,-142.31,-2.88,0.31,44.25,-0.69,0.93,-0.15,0.00,0.00,0.76
13839,-2.06,0.69,-143.00,-4.88,-0.19,69.44,-0.40,0.07,-0.49,0.00,0.00,0.76
13850,-2.06,0.69,-143.31,-2.56,1.12,32.25,-0.10,0.35,-0.31,0.00,0.00,0.79
13859,-2.06,0.75,-143.62,-2.88,1.19,32.31,0.06,0.15,-0.32,0.00,0.00,0.79
13869,-2.06,0.75,-143.94,-3.19,0.94,32.12,-0.08,0.12,-0.27,0.00,0.00,0.78
13876,-2.06,0.75,-144.25,-3.06,0.50,32.44,-0.11,-0.05,-0.35,0.00,0.00,0.79
13887,-2.06,0.75,-144.25,-3.06,0.50,32.44,-0.15,-0.11,-0.39,0.00,0.00,0.80
13895,-2.06,0.81,-144.94,-2.44,0.00,34.12,-0.04,-0.24,-0.38,0.00,0.00,0.78
13907,-2.06,0.81,-144.94,-2.44,0.00,34.12,-0.09,-0.13,-0.38,0.00,0.00,0.78
13915,-2.06,0.81,-145.62,-1.38,-1.00,35.69,0.04,-0.14,-0.39,0.00,0.00,0.78
13926,-2.06,0.81,-145.62,-1.38,-1.00,35.69,0.04,-0.14,-0.39,0.00,0.00,0.79
13938,-2.06,0.81,-145.94,-0.06,-1.19,36.31,0.23,-0.03,-0.38,0.00,0.00,0.79
13945,-2.06,0.75,-146.69,0.31,-0.94,36.44,0.09,0.11,-0.31,0.00,0.00,0.79
13953,-2.06,0.75,-146.69,0.69,-0.75,37.06,0.08,0.05,-0.28,0.00,0.00,0.80
13983,-2.06,0.69,-147.75,1.38,-0.81,37.19,0.14,-0.10,-0.31,0.00,0.00,0.78
13996,-2.06,0.69,-148.12,1.94,-0.38,37.00,0.02,-0.20,-0.37,0.00,0.00,0.80
14003,-2.06,0.62,-148.44,3.06,-0.12,35.38,-0.15,-0.08,-0.33,0.00,0.00,0.79
14013,-2.06,0.62,-148.81,3.06,-0.12,35.38,-0.35,0.02,-0.22,0.00,0.00,0.79
14022,-2.06,0.56,-149.12,3.38,-0.19,34.25,-0.35,0.02,-0.22,0.00,0.00,0.79
14029,-2.06,0.50,-149.44,3.56,-0.62,33.44,-0.44,0.18,-0.14,0.00,0.00,0.80
14039,-2.06,0.44,-149.75,3.75,-1.00,32.75,-0.47,0.24,-0.14,0.00,0.00,0.80
14048,-2.06,0.44,-150.06,3.69,-1.56,31.94,-0.44,0.30,-0.11,0.00,0.00,0.80
14059,-2.00,0.38,-150.38,3.19,-2.50,31.19,-0.30,0.31,-0.12,0.00,0.00,0.80
14067,-2.00,0.31,-150.69,2.88,-2.94,30.56,-0.20,0.32,-0.09,0.00,0.00,0.80
14078,-1.94,0.31,-150.94,2.62,-3.19,29.88,-0.01,0.19,-0.13,0.00,0.00,0.79
14090,-1.94,0.25,-151.25,2.31,-3.25,28.81,0.02,0.20,-0.06,0.00,0.00,0.81
14104,-1.94,0.25,-151.50,2.00,-2.75,28.06,0.08,0.22,-0.04,0.00,0.00,0.79
14112,-1.88,0.19,-151.75,1.44,-2.44,26.31,0.24,0.31,0.03,0.00,0.00,0.79
14143,-1.81,0.19,-152.50,-0.06,-1.06,24.94,0.34,0.22,-0.02,0.00,0.00,0.81
14153,-1.81,0.12,-152.75,-0.06,-1.06,24.94,0.42,0.06,-0.02,0.00,0.00,0.79
14162,-1.81,0.12,-153.00,-0.44,-0.44,24.81,0.49,-0.04,-0.10,0.00,0.00,0.79
14170,-1.81,0.12,-153.25,-0.56,0.00,24.56,0.49,-0.04,-0.10,0.00,0.00,0.80
14179,-1.81,0.12,-153.50,-0.56,0.75,24.75,0.57,-0.20,-0.16,0.00,0.00,0.81
14187,-1.81,0.12,-153.75,-0.56,1.25,24.75,0.47,-0.27,-0.20,0.00,0.00,0.80
14195,-1.88,0.12,-153.94,-0.69,1.31,25.06,0.38,-0.24,-0.29,0.00,0.00,0.80
14202,-1.88,0.12,-153.94,-0.50,1.88,25.06,0.33,-0.23,-0.28,0.00,0.00,0.80
14212,-1.88,0.12,-154.19,-0.50,1.88,25.06,0.33,-0.28,-0.31,0.00,0.00,0.79
14220,-1.88,0.12,-154.44,-0.19,2.44,25.44,0.33,-0.28,-0.31,0.00,0.00,0.79
14227,-1.94,0.12,-154.69,-0.12,2.69,25.62,0.25,-0.28,-0.35,0.00,0.00,0.80
14235,-1.94,0.06,-154.94,0.06,2.56,25.25,0.00,-0.08,-0.31,0.00,0.00,0.79
14242,-1.94,0.06,-154.94,0.12,3.06,25.44,-0.02,0.06,-0.27,0.00,0.00,0.79
14274,-2.00,0.06,-155.69,-0.56,2.38,25.25,0.20,-0.33,-0.35,0.00,0.00,0.79
14281,-2.06,0.06,-155.94,-0.56,2.38,25.25,0.21,-0.49,-0.38,0.00,0.00,0.80
14294,-2.06,0.06,-156.19,-0.31,2.44,25.38,0.23,-0.58,-0.45,0.00,0.00,0.79
14302,-2.12,0.06,-156.44,0.12,2.56,25.25,0.07,-0.52,-0.45,0.00,0.00,0.79
14314,-2.12,0.00,-156.69,0.12,2.56,25.25,3.23,0.01,-0.05,0.00,0.00,0.79
14322,-2.19,0.00,-156.75,3.00,1.38,-10.88,-0.52,-0.20,-0.24,0.00,0.00,0.79
14333,-2.19,0.00,-156.75,3.00,1.38,-10.88,-0.52,-0.20,-0.24,0.00,0.00,0.79
14341,-2.19,0.00,-157.00,0.00,0.88,14.88,0.58,-0.11,-0.20,0.00,0.00,0.79
14355,-2.19,0.00,-157.12,0.00,0.88,14.88,-0.14,-0.18,-0.09,0.00,0.00,0.79
14363,-2.19,0.00,-157.56,-0.94,-0.19,24.56,-0.29,0.07,0.00,0.00,0.00,0.81
14370,-2.19,0.00,-157.56,-0.94,-0.19,24.56,-0.23,0.00,0.00,0.00,0.00,0.80
14379,-2.19,0.00,-157.81,-1.44,-0.81,24.00,-0.23,0.00,0.00,0.00,0.00,0.80
14389,-2.19,0.00,-158.06,-2.06,-1.19,23.12,-0.04,-0.17,-0.06,0.00,0.00,0.80
14399,-2.12,0.00,-158.25,-2.56,-1.25,22.62,0.12,-0.21,-0.22,0.00,0.00,0.81
14431,-2.12,0.06,-158.88,-3.62,-0.94,21.25,0.45,-0.47,-0.41,0.00,0.00,0.80
14440,-2.12,0.12,-159.12,-3.69,-1.06,20.88,0.33,-0.56,-0.43,0.00,0.00,0.80
14453,-2.12,0.12,-159.31,-3.75,-0.50,20.75,0.22,-0.58,-0.51,0.00,0.00,0.80
14461,-2.12,0.19,-159.50,-3.50,-0.12,20.31,0.26,-0.51,-0.50,0.00,0.00,0.80
14471,-2.12,0.19,-159.69,-3.50,-0.12,20.31,0.26,-0.51,-0.50,0.00,0.00,0.81
14478,-2.12,0.19,-159.88,-3.31,-0.06,19.94,0.27,-0.46,-0.52,0.00,0.00,0.81
14489,-2.06,0.25,-160.06,-2.88,0.31,19.56,0.27,-0.41,-0.47,0.00,0.00,0.80
14499,-2.06,0.31,-160.25,-2.81,0.62,19.25,0.13,-0.36,-0.42,0.00,0.00,0.82
14512,-2.06,0.38,-160.44,-2.69,0.44,19.12,0.02,-0.43,-0.33,0.00,0.00,0.79
14520,-2.06,0.44,-160.62,-2.50,0.56,19.06,0.02,-0.57,-0.27,0.00,0.00,0.80
14530,-2.06,0.50,-160.81,-2.62,0.19,18.88,0.02,-0.57,-0.27,0.00,0.00,0.81
14539,-2.06,0.56,-161.00,-2.06,0.12,18.94,0.01,-0.73,-0.19,0.00,0.00,0.80
14549,-2.06,0.56,-161.19,-1.62,-0.06,18.88,0.02,-0.75,-0.16,0.00,0.00,0.80
14559,-2.06,0.56,-161.38,-1.31,-0.06,18.69,0.08,-0.74,-0.13,0.00,0.00,0.80
14591,-2.06,0.69,-162.06,0.94,-0.12,18.38,0.03,-0.49,0.05,0.00,0.00,0.80
14599,-2.06,0.69,-162.06,1.44,-0.19,18.81,-0.02,-0.35,0.11,0.00,0.00,0.81
14611,-2.06,0.75,-162.25,1.44,-0.19,18.81,-0.04,-0.22,0.14,0.00,0.00,0.81
14618,-2.06,0.69,-162.44,1.75,-0.25,19.06,-0.04,-0.22,0.14,0.00,0.00,0.81
14626,-2.06,0.69,-162.62,1.25,-0.88,19.44,0.20,-0.16,0.06,0.00,0.00,0.81
14635,-2.06,0.69,-162.81,1.00,-0.75,19.75,0.28,-0.13,-0.02,0.00,0.00,0.80
14644,-2.06,0.69,-163.00,0.81,-0.62,20.00,0.33,-0.13,-0.14,0.00,0.00,0.80
14651,-2.06,0.62,-163.25,0.62,-0.50,20.56,0.41,-0.21,-0.24,0.00,0.00,0.82
14659,-2.06,0.62,-163.25,0.50,-0.12,20.75,0.35,-0.24,-0.37,0.00,0.00,0.80
14670,-2.06,0.62,-163.44,0.50,-0.12,20.75,0.35,-0.24,-0.37,0.00,0.00,0.81
14678,-2.06,0.62,-163.62,0.19,0.31,21.12,0.35,-0.25,-0.38,0.00,0.00,0.81
14692,-2.06,0.62,-163.81,0.44,0.50,20.81,0.32,-0.28,-0.38,0.00,0.00,0.80
14699,-2.06,0.62,-164.25,0.19,1.19,21.00,0.08,-0.23,-0.37,0.00,0.00,0.81
14732,-2.06,0.62,-164.62,-0.12,0.94,20.62,0.16,-0.13,-0.54,0.00,0.00,0.81
14739,-2.12,0.62,-165.06,-0.38,0.88,20.75,0.08,0.05,-0.59,0.00,0.00,0.82
14749,-2.12,0.62,-165.06,-0.38,0.88,20.75,0.06,0.10,-0.57,0.00,0.00,0.81
14758,-2.12,0.62,-165.25,-0.81,1.00,21.06,-0.05,0.17,-0.59,0.00,0.00,0.80
14768,-2.12,0.62,-165.44,-1.19,0.25,21.62,-0.05,0.17,-0.59,0.00,0.00,0.81
14775,-2.12,0.62,-165.69,-1.94,0.00,22.62,-0.05,0.00,-0.49,0.00,0.00,0.81
14783,-2.12,0.62,-165.88,-2.12,-0.50,23.62,-0.20,0.14,-0.38,0.00,0.00,0.81
14790,-2.12,0.69,-166.12,-2.50,-1.00,25.25,-0.15,0.11,-0.27,0.00,0.00,0.80
14798,-2.12,0.69,-166.12,-3.75,-2.00,31.06,-0.06,0.04,-0.13,0.00,0.00,0.80
14812,-2.12,0.69,-166.44,-3.75,-2.00,31.06,0.04,-0.03,-0.03,0.00,0.00,0.80
14820,-2.06,0.75,-167.12,-3.62,-3.00,29.25,0.04,-0.15,-0.02,0.00,0.00,0.81
14828,-2.06,0.75,-167.12,-4.06,-3.75,30.19,0.30,-0.26,-0.04,0.00,0.00,0.79
14837,-2.00,0.75,-167.44,-4.06,-3.75,30.19,0.31,-0.27,-0.12,0.00,0.00,0.81
14847,-2.00,0.81,-167.75,-4.00,-3.69,30.56,0.31,-0.27,-0.12,0.00,0.00,0.81
14878,-1.94,0.88,-168.62,-3.19,-2.44,30.56,0.47,-0.24,-0.14,0.00,0.00,0.80
14887,-1.88,0.88,-168.94,-3.12,-1.50,30.31,0.32,-0.15,-0.17,0.00,0.00,0.81
14898,-1.88,0.94,-169.19,-3.00,-1.12,30.12,0.40,-0.28,-0.20,0.00,0.00,0.81
14907,-1.88,0.94,-169.50,-2.44,-0.06,30.19,0.46,-0.41,-0.27,0.00,0.00,0.81
14915,-1.81,1.00,-169.81,-2.50,0.06,30.19,0.46,-0.41,-0.27,0.00,0.00,0.81
14922,-1.81,1.06,-170.06,-2.00,0.62,30.12,0.48,-0.40,-0.30,0.00,0.00,0.80
14932,-1.75,1.12,-170.38,-1.75,1.19,30.19,0.36,-0.39,-0.31,0.00,0.00,0.81
14939,-1.75,1.12,-170.69,-1.25,1.69,30.06,0.19,-0.37,-0.36,0.00,0.00,0.81
14951,-1.75,1.12,-170.69,-0.75,2.31,29.75,0.13,-0.18,-0.31,0.00,0.00,0.80
14958,-1.75,1.19,-171.25,-0.38,2.94,29.31,0.15,-0.19,-0.26,0.00,0.00,0.80
14970,-1.75,1.19,-171.25,-0.38,2.94,29.31,0.15,-0.19,-0.26,0.00,0.00,0.80
14981,-1.88,1.12,-171.81,0.12,3.00,29.25,0.06,-0.17,-0.40,0.00,0.00,0.80
14988,-1.88,1.12,-172.12,0.12,2.81,29.38,0.11,-0.26,-0.48,0.00,0.00,0.80
15021,-1.94,1.12,-172.94,1.50,2.75,29.88,0.04,-0.12,-0.37,0.00,0.00,0.80
15028,-2.00,1.06,-173.25,2.00,2.94,29.88,0.02,-0.04,-0.32,0.00,0.00,0.80
15040,-2.00,1.06,-173.25,2.25,2.81,29.62,0.06,0.06,-0.30,0.00,0.00,0.81
15047,-2.06,1.00,-173.81,1.81,2.75,29.31,0.10,0.10,-0.24,0.00,0.00,0.81
15057,-2.06,1.00,-173.81,1.81,2.75,29.31,0.09,0.05,-0.25,0.00,0.00,0.81
15064,-2.12,1.00,-174.06,1.50,2.62,28.94,0.09,0.05,-0.25,0.00,0.00,0.80
15074,-2.12,1.00,-174.38,1.50,2.75,28.75,0.08,0.00,-0.23,0.00,0.00,0.80
15081,-2.12,0.94,-174.62,1.50,2.75,28.62,0.23,0.00,-0.22,0.00,0.00,0.80
15089,-2.19,0.94,-174.94,1.38,2.50,28.31,0.25,0.04,-0.19,0.00,0.00,0.81
15097,-2.19,0.88,-175.19,1.25,2.81,27.81,0.28,-0.01,-0.17,0.00,0.00,0.81
15108,-2.19,0.88,-175.19,1.25,2.81,27.81,0.20,0.12,-0.12,0.00,0.00,0.81
15115,-2.25,0.88,-175.44,1.06,3.25,27.38,0.20,0.12,-0.12,0.00,0.00,0.80
15125,-2.25,0.88,-175.69,1.00,3.31,27.19,0.04,0.25,-0.06,0.00,0.00,0.81
15134,-2.31,0.81,-176.00,0.75,3.12,27.00,0.08,0.27,-0.11,0.00,0.00,0.81
15166,-2.38,0.75,-176.75,-0.44,2.81,27.56,0.06,0.11,-0.12,0.00,0.00,0.80
15173,-2.38,0.75,-177.06,-0.69,2.69,28.12,0.00,0.20,-0.08,0.00,0.00,0.80
15182,-2.44,0.75,-177.31,-1.00,2.12,28.56,-0.08,0.23,-0.07,0.00,0.00,0.80
15191,-2.44,0.75,-177.62,-1.12,1.69,29.06,-0.09,0.25,-0.08,0.00,0.00,0.81
15201,-2.44,0.75,-177.88,-1.31,1.06,29.88,-0.08,0.27,-0.12,0.00,0.00,0.81
15208,-2.44,0.75,-178.19,-1.88,0.19,30.62,-0.05,0.34,-0.15,0.00,0.00,0.81
15219,-2.44,0.75,-178.19,-2.25,-0.44,31.62,-0.13,0.34,-0.19,0.00,0.00,0.81
15226,-2.50,0.69,-178.81,-2.50,-0.94,32.62,-0.04,0.19,-0.21,0.00,0.00,0.80
15236,-2.50,0.69,-178.81,-2.50,-0.94,32.62,-0.02,0.07,-0.30,0.00,0.00,0.80
15245,-2.44,0.75,-179.12,-2.75,-2.25,34.06,0.07,-0.04,-0.29,0.00,0.00,0.80
15257,-2.44,0.75,-179.50,-2.75,-2.25,34.06,0.14,-0.07,-0.28,0.00,0.00,0.81
15264,-2.44,0.75,-179.81,-2.75,-2.56,34.25,0.09,-0.04,-0.26,0.00,0.00,0.80
15274,-2.38,0.75,179.88,-2.94,-2.75,34.19,0.09,-0.04,-0.26,0.00,0.00,0.80
15284,-2.38,0.75,179.50,-2.75,-2.94,34.19,0.21,-0.01,-0.28,0.00,0.00,0.80
15313,-2.31,0.81,178.56,-2.69,-2.50,31.81,0.23,-0.02,-0.37,0.00,0.00,0.79
15323,-2.25,0.81,178.25,-2.56,-2.06,30.69,0.29,-0.06,-0.44,0.00,0.00,0.80
15331,-2.25,0.88,178.00,-2.62,-1.38,29.38,0.32,-0.11,-0.45,0.00,0.00,0.80
15341,-2.25,0.88,177.75,-2.44,-1.06,28.00,0.25,-0.11,-0.40,0.00,0.00,0.80
15348,-2.25,0.88,177.44,-2.19,-0.38,26.94,0.14,-0.01,-0.35,0.00,0.00,0.80
15359,-2.25,0.88,177.19,-2.19,-0.12,25.88,0.16,0.01,-0.24,0.00,0.00,0.80
15366,-2.25,0.94,176.94,-2.19,0.19,25.25,0.21,-0.05,-0.27,0.00,0.00,0.80
15375,-2.25,0.94,176.94,-2.19,0.19,25.25,0.24,-0.03,-0.26,0.00,0.00,0.80
15384,-2.25,0.94,176.75,-2.19,0.12,24.69,0.29,-0.12,-0.27,0.00,0.00,0.81
15393,-2.19,0.94,176.50,-2.19,0.50,24.38,0.29,-0.21,-0.29,0.00,0.00,0.80
15403,-2.19,0.94,176.25,-2.12,0.50,24.31,0.29,-0.21,-0.29,0.00,0.00,0.79
15411,-2.19,1.00,176.00,-2.12,0.75,24.31,0.26,-0.22,-0.24,0.00,0.00,0.80
15418,-2.19,1.00,175.75,-1.69,0.69,24.56,0.28,-0.20,-0.24,0.00,0.00,0.79
15426,-2.19,1.06,175.56,-1.38,1.12,24.81,0.45,-0.42,-0.33,0.00,0.00,0.80
15455,-2.12,1.12,174.75,-0.06,1.31,27.19,0.31,-0.34,-0.27,0.00,0.00,0.80
15464,-2.12,1.12,174.75,-0.06,1.31,27.19,0.32,-0.49,-0.23,0.00,0.00,0.79
15471,-2.12,1.19,174.50,0.44,1.12,28.56,0.32,-0.49,-0.23,0.00,0.00,0.81
15479,-2.06,1.19,174.19,1.19,1.19,29.94,0.26,-0.34,-0.23,0.00,0.00,0.81
15486,-2.06,1.19,173.94,1.50,1.12,31.44,0.28,-0.41,-0.22,0.00,0.00,0.81
15494,-2.06,1.19,173.94,1.75,0.56,32.69,0.22,-0.31,-0.16,0.00,0.00,0.81
15503,-2.06,1.19,173.62,1.75,0.56,32.69,0.05,-0.09,-0.04,0.00,0.00,0.80
