Time,sensPitch,sensRoll,sensYaw,xGyro,yGyro,ZGyro,xAcc,yAcc,zAcc,latitude,longitude,alt,cP,cR,cYI
132084164,-2.88,6.88,0.06,0.12,0.06,-0.12,0.01,-0.08,-0.10,2.50,5.60,0.58,0.00,-6.88,0.00
132094168,-2.88,6.88,0.06,0.00,0.12,0.00,0.09,0.00,-0.12,2.50,5.60,0.56,0.00,-6.88,0.00
132104173,-2.88,6.88,0.06,0.06,0.00,0.00,0.02,0.00,-0.15,2.50,5.60,0.58,0.00,-6.88,0.00
132117147,-2.88,6.88,0.06,-0.06,0.00,-0.12,-0.04,-0.07,-0.11,2.50,5.60,0.56,0.00,-6.88,0.00
132132265,-2.88,6.88,0.06,0.06,0.00,-0.12,-0.07,-0.02,-0.11,2.50,5.60,0.57,0.00,-6.88,0.00
132142269,-2.88,6.88,0.06,0.00,-0.06,0.00,0.00,-0.20,-0.06,2.50,5.60,0.56,0.00,-6.88,0.000
132153053,-2.88,6.88,0.06,-0.19,0.12,0.12,-0.10,0.00,-0.11,2.50,5.60,0.55,0.00,-6.88,-0.00
132163056,-2.88,6.88,0.06,0.06,0.06,0.00,-0.01,0.00,-0.15,2.50,5.60,0.54,0.00,-6.88,0.000
132173059,-2.88,6.88,0.06,0.00,0.12,0.06,0.03,0.00,-0.15,2.50,5.60,0.56,0.00,-6.88,-0.000
132183063,-2.88,6.88,0.06,0.12,0.12,-0.06,0.08,0.02,-0.12,2.50,5.60,0.53,0.00,-6.88,0.000
132193360,-2.88,6.88,0.06,0.12,0.00,0.12,-0.02,-0.11,-0.10,2.50,5.60,0.56,0.00,-6.88,-0.00
132203364,-2.88,6.88,0.06,0.00,-0.06,-0.12,0.07,-0.02,-0.09,2.50,5.60,0.53,0.00,-6.88,0.00
132213601,-2.88,6.88,0.06,0.00,-0.25,0.06,0.02,-0.07,-0.09,2.50,5.60,0.57,0.00,-6.88,-0.00
132223606,-2.88,6.88,0.06,0.00,-0.19,0.00,-0.03,-0.06,-0.11,2.50,5.60,0.56,0.00,-6.88,0.00
132233610,-2.88,6.88,0.06,-0.12,0.38,-0.06,-0.11,0.09,-0.12,2.50,5.60,0.58,0.00,-6.88,0.00
132243614,-2.88,6.88,0.00,-0.25,-0.12,-0.62,0.22,0.01,-0.10,2.50,5.60,0.57,0.00,-6.88,0.00
132253619,-2.88,6.88,0.00,-0.25,-0.44,-0.25,0.15,0.15,-0.14,2.50,5.60,0.59,0.00,-6.88,0.00
132263622,-2.88,6.88,0.00,-0.12,-0.31,0.38,0.05,0.15,-0.17,2.50,5.60,0.57,0.00,-6.88,0.00
132273626,-2.88,6.88,0.00,0.19,-0.25,0.50,-0.19,0.17,-0.20,2.50,5.60,0.57,0.00,-6.88,0.00
132283628,-2.88,6.88,0.00,0.44,-0.06,0.12,-0.19,-0.05,-0.14,2.50,5.60,0.58,0.00,-6.88,0.00
132293630,-2.88,6.88,0.00,0.56,0.44,-0.12,-0.15,-0.26,-0.04,2.50,5.60,0.58,0.00,-6.88,0.00
132303634,-2.88,6.88,0.00,0.25,0.69,0.38,-0.01,-0.35,-0.03,2.50,5.60,0.58,0.00,-6.88,0.00
132313638,-2.88,6.88,0.00,-0.31,0.62,0.38,0.00,-0.41,-0.04,2.50,5.60,0.57,0.00,-6.88,0.00
132323642,-2.88,6.94,0.00,-0.81,0.31,-0.12,0.39,0.24,-0.21,2.50,5.60,0.56,0.00,-6.94,0.00
132333646,-2.88,6.94,0.00,-0.56,-0.06,-0.44,0.59,0.21,-0.17,2.50,5.60,0.54,0.00,-6.94,0.00
132343648,-2.88,6.94,0.00,-0.31,-0.50,0.38,0.20,0.09,-0.15,2.50,5.60,0.56,0.00,-6.94,0.00
132353650,-2.88,6.94,0.00,0.00,-0.50,0.75,-0.08,0.03,-0.12,2.50,5.60,0.55,0.00,-6.94,0.00
132363654,-2.88,6.94,0.06,0.06,-0.62,-0.06,-0.37,0.01,-0.17,2.50,5.60,0.54,0.00,-6.94,0.00
132373657,-2.88,6.94,0.06,0.19,-0.12,-0.69,-0.06,-0.04,-0.10,2.50,5.60,0.56,0.00,-6.94,0.00
132383660,-2.88,6.94,0.00,0.06,0.12,-0.25,0.00,0.11,-0.15,2.50,5.60,0.57,0.00,-6.94,0.000
132393663,-2.88,6.94,0.00,0.25,0.25,0.62,-0.04,0.14,-0.17,2.50,5.60,0.56,0.00,-6.94,0.000
132404916,-2.88,6.94,0.06,0.38,0.25,0.19,0.03,-0.03,-0.14,2.50,5.60,0.56,0.00,-6.94,-0.000
132414921,-2.88,6.94,0.00,0.62,0.12,-0.81,0.27,-0.20,-0.07,2.50,5.60,0.56,0.00,-6.94,0.00
132424924,-2.88,6.94,0.00,0.25,-0.19,-0.19,0.34,-0.24,-0.08,2.50,5.60,0.54,0.00,-6.94,0.00
132434927,-2.88,6.94,0.00,0.12,-0.31,0.56,0.00,-0.09,-0.07,2.50,5.60,0.58,0.00,-6.94,0.00
132444930,-2.88,6.94,0.00,0.12,-0.31,0.38,-0.27,0.21,-0.21,2.50,5.60,0.57,0.00,-6.94,0.00
132454934,-2.88,6.94,0.00,0.56,-0.12,-0.31,-0.08,0.25,-0.20,2.50,5.60,0.53,0.00,-6.94,0.00
132465036,-2.88,6.88,0.00,0.81,0.00,-0.31,0.13,0.15,-0.16,2.50,5.60,0.55,0.00,-6.88,0.00
132475040,-2.88,6.88,0.06,0.94,0.12,0.69,-0.01,-0.03,-0.14,2.50,5.60,0.54,0.00,-6.88,-0.00
132485044,-2.88,6.88,0.06,0.88,0.19,0.62,-0.22,-0.32,-0.05,2.50,5.60,0.56,0.00,-6.88,-0.00
132495048,-2.88,6.88,0.06,0.38,0.25,-0.44,0.08,-0.39,0.00,2.50,5.60,0.58,0.00,-6.88,0.000
132505765,-2.88,6.88,0.06,-0.12,0.31,-0.31,0.20,-0.23,-0.02,2.50,5.60,0.55,0.00,-6.88,0.00
132515768,-2.88,6.88,0.06,-0.38,0.19,0.12,0.21,0.09,-0.15,2.50,5.60,0.57,0.00,-6.88,-0.00
132527995,-2.88,6.88,0.06,0.00,-0.19,0.12,0.00,0.09,-0.19,2.50,5.60,0.56,0.00,-6.88,-0.00
132538482,-2.88,6.88,0.06,0.31,-0.25,-0.31,-0.10,-0.13,-0.10,2.50,5.60,0.59,0.00,-6.88,0.00
132550194,-2.88,6.88,0.06,0.12,-0.25,-0.38,0.00,-0.21,-0.08,2.50,5.60,0.57,0.00,-6.88,0.00
132561422,-2.88,6.88,0.06,-0.12,-0.25,0.12,-0.03,-0.45,-0.05,2.50,5.60,0.54,0.00,-6.88,-0.00
132575019,-2.88,6.88,0.06,-0.88,0.25,0.25,0.08,0.11,-0.12,2.50,5.60,0.54,0.00,-6.88,-0.0000
132585024,-2.88,6.88,0.06,-0.75,0.31,0.81,0.51,0.27,-0.14,2.50,5.60,0.58,0.00,-6.88,-0.0000
132598033,-2.88,6.88,0.06,-0.44,0.19,2.12,0.55,0.09,-0.16,2.50,5.60,0.57,0.00,-6.88,-0.0000
132609161,-2.88,6.88,0.12,-0.19,-0.25,3.25,0.00,0.49,-0.27,2.50,5.60,0.60,0.00,-6.88,-0.000
132620921,-2.88,6.88,0.12,0.38,-0.69,2.94,-0.50,-0.45,-0.04,2.50,5.60,0.57,0.00,-6.88,-0.00
132633381,-2.88,6.88,0.12,-0.38,-1.06,0.31,-1.29,-0.27,-0.03,2.50,5.60,0.60,0.00,-6.88,-0.00
132643385,-2.94,6.88,0.12,-1.12,-0.12,-1.25,-0.84,0.07,-0.18,2.50,5.60,0.57,0.00,-6.88,0.00
132653429,-2.88,6.88,0.12,-1.38,1.06,-1.50,-0.23,0.65,-0.26,2.50,5.60,0.57,0.00,-6.88,0.00
132663431,-2.88,6.94,0.12,-0.69,1.81,-0.81,0.17,0.53,-0.30,2.50,5.60,0.56,0.00,-6.94,0.00
132675837,-2.88,6.94,0.12,0.12,1.81,-0.38,0.92,-0.30,-0.03,2.50,5.60,0.58,0.00,-6.94,0.00
132685840,-2.88,6.94,0.12,0.38,1.19,-0.50,1.06,-0.50,0.00,2.50,5.60,0.57,0.00,-6.94,0.00
132697476,-2.88,6.94,0.12,-0.12,-0.12,-0.50,0.89,-0.30,-0.03,2.50,5.60,0.52,0.00,-6.94,0.00
132707478,-2.88,6.94,0.12,-0.50,-1.31,-0.38,0.16,0.00,-0.18,2.50,5.60,0.57,0.00,-6.94,0.00
132719304,-2.88,6.94,0.12,-0.81,-1.69,-0.50,-0.64,0.25,-0.25,2.50,5.60,0.57,0.00,-6.94,0.00
132730994,-2.88,6.94,0.12,-0.44,-1.25,-0.62,-0.81,0.34,-0.20,2.50,5.60,0.58,0.00,-6.94,0.00
132744438,-2.88,6.94,0.12,0.44,0.62,-0.56,-0.42,-0.03,-0.14,2.50,5.60,0.56,0.00,-6.94,0.00
132754442,-2.88,6.94,0.12,0.62,0.81,-0.44,0.24,-0.21,-0.10,2.50,5.60,0.54,0.00,-6.94,0.00
132764445,-2.88,6.94,0.12,0.50,0.88,-0.62,0.77,-0.22,-0.07,2.50,5.60,0.58,0.00,-6.94,0.00
132774447,-2.88,6.94,0.12,0.38,0.31,-0.31,0.74,0.07,-0.15,2.50,5.60,0.55,0.00,-6.94,0.00
132786380,-2.88,6.94,0.12,0.44,-0.62,-0.12,0.45,-0.11,-0.08,2.50,5.60,0.57,0.00,-6.94,0.00
132796384,-2.88,6.94,0.12,0.19,-1.00,-0.12,-0.22,-0.26,-0.06,2.50,5.60,0.57,0.00,-6.94,0.00
132806388,-2.88,6.94,0.12,-0.12,-0.94,-0.25,-0.23,0.04,-0.12,2.50,5.60,0.55,0.00,-6.94,0.00
132816391,-2.88,6.94,0.12,-0.25,-0.50,0.06,-0.52,0.47,-0.21,2.50,5.60,0.58,0.00,-6.94,-0.00
132826396,-2.88,6.94,0.12,0.19,-0.19,0.25,-0.67,0.40,-0.24,2.50,5.60,0.58,0.00,-6.94,-0.00
132836400,-2.88,6.94,0.12,0.62,0.62,0.44,-0.14,-0.02,-0.07,2.50,5.60,0.55,0.00,-6.94,-0.00
132846731,-2.88,6.94,0.12,0.75,1.06,0.44,0.13,-0.24,-0.04,2.50,5.60,0.54,0.00,-6.94,-0.00
132856736,-2.88,6.94,0.12,0.62,1.06,0.38,0.53,-0.63,0.00,2.50,5.60,0.56,0.00,-6.94,-0.00
132867374,-2.88,6.94,0.12,-0.06,0.69,0.31,0.56,-0.34,-0.05,2.50,5.60,0.59,0.00,-6.94,-0.00
132877378,-2.88,6.94,0.12,-0.56,-0.25,0.31,0.39,0.12,-0.17,2.50,5.60,0.56,0.00,-6.94,-0.00
132887407,-2.88,6.94,0.12,-0.38,-0.75,0.38,0.11,0.25,-0.22,2.50,5.60,0.57,0.00,-6.94,-0.00
132897410,-2.88,6.94,0.12,0.06,-1.00,0.25,0.16,-0.01,-0.08,2.50,5.60,0.56,0.00,-6.94,-0.00
132907415,-2.88,6.94,0.12,0.19,-1.12,0.75,-0.02,0.11,-0.11,2.50,5.60,0.56,0.00,-6.94,-0.00
132917419,-2.88,6.88,0.12,0.62,-0.75,1.56,0.09,-0.38,-0.01,2.50,5.60,0.55,0.00,-6.88,-0.00
132927423,-2.88,6.88,0.12,0.94,-0.38,2.56,-0.24,-0.87,0.07,2.50,5.60,0.57,0.00,-6.88,-0.00
132937426,-2.88,6.88,0.19,0.00,0.06,3.62,-0.05,-0.71,0.09,2.50,5.60,0.55,0.00,-6.88,-0.00
132947441,-2.88,6.88,0.25,-1.25,0.19,3.69,-0.08,-0.63,0.04,2.50,5.60,0.56,0.00,-6.88,-0.00
132957445,-2.94,6.94,0.25,-2.19,0.19,2.62,-0.28,0.75,-0.38,2.50,5.60,0.56,0.00,-6.94,-0.00
132967449,-2.94,6.94,0.25,-2.44,-0.19,0.75,-0.21,0.67,-0.31,2.50,5.60,0.57,0.00,-6.94,-0.00
132977453,-2.94,6.94,0.25,-1.69,-0.75,-1.06,-1.26,0.85,-0.47,2.50,5.60,0.56,0.00,-6.94,0.00
132987456,-2.94,6.94,0.25,-0.50,-0.12,-2.56,0.03,0.82,-0.31,2.50,5.60,0.55,0.00,-6.94,0.00
132997563,-2.94,6.94,0.19,0.81,0.31,-2.19,-0.61,-0.09,-0.10,2.50,5.60,0.57,0.00,-6.94,0.00
133007567,-2.88,6.94,0.19,1.75,1.25,-1.31,0.21,-0.36,-0.01,2.50,5.60,0.55,0.00,-6.94,0.00
133018206,-2.88,6.94,0.19,1.62,1.62,-1.25,0.54,0.34,-0.21,2.50,5.60,0.57,0.00,-6.94,0.00
133028208,-2.88,6.88,0.19,1.81,1.19,-0.31,0.44,0.22,-0.17,2.50,5.60,0.58,0.00,-6.88,0.00
133039443,-2.88,6.88,0.19,1.94,0.75,-0.06,0.91,-0.86,0.30,2.50,5.60,0.55,0.00,-6.88,0.00
133049448,-2.88,6.88,0.19,1.06,-0.31,1.12,0.80,-0.57,-0.01,2.50,5.60,0.56,0.00,-6.88,-0.00
133062316,-2.88,6.88,0.19,-0.31,-1.00,1.56,0.50,-0.70,0.04,2.50,5.60,0.57,0.00,-6.88,-0.00
133073782,-2.88,6.88,0.25,-0.75,-1.62,2.06,-0.40,0.33,-0.26,2.50,5.60,0.57,0.00,-6.88,-0.00
133086698,-2.94,6.88,0.25,1.31,-0.56,3.94,-0.41,-0.01,-0.14,2.50,5.60,0.55,0.00,-6.88,-0.00
133096702,-2.94,6.88,0.31,1.81,-0.25,3.44,0.08,0.14,-0.20,2.50,5.60,0.56,0.00,-6.88,-0.000
133108734,-2.94,6.81,0.38,1.62,-0.50,2.19,-0.02,-0.36,-0.12,2.50,5.60,0.57,0.00,-6.81,-0.00
133118736,-2.94,6.81,0.38,0.69,-1.56,-0.56,0.35,0.05,-0.08,2.50,5.60,0.55,0.00,-6.81,0.000
133130933,-2.94,6.81,0.31,-0.12,-2.38,-2.50,-0.38,0.34,-0.29,2.50,5.60,0.56,0.00,-6.81,0.00
133142443,-3.00,6.81,0.31,-0.44,-2.31,-1.06,-1.39,0.27,-0.16,2.50,5.60,0.56,0.00,-6.81,0.00
133154542,-3.00,6.81,0.31,0.25,-0.62,0.31,-0.19,-1.14,0.18,2.50,5.60,0.57,0.00,-6.81,-0.00
133164723,-3.00,6.81,0.31,0.94,1.38,0.25,0.32,-1.24,0.03,2.50,5.60,0.55,0.00,-6.81,-0.000
133178571,-2.94,6.81,0.31,-1.62,1.38,-0.75,0.41,0.34,-0.17,2.50,5.60,0.56,0.00,-6.81,0.00
133188574,-2.94,6.88,0.31,-2.12,0.56,-1.25,0.67,1.26,-0.49,2.50,5.60,0.53,0.00,-6.88,0.00
133201237,-2.94,6.88,0.25,-0.44,-0.12,-1.19,-0.13,0.64,-0.19,2.50,5.60,0.57,0.00,-6.88,0.00
133212926,-2.94,6.81,0.25,1.69,-0.25,-1.62,-0.08,-1.42,0.27,2.50,5.60,0.56,0.00,-6.81,0.00
133226203,-2.94,6.81,0.25,-0.50,0.38,0.06,0.48,0.10,-0.01,2.50,5.60,0.55,0.00,-6.81,-0.00
133236205,-2.94,6.81,0.25,-0.81,-0.44,-0.25,0.42,0.52,-0.39,2.50,5.60,0.57,0.00,-6.81,0.00
133246207,-2.94,6.81,0.25,0.06,-1.19,-0.50,-0.47,0.35,-0.09,2.50,5.60,0.56,0.00,-6.81,0.00
133256210,-2.94,6.81,0.25,1.00,-1.06,0.44,-0.91,-0.27,-0.08,2.50,5.60,0.56,0.00,-6.81,-0.00
133266214,-2.94,6.81,0.25,1.00,0.25,0.81,-1.02,-0.73,0.10,2.50,5.60,0.56,0.00,-6.81,-0.000
133276217,-2.94,6.81,0.25,-0.06,1.38,1.12,0.36,-0.08,-0.16,2.50,5.60,0.56,0.00,-6.81,-0.00
133287347,-2.94,6.81,0.25,-1.06,1.31,1.12,0.62,0.60,-0.19,2.50,5.60,0.59,0.00,-6.81,-0.00
133297351,-2.94,6.81,0.31,-1.06,1.31,1.12,1.42,0.91,-0.13,2.50,5.60,0.57,0.00,-6.81,-0.00
133308371,-2.94,6.81,0.31,0.00,-0.81,2.81,0.63,0.40,-0.07,2.50,5.60,0.55,0.00,-6.81,-0.00
133318373,-2.94,6.81,0.38,0.62,-1.56,4.56,-0.38,-0.12,-0.18,2.50,5.60,0.57,0.00,-6.81,-0.00
133328377,-3.00,6.81,0.44,0.88,-1.44,4.62,0.20,-0.06,-0.04,2.50,5.60,0.57,0.00,-6.81,-0.00
133338476,-3.00,6.81,0.44,1.06,-1.19,5.56,-1.10,-1.32,0.37,2.50,5.60,0.55,0.00,-6.81,-0.00
133348479,-3.00,6.81,0.44,0.00,-0.69,4.69,0.13,-1.29,0.17,2.50,5.60,0.56,0.00,-6.81,-0.00
133358482,-3.00,6.81,0.56,-2.06,-0.44,4.56,0.06,0.38,0.02,2.50,5.60,0.54,0.00,-6.81,-0.00
133368485,-3.00,6.81,0.56,-2.69,-1.31,3.94,-0.02,0.92,-0.04,2.50,5.60,0.57,0.00,-6.81,-0.00
133378489,-3.06,6.88,0.62,-1.38,-1.75,3.00,-0.78,0.62,0.21,2.50,5.60,0.58,0.00,-6.88,-0.00
133388492,-3.06,6.88,0.62,0.12,-1.75,2.38,-0.88,-0.19,0.48,2.50,5.60,0.56,0.00,-6.88,-0.00
133398495,-3.06,6.88,0.62,0.81,-1.19,2.38,-1.10,-0.42,0.86,2.50,5.60,0.57,0.00,-6.88,-0.00
133408497,-3.06,6.81,0.69,0.25,-0.44,1.62,2.14,-1.29,1.04,2.50,5.60,0.56,0.00,-6.81,-0.00
133418895,-3.12,6.88,0.69,-1.12,-1.38,2.00,2.81,-0.64,1.08,2.50,5.60,0.55,0.00,-6.88,-0.00
133428899,-3.19,6.88,0.75,-2.06,-5.75,3.69,2.33,-0.74,1.07,2.50,5.60,0.57,0.00,-6.88,-0.00
133438904,-3.25,6.88,0.81,-3.50,-9.25,5.50,0.72,0.26,0.57,2.50,5.60,0.58,0.00,-6.88,-0.00
133448906,-3.38,6.94,0.81,-3.75,-12.38,4.94,4.03,1.38,0.23,2.50,5.60,0.56,0.00,-6.94,-0.00
133459035,-3.56,6.94,0.88,-2.19,-16.94,4.44,3.22,-0.11,0.25,2.50,5.60,0.56,0.00,-6.94,-0.00
133469038,-3.75,6.94,0.88,-1.12,-21.75,4.38,0.53,-1.33,0.82,2.50,5.60,0.57,0.00,-6.94,-0.00
133479040,-4.00,7.00,0.94,-1.88,-25.00,3.62,3.83,0.29,0.72,2.50,5.60,0.58,0.00,-7.00,-0.00
133489043,-4.25,7.00,0.94,-1.81,-27.44,4.81,-1.40,-0.90,0.64,2.50,5.60,0.58,0.00,-7.00,-0.00
133499045,-4.56,7.00,1.00,-1.31,-28.94,7.56,-0.31,-1.26,0.89,2.50,5.60,0.56,0.00,-7.00,-0.00
133509047,-4.88,7.00,1.06,-2.12,-29.38,8.50,2.08,0.96,0.75,2.50,5.60,0.58,0.00,-7.00,-0.000
133520242,-5.12,7.06,1.12,-2.81,-29.69,7.69,0.32,-1.08,1.04,2.50,5.60,0.59,0.00,-7.06,-0.00
133530246,-5.44,7.06,1.19,-3.25,-29.75,8.75,0.24,0.94,0.63,2.50,5.60,0.59,0.00,-7.06,-0.00
133540249,-5.75,7.12,1.25,-3.50,-29.56,8.81,-1.98,-0.22,0.71,2.50,5.60,0.58,0.00,-7.12,-0.00
133550253,-6.00,7.12,1.31,-4.19,-29.06,7.25,0.42,1.54,0.38,2.50,5.60,0.58,0.00,-7.12,-0.000
133560256,-6.31,7.19,1.38,-3.12,-31.00,5.88,-2.08,0.30,0.71,2.50,5.60,0.59,0.00,-7.19,-0.00
133570259,-6.62,7.19,1.38,-2.19,-31.12,5.00,-2.13,-1.12,0.95,2.50,5.60,0.58,0.00,-7.19,-0.00
133580264,-6.94,7.19,1.38,-2.00,-28.94,3.75,-0.90,1.18,0.76,2.50,5.60,0.58,0.00,-7.19,-0.00
133590266,-7.19,7.19,1.44,-1.12,-27.56,3.19,-3.48,0.00,1.08,2.50,5.60,0.59,0.00,-7.19,-0.00
133600268,-7.44,7.19,1.44,-0.25,-24.88,2.56,-3.21,1.12,0.85,2.50,5.60,0.58,0.00,-7.19,-0.00
133610270,-7.62,7.19,1.44,0.56,-21.12,2.25,-3.09,1.74,0.76,2.50,5.60,0.60,0.00,-7.19,-0.00
133620283,-7.81,7.19,1.44,1.69,-16.56,2.00,-3.84,0.22,0.93,2.50,5.60,0.58,0.00,-7.19,-0.00
133630451,-7.94,7.19,1.50,2.69,-11.44,3.44,-3.23,1.81,0.70,2.50,5.60,0.59,0.00,-7.19,-0.00
133640454,-8.00,7.12,1.50,3.38,-5.75,5.06,-3.62,0.47,0.91,2.50,5.60,0.59,0.00,-7.12,-0.00
133652159,-8.00,7.06,1.56,4.56,-0.38,5.88,-4.00,-1.18,1.41,2.50,5.60,0.59,0.00,-7.06,-0.00
133662161,-7.94,7.00,1.62,4.50,5.25,6.81,-2.72,-0.01,1.25,2.50,5.60,0.61,0.00,-7.00,-0.00
133674562,-7.88,7.00,1.69,3.31,10.12,7.25,-2.52,-1.01,1.47,2.50,5.60,0.60,0.00,-7.00,-0.00
133685673,-7.75,6.94,1.75,2.56,14.00,6.19,-1.69,0.38,1.13,2.50,5.60,0.60,0.00,-6.94,-0.00
133697370,-7.56,6.94,1.81,1.25,17.50,4.50,-1.69,0.38,1.13,2.50,5.60,0.61,0.00,-6.94,-0.00
133707372,-7.38,6.94,1.88,0.12,20.75,3.56,-1.00,-0.24,1.20,2.50,5.60,0.63,0.00,-6.94,-0.00
133718431,-7.19,6.94,1.94,-0.19,23.56,1.38,0.08,-0.35,1.53,2.50,5.60,0.62,0.00,-6.94,-0.00
133728434,-6.94,6.94,1.94,-0.69,24.38,1.31,0.80,-0.48,1.64,2.50,5.60,0.62,0.00,-6.94,-0.00
133741357,-6.50,6.94,2.00,-1.19,23.44,1.00,0.93,-0.25,1.69,2.50,5.60,0.61,0.00,-6.94,-0.00
133751362,-6.25,6.94,2.00,-1.94,21.62,-0.06,1.65,-0.39,1.72,2.50,5.60,0.63,0.00,-6.94,0.00
133761365,-6.06,6.94,2.00,-2.56,19.69,-0.81,2.21,-0.08,1.72,2.50,5.60,0.62,0.00,-6.94,0.00
133771370,-5.94,7.00,2.00,-2.81,16.56,-1.06,2.07,-0.27,1.69,2.50,5.60,0.63,0.00,-7.00,0.00
133781373,-5.81,7.00,2.00,-3.31,12.88,-1.62,2.10,-0.21,1.67,2.50,5.60,0.64,0.00,-7.00,0.00
133791377,-5.69,7.06,2.00,-3.44,9.69,-2.12,2.68,0.24,1.82,2.50,5.60,0.65,0.00,-7.06,0.000
133801381,-5.62,7.06,2.00,-3.56,5.75,-1.31,2.17,-0.15,1.82,2.50,5.60,0.65,0.00,-7.06,0.00
133811384,-5.62,7.12,2.00,-3.44,1.94,-0.94,2.24,0.16,1.76,2.50,5.60,0.65,0.00,-7.12,0.00
133821387,-5.62,7.12,2.00,-3.25,-1.56,-0.69,1.76,0.78,1.64,2.50,5.60,0.66,0.00,-7.12,0.00
133833174,-5.69,7.19,2.00,-2.50,-4.62,-0.31,1.23,1.16,1.37,2.50,5.60,0.66,0.00,-7.19,0.00
133843177,-5.75,7.19,2.00,-1.38,-7.56,-0.25,0.54,1.38,1.16,2.50,5.60,0.67,0.00,-7.19,0.00
133853180,-5.88,7.19,1.94,0.25,-10.31,-1.75,0.62,0.79,1.16,2.50,5.60,0.68,0.00,-7.19,0.00
133863184,-5.94,7.19,1.88,1.62,-12.06,-3.38,0.97,0.47,1.26,2.50,5.60,0.68,0.00,-7.19,0.00
133873187,-6.06,7.19,1.88,2.62,-13.69,-3.56,0.09,1.01,0.94,2.50,5.60,0.69,0.00,-7.19,0.00
133883190,-6.25,7.12,1.81,3.25,-15.31,-2.75,0.42,1.43,0.60,2.50,5.60,0.69,0.00,-7.12,0.00
133893868,-6.38,7.12,1.81,4.56,-15.75,-1.44,-0.22,0.60,1.07,2.50,5.60,0.70,0.00,-7.12,0.00
133903872,-6.50,7.06,1.81,5.50,-15.56,0.94,-0.06,-0.23,1.09,2.50,5.60,0.72,0.00,-7.06,-0.00
133913876,-6.69,7.00,1.81,5.69,-15.56,3.00,-1.64,-0.54,1.29,2.50,5.60,0.71,0.00,-7.00,-0.00
133924252,-6.81,6.94,1.81,5.50,-14.50,2.50,-1.99,-0.73,1.14,2.50,5.60,0.74,0.00,-6.94,-0.00
133934752,-6.94,6.88,1.81,4.12,-12.94,1.62,-1.70,-0.52,0.92,2.50,5.60,0.75,0.00,-6.88,-0.00
133946302,-7.06,6.88,1.81,3.06,-11.12,0.50,-2.17,0.42,0.71,2.50,5.60,0.76,0.00,-6.88,-0.00
133956305,-7.12,6.81,1.81,3.25,-6.81,-2.31,-2.15,0.57,0.53,2.50,5.60,0.77,0.00,-6.81,0.00
133966308,-7.19,6.81,1.75,3.25,-6.81,-2.31,-2.35,1.05,0.28,2.50,5.60,0.77,0.00,-6.81,0.00
133977042,-7.25,6.75,1.75,4.25,-4.31,-2.44,-2.40,-0.07,0.32,2.50,5.60,0.77,0.00,-6.75,0.00
133987514,-7.25,6.69,1.69,5.62,-1.94,-2.50,-2.19,-0.07,0.23,2.50,5.60,0.79,0.00,-6.69,0.00
133997920,-7.25,6.69,1.69,5.94,0.94,-2.56,-2.19,-0.07,0.23,2.50,5.60,0.81,0.00,-6.69,0.00
134007924,-7.19,6.62,1.69,4.94,7.00,-2.25,-2.15,-0.82,0.33,2.50,5.60,0.81,0.00,-6.62,0.00
134017928,-7.06,6.56,1.62,3.44,9.75,-2.31,-1.66,-0.59,0.27,2.50,5.60,0.82,0.00,-6.56,0.00
134030035,-6.94,6.56,1.62,0.00,14.50,-1.31,-1.44,-0.32,0.01,2.50,5.60,0.82,0.00,-6.56,0.00
134040037,-6.81,6.56,1.62,-0.81,16.44,-0.62,-0.95,0.62,-0.18,2.50,5.60,0.82,0.00,-6.56,0.00
134051486,-6.62,6.56,1.62,-0.25,17.56,0.19,-0.85,0.85,-0.19,2.50,5.60,0.83,0.00,-6.56,-0.00
134061490,-6.31,6.56,1.62,0.56,18.19,0.81,-0.72,0.67,-0.19,2.50,5.60,0.84,0.00,-6.56,-0.00
134071494,-6.12,6.56,1.69,1.31,18.75,1.31,0.29,1.03,-0.32,2.50,5.60,0.84,0.00,-6.56,-0.00
134081498,-5.94,6.50,1.69,2.25,18.44,2.00,-0.11,0.27,-0.24,2.50,5.60,0.85,0.00,-6.50,-0.00
134091503,-5.75,6.50,1.75,2.12,17.88,1.62,0.39,-0.17,-0.21,2.50,5.60,0.84,0.00,-6.50,-0.00
134101506,-5.75,6.50,1.75,1.38,17.62,1.31,0.45,-0.30,-0.33,2.50,5.60,0.86,0.00,-6.50,-0.00
134111822,-5.44,6.50,1.75,0.88,16.69,0.50,0.65,-0.17,-0.66,2.50,5.60,0.87,0.00,-6.50,-0.00
134121825,-5.31,6.50,1.75,0.44,15.69,-0.88,0.58,-0.02,-0.84,2.50,5.60,0.87,0.00,-6.50,0.00
134134244,-5.12,6.50,1.75,0.31,14.50,-2.44,0.88,-0.07,-1.05,2.50,5.60,0.88,0.00,-6.50,0.00
134148144,-5.00,6.50,1.75,0.38,13.19,-2.50,1.10,0.37,-1.21,2.50,5.60,0.89,0.00,-6.50,0.00
134158158,-4.94,6.44,1.69,1.31,11.38,-1.88,1.08,0.48,-1.07,2.50,5.60,0.89,0.00,-6.44,0.00
134169547,-4.81,6.44,1.69,2.12,9.88,-0.25,1.49,0.68,-1.08,2.50,5.60,0.89,0.00,-6.44,0.00
134179549,-4.75,6.44,1.75,3.00,8.00,2.06,1.22,0.45,-1.07,2.50,5.60,0.91,0.00,-6.44,-0.00
134191783,-4.69,6.31,1.81,3.62,3.56,4.31,1.71,-0.08,-1.09,2.50,5.60,0.91,0.00,-6.31,-0.00
134201786,-4.69,6.31,1.81,3.31,1.44,5.00,0.72,-0.11,-1.26,2.50,5.60,0.92,0.00,-6.31,-0.00
134212625,-4.62,6.25,1.88,2.88,-0.25,2.50,1.32,-1.00,-1.06,2.50,5.60,0.92,0.00,-6.25,-0.00
134222629,-4.69,6.25,1.88,1.31,-2.56,0.44,1.30,-0.81,-1.07,2.50,5.60,0.92,0.00,-6.25,-0.00
134232633,-4.69,6.25,1.88,0.31,-4.19,-1.88,0.71,-0.90,-1.36,2.50,5.60,0.93,0.00,-6.25,0.00
134242637,-4.75,6.25,1.81,-1.19,-5.38,-4.00,1.73,-0.97,-1.26,2.50,5.60,0.94,0.00,-6.25,0.00
134253732,-4.81,6.31,1.81,-2.62,-7.44,-2.75,1.68,0.26,-1.51,2.50,5.60,0.96,0.00,-6.31,0.00
134263735,-4.94,6.31,1.81,-2.31,-8.62,0.44,1.03,0.40,-1.56,2.50,5.60,0.95,0.00,-6.31,-0.00
134273739,-5.00,6.38,1.81,-2.62,-9.25,3.94,1.11,-0.37,-1.61,2.50,5.60,0.96,0.00,-6.38,-0.00
134284506,-5.12,6.38,1.88,-3.25,-10.31,6.12,0.67,0.14,-1.83,2.50,5.60,0.96,0.00,-6.38,-0.00
134294510,-5.25,6.38,1.94,-3.31,-10.25,7.31,0.07,-0.31,-1.83,2.50,5.60,0.97,0.00,-6.38,-0.00
134305373,-5.31,6.44,2.00,-4.12,-10.06,6.06,0.02,-0.49,-1.78,2.50,5.60,0.96,0.00,-6.44,-0.00
134315377,-5.44,6.50,2.06,-4.62,-10.12,4.12,0.44,0.20,-2.12,2.50,5.60,0.97,0.00,-6.50,-0.00
134326193,-5.50,6.50,2.06,-4.31,-9.94,2.00,0.26,0.46,-2.11,2.50,5.60,0.97,0.00,-6.50,-0.00
134337295,-5.62,6.56,2.06,-3.62,-9.62,0.12,0.25,0.37,-2.10,2.50,5.60,0.98,0.00,-6.56,-0.00
134348729,-5.69,6.56,2.06,-2.62,-9.75,-1.19,0.57,0.75,-2.16,2.50,5.60,0.99,0.00,-6.56,0.00
134358733,-5.81,6.62,2.00,-1.12,-9.50,-2.12,0.22,0.48,-1.94,2.50,5.60,0.99,0.00,-6.62,0.00
134368735,-5.88,6.62,2.00,-0.44,-9.06,-2.19,0.51,0.90,-1.88,2.50,5.60,1.00,0.00,-6.62,0.00
134379362,-5.94,6.62,1.94,0.50,-8.75,-2.06,0.29,0.98,-1.86,2.50,5.60,0.99,0.00,-6.62,0.00
134389701,-6.06,6.56,1.94,1.75,-8.38,-1.38,0.38,0.37,-1.76,2.50,5.60,0.99,0.00,-6.56,0.00
134402219,-6.12,6.56,1.94,4.25,-7.38,-1.88,0.42,1.36,-1.80,2.50,5.60,0.99,0.00,-6.56,0.00
134412221,-6.19,6.50,1.88,6.19,-6.94,-2.75,0.06,1.40,-1.76,2.50,5.60,0.99,0.00,-6.50,0.00
134422225,-6.25,6.44,1.88,8.38,-6.12,-3.69,0.57,1.22,-1.53,2.50,5.60,1.00,0.00,-6.44,0.00
134432228,-6.31,6.38,1.81,10.25,-6.06,-4.06,0.37,0.98,-1.36,2.50,5.60,1.01,0.00,-6.38,0.00
134444200,-6.44,6.19,1.75,11.94,-5.56,-4.19,0.30,0.34,-1.14,2.50,5.60,1.01,0.00,-6.19,0.00
134454204,-6.44,6.06,1.69,12.94,-4.50,-2.69,0.62,0.25,-1.09,2.50,5.60,1.01,0.00,-6.06,0.00
134466305,-6.50,5.94,1.69,13.56,-3.94,-0.62,0.68,0.02,-0.87,2.50,5.60,1.01,0.00,-5.94,0.00
134476598,-6.50,5.81,1.69,14.50,-3.50,1.69,0.27,0.08,-0.79,2.50,5.60,1.02,0.00,-5.81,-0.00
134489914,-6.56,5.62,1.69,14.88,-2.69,3.62,0.83,0.42,-0.60,2.50,5.60,1.03,0.00,-5.62,-0.00
134500511,-6.56,5.50,1.75,15.56,-2.88,4.94,0.83,0.42,-0.60,2.50,5.60,1.03,0.00,-5.50,-0.00
134510514,-6.62,5.31,1.81,16.31,-2.81,5.31,-0.18,-0.11,-0.21,2.50,5.60,1.03,0.00,-5.31,-0.00
134521373,-6.62,5.12,1.81,16.75,-2.25,3.50,0.06,-0.55,0.00,2.50,5.60,1.03,0.00,-5.12,-0.000
134531378,-6.69,5.00,1.81,16.38,-1.62,2.94,-0.50,-1.14,0.18,2.50,5.60,1.04,0.00,-5.00,-0.00
134542361,-6.69,4.81,1.88,14.69,-0.44,2.94,0.15,-1.11,0.28,2.50,5.60,1.02,0.00,-4.81,-0.00
134552363,-6.69,4.69,1.88,14.69,-0.44,2.94,-0.12,-1.25,0.39,2.50,5.60,1.03,0.00,-4.69,-0.00
134562367,-6.69,4.56,1.88,13.12,0.62,3.50,-0.77,-1.17,0.30,2.50,5.60,1.03,0.00,-4.56,-0.00
134572372,-6.69,4.44,1.94,10.25,4.00,5.25,-1.09,-1.08,0.11,2.50,5.60,1.04,0.00,-4.44,-0.00
134582376,-6.62,4.31,2.00,8.81,5.88,5.56,-0.62,-1.15,0.19,2.50,5.60,1.04,0.00,-4.31,-0.00
134592380,-6.56,4.25,2.06,7.56,7.69,5.75,-1.14,-1.22,0.13,2.50,5.60,1.04,0.00,-4.25,-0.00
134602461,-6.50,4.12,2.12,7.56,7.69,5.75,-1.32,-0.90,0.00,2.50,5.60,1.04,0.00,-4.12,-0.00
134612465,-6.44,4.06,2.19,5.88,10.00,6.31,-0.96,-0.90,-0.09,2.50,5.60,1.05,0.00,-4.06,-0.00
134622469,-6.31,4.00,2.25,3.75,14.50,7.19,-1.35,-0.77,-0.08,2.50,5.60,1.05,0.00,-4.00,-0.00
134632473,-6.19,4.00,2.31,2.94,17.25,7.50,-1.45,-0.47,-0.16,2.50,5.60,1.06,0.00,-4.00,-0.00
134642475,-6.00,3.94,2.38,2.25,19.94,6.69,-1.18,-0.59,-0.10,2.50,5.60,1.05,0.00,-3.94,-0.00
134652478,-5.81,3.94,2.44,2.25,19.94,6.69,-1.15,-0.73,-0.07,2.50,5.60,1.06,0.00,-3.94,-0.00
134663185,-5.62,3.88,2.50,0.88,24.38,5.12,-1.15,-0.46,-0.18,2.50,5.60,1.06,0.00,-3.88,-0.00
134673187,-5.38,3.88,2.56,0.31,26.69,4.75,-1.04,-0.33,-0.19,2.50,5.60,1.06,0.00,-3.88,-0.00
134684030,-4.88,3.88,2.69,-0.25,28.81,4.38,-0.76,0.00,-0.23,2.50,5.60,1.06,0.00,-3.88,-0.00
134694044,-4.56,3.88,2.75,-0.44,30.19,4.81,-0.68,-0.04,-0.22,2.50,5.60,1.07,0.00,-3.88,-0.00
134704048,-4.25,3.88,2.81,-0.81,31.56,5.56,-0.59,0.28,-0.18,2.50,5.60,1.07,0.00,-3.88,-0.00
134714052,-3.94,3.88,2.88,-1.06,32.62,6.12,-0.38,0.22,-0.24,2.50,5.60,1.08,0.00,-3.88,-0.00
134724729,-3.62,3.88,2.94,-0.75,33.44,7.12,-0.53,-0.25,-0.12,2.50,5.60,1.07,0.00,-3.88,-0.00
134734735,-3.31,3.88,3.00,-1.06,34.00,7.75,-0.28,-0.06,-0.12,2.50,5.60,1.08,0.00,-3.88,-0.00
134746544,-3.00,3.88,3.12,-1.06,34.38,8.62,0.08,0.25,-0.05,2.50,5.60,1.09,0.00,-3.88,-0.000
134756549,-2.62,3.88,3.25,-0.31,34.25,9.31,0.38,0.19,0.18,2.50,5.60,1.09,0.00,-3.88,-0.000
134767185,-2.31,3.88,3.31,0.00,33.56,9.00,0.50,0.62,0.07,2.50,5.60,1.09,0.00,-3.88,-0.000
134777188,-2.00,3.88,3.44,0.75,32.44,9.00,0.94,0.69,0.05,2.50,5.60,1.10,0.00,-3.88,-0.000
134787854,-1.75,3.81,3.50,1.62,31.06,9.12,0.88,0.52,0.25,2.50,5.60,1.10,0.00,-3.81,-0.000
134798133,-1.44,3.81,3.62,2.00,29.31,8.75,1.09,0.58,0.25,2.50,5.60,1.10,0.00,-3.81,-0.000
134808135,-1.19,3.81,3.69,2.62,27.56,8.69,1.05,0.24,0.40,2.50,5.60,1.11,0.00,-3.81,-0.000
134818137,-0.94,3.75,3.81,3.19,25.75,8.94,0.88,-0.08,0.58,2.50,5.60,1.11,0.00,-3.75,-0.000
134828897,-0.75,3.75,3.88,3.06,23.88,8.25,1.12,-0.29,0.54,2.50,5.60,1.11,0.00,-3.75,-0.000
134840896,-0.50,3.69,3.94,2.81,21.75,7.06,1.02,-0.59,0.50,2.50,5.60,1.12,0.00,-3.69,-0.000
134851350,-0.31,3.69,4.06,2.31,19.50,6.06,1.02,-0.59,0.50,2.50,5.60,1.11,0.00,-3.69,-0.000
134861352,-0.19,3.62,4.06,1.75,17.56,5.06,1.25,-0.54,0.35,2.50,5.60,1.12,0.00,-3.62,-0.000
134871355,0.00,3.62,4.12,1.25,15.38,4.44,1.00,-0.76,0.04,2.50,5.60,1.13,0.00,-3.62,-0.000
134885264,0.12,3.62,4.19,0.06,11.44,3.69,0.91,-0.54,-0.15,2.50,5.60,1.13,0.00,-3.62,-0.000
134895268,0.25,3.62,4.25,-0.50,9.44,3.06,1.18,-0.46,-0.30,2.50,5.60,1.14,0.00,-3.62,-0.000
134907932,0.31,3.62,4.25,-1.06,7.56,2.19,0.81,-0.85,-0.41,2.50,5.60,1.14,0.00,-3.62,-0.000
134917936,0.38,3.69,4.31,-1.81,5.75,0.94,0.89,-0.78,-0.52,2.50,5.60,1.16,0.00,-3.69,-0.000
134929353,0.38,3.69,4.31,-2.81,4.12,-0.06,1.13,-0.80,-0.56,2.50,5.60,1.16,0.00,-3.69,0.000
134940759,0.44,3.75,4.25,-3.75,2.56,-0.62,0.91,-0.95,-0.60,2.50,5.60,1.17,0.00,-3.75,0.000
134951954,0.44,3.75,4.25,-4.88,1.38,-0.94,0.59,-0.66,-0.82,2.50,5.60,1.17,0.00,-3.75,0.000
134961957,0.44,3.81,4.25,-5.88,0.44,-1.06,0.65,-0.67,-0.87,2.50,5.60,1.17,0.00,-3.81,0.000
134971961,0.44,3.88,4.25,-6.88,-0.75,-0.62,-0.08,-0.32,-1.00,2.50,5.60,1.17,0.00,-3.88,0.00
134982431,0.44,4.00,4.25,-7.75,-1.12,-0.56,0.13,-0.14,-1.04,2.50,5.60,1.18,0.00,-4.00,0.00
134992434,0.44,4.06,4.25,-8.12,-1.62,-1.06,0.08,-0.03,-1.11,2.50,5.60,1.18,0.00,-4.06,0.00
135002625,0.38,4.12,4.25,-8.44,-2.12,-1.44,0.08,-0.03,-1.11,2.50,5.60,1.18,0.00,-4.12,0.00
135012629,0.38,4.19,4.19,-8.62,-2.62,-1.88,0.00,0.03,-1.18,2.50,5.60,1.18,0.00,-4.19,0.00
135022631,0.31,4.31,4.19,-8.56,-2.69,-2.19,0.14,0.20,-1.25,2.50,5.60,1.19,0.00,-4.31,0.00
135032674,0.31,4.38,4.12,-8.50,-2.94,-2.94,-0.05,0.12,-1.20,2.50,5.60,1.19,0.00,-4.38,0.00
135042677,0.31,4.44,4.12,-8.12,-3.38,-3.06,-0.07,0.12,-1.13,2.50,5.60,1.19,0.00,-4.44,0.00
135052827,0.25,4.56,4.06,-7.88,-3.06,-3.69,-0.07,0.12,-1.13,2.50,5.60,1.19,0.00,-4.56,0.00
135063155,0.25,4.62,4.06,-7.62,-3.19,-4.19,0.09,0.12,-1.04,2.50,5.60,1.20,0.00,-4.62,0.00
135073158,0.19,4.69,4.00,-7.69,-3.06,-4.44,0.24,0.27,-0.87,2.50,5.60,1.20,0.00,-4.69,0.00
135084162,0.19,4.75,3.94,-7.19,-4.12,-5.06,0.58,0.54,-0.82,2.50,5.60,1.20,0.00,-4.75,0.00
135094166,0.12,4.88,3.88,-6.44,-4.81,-5.25,0.58,0.80,-0.78,2.50,5.60,1.21,0.00,-4.88,0.00
135106599,0.06,4.94,3.81,-5.19,-5.81,-5.50,0.78,1.25,-0.73,2.50,5.60,1.21,0.00,-4.94,0.00
135116602,0.00,5.00,3.75,-3.38,-6.81,-5.69,0.86,1.45,-0.65,2.50,5.60,1.21,0.00,-5.00,0.00
135126606,0.00,5.00,3.69,-1.31,-7.75,-5.75,0.87,1.66,-0.62,2.50,5.60,1.21,0.00,-5.00,0.00
135136610,-0.12,5.00,3.62,1.06,-9.00,-5.81,0.99,1.74,-0.44,2.50,5.60,1.21,0.00,-5.00,0.00
135146615,-0.19,4.94,3.56,3.75,-10.12,-5.50,0.98,1.71,-0.15,2.50,5.60,1.22,0.00,-4.94,0.00
135156617,-0.31,4.88,3.50,6.25,-11.19,-4.81,0.91,1.57,-0.03,2.50,5.60,1.22,0.00,-4.88,0.00
135166621,-0.44,4.81,3.44,8.81,-12.50,-3.94,1.28,1.59,0.13,2.50,5.60,1.22,0.00,-4.81,0.00
135176625,-0.56,4.69,3.44,11.12,-14.06,-2.69,1.25,1.70,0.20,2.50,5.60,1.22,0.00,-4.69,0.00
135186629,-0.69,4.56,3.44,13.62,-15.44,-1.31,1.17,1.69,0.45,2.50,5.60,1.23,0.00,-4.56,0.00
135196632,-0.88,4.44,3.38,16.25,-16.88,-0.25,1.16,1.75,0.57,2.50,5.60,1.23,0.00,-4.44,0.00
135206635,-0.88,4.44,3.38,18.81,-18.25,0.56,1.08,1.73,0.70,2.50,5.60,1.24,0.00,-4.44,-0.00
135216638,-1.25,4.00,3.38,21.69,-19.56,1.12,0.93,1.62,0.79,2.50,5.60,1.24,0.00,-4.00,-0.00
135226642,-1.44,3.81,3.38,24.19,-20.56,1.88,0.97,1.17,1.00,2.50,5.60,1.24,0.00,-3.81,-0.00
135236644,-1.62,3.56,3.44,26.06,-21.50,2.88,0.96,0.85,1.09,2.50,5.60,1.24,0.00,-3.56,-0.00
135246648,-1.88,3.25,3.44,27.25,-22.06,4.75,0.95,0.43,1.16,2.50,5.60,1.25,0.00,-3.25,-0.00
135256652,-1.88,3.25,3.44,27.56,-22.44,6.88,0.59,-0.14,1.32,2.50,5.60,1.26,0.00,-3.25,-0.00
135266660,-2.31,2.75,3.56,27.12,-22.50,8.44,0.33,-0.50,1.36,2.50,5.60,1.25,0.00,-2.75,-0.00
135276665,-2.50,2.50,3.69,26.00,-22.69,9.00,0.06,-0.72,1.36,2.50,5.60,1.25,0.00,-2.50,-0.00
135286669,-2.75,2.25,3.75,24.75,-22.38,9.19,-0.16,-1.02,1.41,2.50,5.60,1.27,0.00,-2.25,-0.00
135296673,-2.94,2.00,3.81,23.12,-22.12,9.19,0.00,-0.84,1.28,2.50,5.60,1.27,0.00,-2.00,-0.00
135308044,-3.19,1.81,3.88,21.69,-21.69,8.81,-0.02,-0.96,1.32,2.50,5.60,1.29,0.00,-1.81,-0.00
135318048,-3.38,1.62,4.00,20.25,-21.25,8.81,-0.24,-1.17,1.32,2.50,5.60,1.30,0.00,-1.62,-0.00
135328669,-3.56,1.44,4.06,18.38,-20.44,8.81,-0.33,-1.15,1.29,2.50,5.60,1.30,0.00,-1.44,-0.00
135338672,-3.75,1.25,4.12,16.38,-19.31,8.50,-0.97,-1.43,1.25,2.50,5.60,1.30,0.00,-1.25,-0.00
135348676,-3.94,1.12,4.19,14.00,-18.06,8.19,-0.99,-1.48,1.18,2.50,5.60,1.31,0.00,-1.12,-0.00
135358678,-4.12,1.00,4.25,11.56,-16.56,7.69,-1.14,-1.40,1.09,2.50,5.60,1.31,0.00,-1.00,-0.00
135368681,-4.25,0.88,4.31,9.00,-14.94,7.44,-1.30,-1.28,0.92,2.50,5.60,1.32,0.00,-0.88,-0.00
135378685,-4.38,0.81,4.38,6.81,-13.31,6.69,-1.09,-1.11,0.71,2.50,5.60,1.33,0.00,-0.81,-0.00
135388688,-4.50,0.75,4.44,5.06,-11.56,5.94,-1.26,-0.92,0.61,2.50,5.60,1.33,0.00,-0.75,-0.00
135398693,-4.56,0.75,4.50,3.56,-10.00,4.44,-1.59,-0.69,0.55,2.50,5.60,1.34,0.00,-0.75,-0.00
135408696,-4.69,0.69,4.50,2.38,-8.06,2.38,-1.69,-0.56,0.54,2.50,5.60,1.35,0.00,-0.69,-0.00
135418699,-4.75,0.69,4.50,1.56,-6.25,-0.12,-1.68,-0.36,0.32,2.50,5.60,1.35,0.00,-0.69,0.00
135428702,-4.75,0.69,4.50,0.81,-4.31,-2.00,-1.78,-0.37,0.15,2.50,5.60,1.35,0.00,-0.69,0.00
135438706,-4.81,0.69,4.44,0.06,-2.12,-3.31,-1.71,-0.34,-0.02,2.50,5.60,1.35,0.00,-0.69,0.00
135448710,-4.81,0.69,4.44,-0.75,0.19,-4.31,-1.57,-0.24,-0.20,2.50,5.60,1.37,0.00,-0.69,0.00
135459483,-4.75,0.75,4.38,-1.38,2.31,-4.56,-1.56,-0.32,-0.39,2.50,5.60,1.37,0.00,-0.75,0.00
135469486,-4.75,0.75,4.31,-2.06,4.56,-4.06,-1.43,-0.42,-0.37,2.50,5.60,1.37,0.00,-0.75,0.00
135481195,-4.62,0.75,4.31,-2.75,7.12,-3.38,-1.32,-0.39,-0.37,2.50,5.60,1.38,0.00,-0.75,0.00
135492021,-4.56,0.81,4.25,-3.62,9.06,-3.06,-1.31,-0.41,-0.38,2.50,5.60,1.39,0.00,-0.81,0.00
135504166,-4.44,0.88,4.25,-4.19,11.06,-3.38,-1.25,-0.10,-0.45,2.50,5.60,1.40,0.00,-0.88,0.00
135514170,-4.31,0.88,4.19,-4.50,13.12,-4.44,-1.17,-0.08,-0.49,2.50,5.60,1.40,0.00,-0.88,0.00
135524172,-4.19,0.94,4.12,-4.81,15.00,-5.81,-1.29,-0.23,-0.67,2.50,5.60,1.41,0.00,-0.94,0.00
135534461,-4.00,1.00,4.06,-5.06,16.94,-7.19,-0.56,-0.26,-0.98,2.50,5.60,1.41,0.00,-1.00,0.00
135544846,-3.81,1.06,4.00,-5.31,18.81,-8.00,0.00,-0.43,-0.90,2.50,5.60,1.42,0.00,-1.06,0.00
135557723,-3.62,1.12,3.94,-7.06,21.38,-6.81,-0.50,-0.06,-1.12,2.50,5.60,1.42,0.00,-1.12,0.00
135567727,-3.44,1.19,3.88,-7.38,22.50,-5.94,-0.76,0.05,-1.28,2.50,5.60,1.44,0.00,-1.19,0.00
135580252,-3.00,1.38,3.75,-7.25,23.56,-6.25,-0.29,0.00,-1.30,2.50,5.60,1.44,0.00,-1.38,0.00
135590255,-2.75,1.44,3.69,-7.25,23.75,-6.19,-0.75,0.17,-1.36,2.50,5.60,1.45,0.00,-1.44,0.00
135600259,-2.50,1.50,3.62,-6.62,24.25,-7.50,-0.60,-0.10,-1.33,2.50,5.60,1.44,0.00,-1.50,0.00
135610262,-2.25,1.56,3.56,-6.56,24.88,-9.00,-0.05,-0.35,-1.41,2.50,5.60,1.46,0.00,-1.56,0.00
135620265,-2.00,1.62,3.50,-6.81,25.12,-9.56,-0.31,-0.21,-1.53,2.50,5.60,1.46,0.00,-1.62,0.00
135630269,-1.75,1.69,3.38,-7.19,24.88,-9.75,-0.22,-0.47,-1.56,2.50,5.60,1.46,0.00,-1.69,0.00
135640273,-1.50,1.75,3.31,-7.44,25.06,-9.94,0.17,-0.29,-1.81,2.50,5.60,1.47,0.00,-1.75,0.00
135650277,-1.31,1.88,3.19,-7.88,24.56,-9.50,0.91,-0.02,-2.04,2.50,5.60,1.47,0.00,-1.88,0.00
135660280,-1.06,1.94,3.12,-7.88,23.50,-7.12,-0.13,-0.71,-1.50,2.50,5.60,1.47,0.00,-1.94,0.00
135670284,-0.88,2.00,3.06,-8.75,22.00,-5.62,0.25,-0.79,-1.47,2.50,5.60,1.47,0.00,-2.00,0.00
135680288,-0.62,2.12,3.00,-9.69,20.31,-7.50,1.03,-1.46,-1.26,2.50,5.60,1.47,0.00,-2.12,0.00
135690292,-0.50,2.25,2.94,-11.38,17.94,-7.88,0.42,-1.33,-1.22,2.50,5.60,1.47,0.00,-2.25,0.00
135702852,-0.31,2.38,2.88,-13.38,15.94,-8.31,0.66,-1.16,-1.33,2.50,5.60,1.48,0.00,-2.38,0.00
135712855,-0.19,2.50,2.75,-14.44,14.44,-9.94,1.33,-1.10,-1.46,2.50,5.60,1.48,0.00,-2.50,0.00
135722859,-0.06,2.62,2.69,-15.81,12.81,-8.81,0.89,-0.89,-1.62,2.50,5.60,1.48,0.00,-2.62,0.00
135733974,0.00,2.81,2.62,-17.12,11.25,-6.44,0.24,-0.87,-1.65,2.50,5.60,1.50,0.00,-2.81,0.00
135745003,0.12,3.00,2.56,-17.88,10.25,-5.94,0.30,-1.34,-1.46,2.50,5.60,1.48,0.00,-3.00,0.00
135755415,0.19,3.19,2.50,-18.94,9.31,-6.38,0.30,-1.34,-1.46,2.50,5.60,1.50,0.00,-3.19,0.00
135765417,0.31,3.38,2.44,-20.25,8.38,-6.06,-0.42,-1.30,-1.40,2.50,5.60,1.49,0.00,-3.38,0.00
135775420,0.38,3.56,2.38,-21.62,7.75,-6.69,0.62,-1.89,-1.25,2.50,5.60,1.50,0.00,-3.56,0.00
135785702,0.44,3.81,2.31,-23.38,7.44,-8.06,0.19,-1.97,-1.22,2.50,5.60,1.50,0.00,-3.81,0.00
135796480,0.50,4.06,2.25,-25.44,6.50,-8.44,0.18,-2.13,-1.17,2.50,5.60,1.50,0.00,-4.06,0.00
135806482,0.56,4.31,2.19,-27.62,5.75,-8.44,0.18,-2.13,-1.17,2.50,5.60,1.49,0.00,-4.31,0.00
135816486,0.62,4.62,2.06,-30.06,5.62,-9.06,0.51,-2.27,-1.14,2.50,5.60,1.49,0.00,-4.62,0.00
135826491,0.69,4.94,2.00,-32.69,5.19,-9.31,-0.33,-1.66,-1.19,2.50,5.60,1.49,0.00,-4.94,0.00
135836689,0.75,5.25,1.88,-35.12,4.88,-9.81,0.11,-1.64,-1.16,2.50,5.60,1.50,0.00,-5.25,0.00
135846704,0.81,5.62,1.81,-37.38,5.12,-10.50,0.20,-1.55,-1.17,2.50,5.60,1.49,0.00,-5.62,0.00
135857819,0.88,6.00,1.69,-39.38,5.62,-11.00,0.00,-1.30,-1.11,2.50,5.60,1.49,0.00,-6.00,0.00
135867823,0.94,6.38,1.56,-41.06,5.44,-11.44,0.43,-1.42,-1.03,2.50,5.60,1.50,0.00,-6.38,0.00
135877826,1.00,6.81,1.44,-44.50,5.56,-12.56,0.44,-1.38,-1.06,2.50,5.60,1.51,0.00,-6.81,0.00
135887830,1.06,7.25,1.31,-46.06,5.62,-12.69,0.10,-1.22,-0.99,2.50,5.60,1.49,0.00,-7.25,0.00
135897833,1.12,7.69,1.19,-47.38,5.88,-13.00,0.18,-0.83,-0.97,2.50,5.60,1.49,0.00,-7.69,0.00
135907835,1.25,8.12,1.06,-47.38,5.88,-13.00,0.18,-0.83,-0.97,2.50,5.60,1.50,0.00,-8.12,0.00
135917839,1.31,8.62,0.94,-48.56,6.44,-13.25,-0.07,-0.43,-1.00,2.50,5.60,1.50,0.00,-8.62,0.00
135927844,1.38,9.06,0.81,-49.88,7.00,-13.12,-0.01,-0.39,-0.99,2.50,5.60,1.51,0.00,-9.06,0.00
135939864,1.56,10.06,0.56,-49.88,7.19,-13.00,0.62,-0.09,-1.04,2.50,5.60,1.51,0.00,-10.06,0.00
135949866,1.62,10.50,0.44,-49.88,6.69,-12.38,0.42,-0.04,-0.98,2.50,5.60,1.51,0.00,-10.50,0.00
135961113,1.75,11.00,0.31,-49.75,6.44,-11.81,0.32,-0.09,-0.97,2.50,5.60,1.50,0.00,-11.00,0.00
135971115,1.81,11.50,0.19,-49.62,6.12,-11.62,0.41,-0.20,-0.94,2.50,5.60,1.50,0.00,-11.50,0.00
135981119,1.88,11.94,0.12,-49.56,5.94,-11.38,0.35,0.25,-1.02,2.50,5.60,1.51,0.00,-11.94,0.00
135991123,2.00,12.44,0.00,-49.25,5.75,-11.00,0.40,0.10,-0.97,2.50,5.60,1.51,0.00,-12.44,0.00
136001712,2.06,12.88,-0.12,-48.88,5.38,-10.56,0.51,0.15,-0.91,2.50,5.60,1.50,0.00,-12.88,0.00
136011715,2.12,13.38,-0.25,-48.44,5.06,-10.31,0.68,0.27,-0.91,2.50,5.60,1.48,0.00,-13.38,0.00
136022599,2.19,13.81,-0.31,-47.75,4.44,-9.44,0.67,0.53,-0.81,2.50,5.60,1.49,0.00,-13.81,0.00
136032602,2.25,14.25,-0.38,-46.94,3.62,-8.50,0.57,0.47,-0.73,2.50,5.60,1.50,0.00,-14.25,0.00
136044986,2.25,14.69,-0.50,-45.94,2.62,-8.06,0.55,0.41,-0.70,2.50,5.60,1.50,0.00,-14.69,0.00
136056475,2.31,15.12,-0.56,-45.06,1.88,-7.31,0.58,0.48,-0.69,2.50,5.60,1.50,0.00,-15.12,0.00
136067404,2.31,15.56,-0.62,-44.25,1.00,-6.81,0.19,0.34,-0.58,2.50,5.60,1.51,0.00,-15.56,0.00
136077408,2.38,16.00,-0.69,-43.38,0.38,-6.81,0.35,0.41,-0.48,2.50,5.60,1.50,0.00,-16.00,0.00
136090821,2.44,16.88,-0.88,-41.81,-0.31,-6.75,0.29,0.40,-0.44,2.50,5.60,1.51,0.00,-16.88,0.00
136100824,2.44,17.25,-0.94,-41.06,-1.00,-7.25,0.10,0.45,-0.36,2.50,5.60,1.49,0.00,-17.25,0.00
136112264,2.44,17.62,-1.06,-40.31,-1.25,-8.06,0.24,0.47,-0.36,2.50,5.60,1.50,0.00,-17.62,0.00
136122266,2.44,18.00,-1.12,-39.31,-1.25,-8.44,0.20,0.37,-0.31,2.50,5.60,1.50,0.00,-18.00,0.00
136132270,2.50,18.38,-1.25,-38.56,-1.44,-9.06,-0.02,0.22,-0.26,2.50,5.60,1.50,0.00,-18.38,0.00
136142273,2.50,18.75,-1.31,-38.00,-1.44,-9.44,-0.04,0.01,-0.13,2.50,5.60,1.51,0.00,-18.75,0.00
136152276,2.50,19.12,-1.44,-37.69,-1.25,-9.31,-0.11,-0.06,-0.11,2.50,5.60,1.51,0.00,-19.12,0.00
136162280,2.56,19.44,-1.50,-37.38,-1.00,-8.94,-0.26,-0.19,-0.10,2.50,5.60,1.52,0.00,-19.44,0.00
136172283,2.56,19.81,-1.62,-37.50,-0.81,-8.94,-0.42,-0.29,-0.04,2.50,5.60,1.51,0.00,-19.81,0.00
136182288,2.56,20.19,-1.69,-37.62,-0.12,-8.44,-0.05,-0.11,-0.09,2.50,5.60,1.51,0.00,-20.19,0.00
136192292,2.62,20.56,-1.81,-38.12,0.50,-7.81,-0.31,-0.16,-0.02,2.50,5.60,1.50,0.00,-20.56,0.00
136202297,2.62,20.88,-1.88,-38.50,0.75,-7.38,-0.26,-0.16,-0.05,2.50,5.60,1.51,0.00,-20.88,0.00
136212299,2.69,21.25,-1.94,-38.94,1.31,-7.31,-0.16,0.00,-0.06,2.50,5.60,1.51,0.00,-21.25,0.00
136222303,2.69,21.62,-2.00,-38.88,1.75,-6.88,-0.39,-0.03,-0.06,2.50,5.60,1.51,0.00,-21.62,0.00
136232307,2.75,22.00,-2.12,-38.94,2.00,-6.56,-0.37,-0.15,-0.05,2.50,5.60,1.52,0.00,-22.00,0.00
136242311,2.81,22.38,-2.19,-39.06,3.00,-6.31,-0.30,-0.07,-0.04,2.50,5.60,1.52,0.00,-22.38,0.00
136252314,2.88,22.75,-2.25,-39.19,3.62,-6.12,-0.49,-0.11,0.00,2.50,5.60,1.52,0.00,-22.75,0.00
136263349,2.94,23.19,-2.31,-38.94,4.12,-6.06,-0.33,-0.09,0.00,2.50,5.60,1.53,0.00,-23.19,0.00
136273354,2.94,23.50,-2.31,-39.06,4.56,-6.12,-0.24,-0.15,0.03,2.50,5.60,1.53,0.00,-23.50,0.00
136283759,3.00,23.88,-2.38,-39.00,5.06,-6.38,-0.32,-0.18,0.04,2.50,5.60,1.53,0.00,-23.88,0.00
136293762,3.06,24.25,-2.44,-39.25,5.44,-6.50,0.03,0.03,0.04,2.50,5.60,1.54,0.00,-24.25,0.000
136305190,3.12,24.62,-2.50,-39.31,5.81,-6.31,0.01,0.02,0.10,2.50,5.60,1.54,0.00,-24.62,0.000
136315194,3.25,25.00,-2.56,-39.19,5.69,-7.00,0.02,0.16,0.04,2.50,5.60,1.54,0.00,-25.00,0.000
136325197,3.31,25.38,-2.62,-39.19,5.69,-7.00,0.17,0.35,0.03,2.50,5.60,1.54,0.00,-25.38,0.000
136336357,3.38,25.75,-2.69,-38.38,5.44,-6.19,-0.01,0.00,0.17,2.50,5.60,1.55,0.00,-25.75,0.00
136347388,3.44,26.12,-2.75,-38.31,5.44,-5.56,-0.09,0.04,0.20,2.50,5.60,1.54,0.00,-26.12,0.00
136358181,3.50,26.50,-2.81,-38.19,5.56,-5.19,-0.09,0.04,0.20,2.50,5.60,1.56,0.00,-26.50,0.00
136368705,3.62,26.88,-2.88,-38.00,5.12,-5.12,0.05,-0.02,0.24,2.50,5.60,1.55,0.00,-26.88,0.00
136378709,3.69,27.25,-2.94,-38.12,4.88,-5.62,0.12,0.10,0.08,2.50,5.60,1.56,0.00,-27.25,0.00
136391739,3.81,27.94,-3.06,-37.81,4.12,-7.31,0.34,0.18,0.06,2.50,5.60,1.56,0.00,-27.94,0.00
136401744,3.88,28.31,-3.12,-37.62,3.56,-7.81,0.07,0.13,0.08,2.50,5.60,1.57,0.00,-28.31,0.00
136412776,3.94,28.69,-3.25,-37.31,3.62,-8.06,-0.03,0.36,0.03,2.50,5.60,1.57,0.00,-28.69,0.00
136422790,4.00,29.00,-3.31,-36.88,3.62,-8.19,-0.13,0.44,0.00,2.50,5.60,1.57,0.00,-29.00,0.00
136432794,4.06,29.38,-3.38,-36.25,3.56,-8.69,-0.30,0.33,0.05,2.50,5.60,1.57,0.00,-29.38,0.00
136442799,4.12,29.69,-3.50,-35.69,3.50,-9.56,-0.44,0.50,0.01,2.50,5.60,1.57,0.00,-29.69,0.00
136452802,4.25,30.06,-3.62,-35.00,3.81,-10.06,-0.04,0.64,0.02,2.50,5.60,1.58,0.00,-30.06,0.00
136462806,4.31,30.38,-3.69,-33.94,3.50,-10.12,-0.16,0.74,0.03,2.50,5.60,1.58,0.00,-30.38,0.00
136472810,4.38,30.69,-3.81,-33.12,3.81,-10.00,-0.22,0.71,0.02,2.50,5.60,1.58,0.00,-30.69,0.00
136482813,4.50,31.00,-3.88,-32.00,4.19,-9.62,-0.02,0.59,0.00,2.50,5.60,1.59,0.00,-31.00,0.00
136492815,4.56,31.31,-4.00,-31.44,4.38,-9.19,-0.03,0.40,0.04,2.50,5.60,1.59,0.00,-31.31,0.00
136502819,4.62,31.62,-4.06,-31.19,4.44,-9.06,-0.21,0.26,0.07,2.50,5.60,1.59,0.00,-31.62,0.00
136512822,4.69,31.88,-4.19,-30.94,4.88,-9.25,-0.19,0.25,0.03,2.50,5.60,1.59,0.00,-31.88,0.00
136522825,4.81,32.19,-4.25,-30.44,5.19,-9.56,-0.12,0.27,0.10,2.50,5.60,1.60,0.00,-32.19,0.00
136532830,4.88,32.50,-4.31,-30.25,5.31,-9.81,-0.31,0.60,-0.04,2.50,5.60,1.60,0.00,-32.50,0.00
136542833,5.00,32.81,-4.44,-29.56,5.69,-9.94,-0.17,0.70,-0.04,2.50,5.60,1.61,0.00,-32.81,0.00
136552837,5.06,33.06,-4.50,-28.69,5.94,-9.38,0.00,0.68,0.00,2.50,5.60,1.61,0.00,-33.06,0.000
136562839,5.19,33.31,-4.56,-27.88,6.06,-8.50,0.03,0.62,0.00,2.50,5.60,1.61,0.00,-33.31,0.000
136572842,5.25,33.62,-4.69,-27.25,6.38,-7.88,-0.08,0.59,0.04,2.50,5.60,1.61,0.00,-33.62,0.00
136582846,5.38,33.88,-4.75,-26.62,6.25,-7.81,0.02,0.40,0.08,2.50,5.60,1.63,0.00,-33.88,0.00
136592851,5.44,34.12,-4.81,-25.94,6.19,-7.81,0.00,0.43,0.07,2.50,5.60,1.62,0.00,-34.12,0.00
136602854,5.56,34.38,-4.88,-25.38,6.00,-8.25,-0.02,0.53,0.05,2.50,5.60,1.63,0.00,-34.38,0.00
136612857,5.62,34.62,-4.94,-24.56,5.81,-9.00,-0.04,0.65,-0.02,2.50,5.60,1.63,0.00,-34.62,0.00
136622861,5.75,34.88,-5.06,-23.62,5.94,-9.56,0.00,0.86,-0.08,2.50,5.60,1.63,0.00,-34.88,0.00
136632865,5.81,35.06,-5.12,-22.31,5.75,-9.62,0.03,1.12,-0.13,2.50,5.60,1.65,0.00,-35.06,0.00
136642869,5.94,35.25,-5.25,-20.50,5.38,-9.88,0.06,1.42,-0.18,2.50,5.60,1.64,0.00,-35.25,0.00
136652874,6.00,35.44,-5.31,-18.12,5.06,-10.00,0.16,1.86,-0.37,2.50,5.60,1.65,0.00,-35.44,0.00
136662878,6.12,35.56,-5.38,-15.31,5.19,-9.56,0.19,2.00,-0.47,2.50,5.60,1.64,0.00,-35.56,0.00
136672895,6.19,35.69,-5.50,-12.12,4.56,-9.19,0.24,2.07,-0.47,2.50,5.60,1.64,0.00,-35.69,0.00
136682897,6.31,35.75,-5.56,-8.88,3.94,-8.94,0.25,2.13,-0.52,2.50,5.60,1.65,0.00,-35.75,0.00
136692899,6.38,35.81,-5.62,-5.50,3.62,-8.25,0.56,2.12,-0.47,2.50,5.60,1.65,0.00,-35.81,0.00
136705153,6.44,35.81,-5.69,-2.38,3.00,-7.50,0.70,2.22,-0.51,2.50,5.60,1.64,0.00,-35.81,0.00
136715157,6.50,35.81,-5.75,1.06,2.31,-6.50,0.69,2.16,-0.50,2.50,5.60,1.65,0.00,-35.81,0.00
136726569,6.50,35.75,-5.81,4.44,1.69,-5.44,0.78,2.10,-0.46,2.50,5.60,1.64,0.00,-35.75,0.00
136737282,6.56,35.69,-5.81,7.62,0.94,-4.25,0.89,2.17,-0.46,2.50,5.60,1.63,0.00,-35.69,0.00
136748399,6.56,35.56,-5.88,10.75,0.19,-3.12,0.81,2.01,-0.41,2.50,5.60,1.63,0.00,-35.56,0.00
136759705,6.56,35.44,-5.88,14.06,-0.62,-1.88,0.77,1.97,-0.37,2.50,5.60,1.63,0.00,-35.44,0.00
136769708,6.56,35.25,-5.88,17.25,-1.25,-0.69,0.81,1.96,-0.34,2.50,5.60,1.62,0.00,-35.25,0.00
136779712,6.56,35.06,-5.88,20.19,-2.06,0.75,0.69,1.76,-0.32,2.50,5.60,1.61,0.00,-35.06,0.00
136789715,6.50,34.88,-5.81,22.88,-2.81,2.38,0.76,1.77,-0.35,2.50,5.60,1.61,0.00,-34.88,0.00
136800255,6.50,34.62,-5.81,25.56,-3.31,3.81,0.76,1.75,-0.38,2.50,5.60,1.60,0.00,-34.62,0.00
136810350,6.44,34.31,-5.75,28.56,-4.06,5.38,0.76,1.75,-0.38,2.50,5.60,1.60,0.00,-34.31,0.00
136820354,6.31,34.06,-5.62,31.06,-4.69,6.75,0.53,1.60,-0.43,2.50,5.60,1.60,0.00,-34.06,0.00
136830357,6.25,33.69,-5.56,33.81,-5.06,7.75,0.56,1.31,-0.36,2.50,5.60,1.59,0.00,-33.69,0.00
136840361,6.19,33.38,-5.50,36.25,-5.44,8.75,0.39,1.05,-0.28,2.50,5.60,1.59,0.00,-33.38,0.00
136850413,6.06,33.00,-5.38,38.31,-5.88,9.00,0.31,0.70,-0.14,2.50,5.60,1.58,0.00,-33.00,0.00
136860442,5.94,32.62,-5.31,39.94,-6.31,9.00,0.31,0.70,-0.14,2.50,5.60,1.58,0.00,-32.62,0.00
136870444,5.88,32.25,-5.19,41.19,-6.88,8.94,0.32,0.51,-0.13,2.50,5.60,1.57,0.00,-32.25,0.00
136880447,5.75,31.81,-5.12,42.50,-6.94,8.75,0.17,0.49,-0.21,2.50,5.60,1.57,0.00,-31.81,0.00
136890449,5.62,31.38,-5.06,43.44,-7.25,9.25,0.15,0.28,-0.21,2.50,5.60,1.56,0.00,-31.38,0.00
136900709,5.56,31.00,-4.94,44.50,-7.25,9.69,0.02,0.30,-0.22,2.50,5.60,1.56,0.00,-31.00,0.00
136912920,5.44,30.56,-4.81,45.06,-7.56,10.06,0.02,0.30,-0.22,2.50,5.60,1.56,0.00,-30.56,0.00
136922922,5.31,30.12,-4.75,46.69,-7.81,9.50,0.00,0.16,-0.14,2.50,5.60,1.56,0.00,-30.12,0.00
136933774,5.12,29.19,-4.56,47.19,-7.62,9.00,0.04,0.08,-0.12,2.50,5.60,1.55,0.00,-29.19,0.00
136943778,5.00,28.75,-4.44,47.44,-7.81,8.69,0.07,0.12,-0.08,2.50,5.60,1.54,0.00,-28.75,0.00
136953782,4.88,28.25,-4.38,48.00,-7.81,8.50,0.10,0.02,-0.06,2.50,5.60,1.54,0.00,-28.25,0.00
136963785,4.88,28.25,-4.38,48.12,-7.56,8.88,0.01,0.02,-0.04,2.50,5.60,1.52,0.00,-28.25,0.00
136973789,4.81,27.81,-4.31,48.50,-7.50,9.00,-0.14,0.13,-0.13,2.50,5.60,1.51,0.00,-27.81,0.00
136983793,4.56,26.88,-4.12,49.06,-7.44,8.88,-0.21,0.05,-0.15,2.50,5.60,1.51,0.00,-26.88,0.00
136993934,4.50,26.38,-4.00,49.38,-7.50,8.38,-0.27,0.00,-0.18,2.50,5.60,1.50,0.00,-26.38,0.00
137003937,4.38,25.94,-3.94,49.62,-7.44,7.69,-0.15,-0.02,-0.22,2.50,5.60,1.50,0.00,-25.94,0.00
137014762,4.38,25.94,-3.94,49.62,-7.50,7.38,-0.01,-0.06,-0.20,2.50,5.60,1.50,0.00,-25.94,0.00
137024766,4.19,24.94,-3.81,49.69,-7.56,7.44,-0.01,-0.01,-0.21,2.50,5.60,1.49,0.00,-24.94,0.00
137035394,4.06,24.50,-3.75,49.88,-7.56,7.94,0.15,0.12,-0.26,2.50,5.60,1.50,0.00,-24.50,0.000
137045397,4.00,24.00,-3.62,50.12,-7.81,8.69,0.27,0.24,-0.27,2.50,5.60,1.48,0.00,-24.00,0.000
137055401,3.88,23.50,-3.56,50.56,-8.12,9.44,0.23,0.06,-0.10,2.50,5.60,1.48,0.00,-23.50,0.000
137065404,3.75,23.06,-3.44,50.81,-8.25,10.00,0.29,0.02,-0.06,2.50,5.60,1.47,0.00,-23.06,0.00
137075408,3.69,22.56,-3.38,50.88,-8.69,10.25,0.36,-0.07,-0.02,2.50,5.60,1.47,0.00,-22.56,0.00
137085412,3.56,22.06,-3.25,50.88,-9.00,10.69,0.32,-0.10,-0.06,2.50,5.60,1.47,0.00,-22.06,0.00
137095416,3.44,21.56,-3.12,50.81,-9.38,11.12,0.19,-0.17,-0.05,2.50,5.60,1.47,0.00,-21.56,0.00
137105420,3.31,21.06,-3.00,50.56,-9.56,11.56,0.14,-0.07,-0.13,2.50,5.60,1.47,0.00,-21.06,0.00
137115424,3.19,20.62,-2.94,50.44,-9.62,12.00,0.01,0.00,-0.19,2.50,5.60,1.46,0.00,-20.62,0.00
137125428,3.00,20.12,-2.81,50.62,-9.62,12.00,-0.09,0.00,-0.25,2.50,5.60,1.46,0.00,-20.12,0.00
137135432,2.88,19.62,-2.69,50.88,-9.69,11.88,0.11,0.03,-0.26,2.50,5.60,1.46,0.00,-19.62,0.000
137145437,2.75,19.12,-2.56,51.25,-9.81,11.62,0.08,-0.02,-0.19,2.50,5.60,1.46,0.00,-19.12,0.00
137155442,2.62,18.62,-2.50,51.25,-9.44,11.38,0.01,-0.17,-0.13,2.50,5.60,1.44,0.00,-18.62,0.00
137165446,2.50,18.19,-2.38,51.12,-9.56,10.88,-0.01,-0.38,-0.07,2.50,5.60,1.45,0.00,-18.19,0.00
137175451,2.44,17.69,-2.25,50.88,-9.44,10.38,-0.20,-0.34,-0.13,2.50,5.60,1.44,0.00,-17.69,0.00
137185454,2.31,17.19,-2.19,50.44,-9.38,9.88,-0.38,-0.28,-0.21,2.50,5.60,1.45,0.00,-17.19,0.00
137195458,2.19,16.69,-2.06,50.19,-8.62,9.69,-0.45,-0.06,-0.30,2.50,5.60,1.44,0.00,-16.69,0.00
137205460,2.06,16.19,-2.00,50.12,-8.25,9.38,-0.64,0.12,-0.38,2.50,5.60,1.44,0.00,-16.19,0.00
137215464,2.00,15.75,-1.94,50.62,-7.56,8.94,-0.73,0.12,-0.35,2.50,5.60,1.44,0.00,-15.75,0.00
137225466,1.88,15.25,-1.81,51.12,-6.75,8.50,-0.47,0.09,-0.33,2.50,5.60,1.44,0.00,-15.25,0.00
137235469,1.81,14.75,-1.75,51.69,-6.00,8.38,-0.41,0.07,-0.39,2.50,5.60,1.44,0.00,-14.75,0.00
137245478,1.75,14.25,-1.69,51.94,-5.31,8.25,-0.54,-0.39,-0.25,2.50,5.60,1.43,0.00,-14.25,0.00
137255483,1.69,13.75,-1.56,51.69,-4.25,8.12,-0.51,-0.37,-0.26,2.50,5.60,1.43,0.00,-13.75,0.00
137265488,1.62,13.25,-1.50,51.31,-3.50,8.12,-0.47,-0.40,-0.28,2.50,5.60,1.42,0.00,-13.25,0.00
137275493,1.62,12.75,-1.44,51.00,-2.56,8.44,-0.65,-0.41,-0.33,2.50,5.60,1.43,0.00,-12.75,0.00
137285497,1.56,12.25,-1.31,50.31,-1.50,8.62,-0.62,-0.31,-0.37,2.50,5.60,1.43,0.00,-12.25,0.00
137295501,1.56,11.81,-1.25,49.94,-0.50,8.75,-0.60,-0.23,-0.33,2.50,5.60,1.43,0.00,-11.81,0.00
137305504,1.56,11.31,-1.12,49.69,0.56,9.31,-0.53,-0.18,-0.35,2.50,5.60,1.43,0.00,-11.31,0.00
137315509,1.56,10.81,-1.06,49.44,1.38,9.56,-0.54,-0.13,-0.26,2.50,5.60,1.43,0.00,-10.81,0.00
137325512,1.56,10.38,-0.94,49.19,2.12,9.31,-0.33,-0.42,-0.13,2.50,5.60,1.42,0.00,-10.38,0.00
137335514,1.56,9.88,-0.88,49.00,2.62,9.00,-0.24,-0.44,-0.13,2.50,5.60,1.42,0.00,-9.88,0.000
137345517,1.56,9.44,-0.75,48.12,3.31,9.06,-0.34,-0.53,-0.13,2.50,5.60,1.43,0.00,-9.44,0.000
137355519,1.56,8.94,-0.69,47.44,3.69,8.62,-0.27,-0.59,-0.12,2.50,5.60,1.42,0.00,-8.94,0.000
137365522,1.56,8.94,-0.69,46.62,4.31,8.75,-0.06,-0.47,-0.24,2.50,5.60,1.42,0.00,-8.94,0.000
137375525,1.62,8.50,-0.56,46.12,4.56,8.81,-0.07,-0.33,-0.27,2.50,5.60,1.42,0.00,-8.50,0.000
137385528,1.62,8.06,-0.44,45.44,4.75,9.06,-0.19,-0.31,-0.28,2.50,5.60,1.42,0.00,-8.06,0.000
137395531,1.69,7.62,-0.38,45.19,5.12,8.62,-0.10,-0.30,-0.25,2.50,5.60,1.42,0.00,-7.62,0.000
137405535,1.69,7.19,-0.25,44.81,5.00,8.00,-0.09,-0.16,-0.19,2.50,5.60,1.42,0.00,-7.19,0.000
137415539,1.75,6.75,-0.19,44.94,4.94,7.56,-0.05,-0.21,-0.17,2.50,5.60,1.43,0.00,-6.75,0.000
137425543,1.81,6.31,-0.12,44.69,4.88,6.81,0.08,-0.21,-0.25,2.50,5.60,1.43,0.00,-6.31,0.000
137435546,1.81,5.88,0.00,44.50,4.50,6.00,0.18,-0.19,-0.31,2.50,5.60,1.43,0.00,-5.88,0.000
137445550,1.88,5.44,0.06,44.44,4.25,5.50,0.31,-0.32,-0.36,2.50,5.60,1.42,0.00,-5.44,-0.000
137455554,1.88,5.06,0.12,44.06,3.88,5.38,0.33,-0.22,-0.37,2.50,5.60,1.42,0.00,-5.06,-0.000
137465902,1.94,4.62,0.19,43.88,3.56,5.12,0.35,-0.02,-0.40,2.50,5.60,1.43,0.00,-4.62,-0.000
137475906,2.00,4.19,0.25,43.94,3.25,5.44,0.36,0.17,-0.37,2.50,5.60,1.43,0.00,-4.19,-0.000
137486153,2.00,3.31,0.38,44.31,2.69,6.12,0.30,0.33,-0.39,2.50,5.60,1.43,0.00,-3.31,-0.000
137496158,2.06,2.94,0.44,44.69,1.81,6.69,0.41,0.48,-0.41,2.50,5.60,1.43,0.00,-2.94,-0.000
137506163,2.06,2.50,0.50,45.31,1.38,7.38,0.45,0.48,-0.45,2.50,5.60,1.43,0.00,-2.50,-0.000
137516166,2.06,2.50,0.50,46.06,0.75,7.94,0.54,0.36,-0.51,2.50,5.60,1.43,0.00,-2.50,-0.000
137526169,2.06,2.00,0.56,46.62,-0.06,8.50,0.61,0.35,-0.58,2.50,5.60,1.44,0.00,-2.00,-0.000
137536171,2.12,1.62,0.69,47.19,-0.81,9.06,0.66,0.21,-0.66,2.50,5.60,1.44,0.00,-1.62,-0.000
137546173,2.12,1.19,0.75,47.81,-1.56,9.62,0.65,0.24,-0.70,2.50,5.60,1.44,0.00,-1.19,-0.000
137556177,2.12,0.75,0.88,48.31,-2.31,10.31,0.47,0.34,-0.68,2.50,5.60,1.45,0.00,-0.75,-0.000
137566180,2.06,0.25,1.00,49.06,-3.19,10.50,0.45,0.25,-0.65,2.50,5.60,1.45,0.00,-0.25,-0.000
137576183,2.06,-0.12,1.12,49.69,-3.69,11.31,0.44,0.33,-0.67,2.50,5.60,1.46,0.00,0.12,-0.000
137586187,2.00,-0.62,1.19,50.25,-4.31,11.69,0.38,0.30,-0.65,2.50,5.60,1.46,0.00,0.62,-0.000
137596191,1.94,-1.12,1.31,50.94,-5.06,11.81,0.33,0.28,-0.66,2.50,5.60,1.47,0.00,1.12,-0.000
137609386,1.88,-2.06,1.56,51.56,-5.62,11.75,0.40,0.15,-0.77,2.50,5.60,1.47,0.00,2.06,-0.000
137621940,1.81,-2.56,1.69,52.19,-6.44,11.25,0.27,0.14,-0.76,2.50,5.60,1.47,0.00,2.56,-0.000
137634377,1.75,-3.12,1.81,52.81,-7.12,10.69,0.32,0.11,-0.90,2.50,5.60,1.48,0.00,3.12,-0.000
137648712,1.62,-4.12,2.00,53.75,-8.19,9.00,0.25,-0.19,-0.92,2.50,5.60,1.48,0.00,4.12,-0.000
137658716,1.50,-4.62,2.12,53.88,-8.50,8.44,0.26,-0.36,-0.90,2.50,5.60,1.51,0.00,4.62,-0.000
137670345,1.44,-5.19,2.19,53.50,-8.88,7.94,0.39,-0.54,-0.80,2.50,5.60,1.49,0.00,5.19,-0.000
137680348,1.38,-5.69,2.31,52.88,-9.31,7.62,0.34,-0.72,-0.70,2.50,5.60,1.50,0.00,5.69,-0.000
137691377,1.25,-6.19,2.38,51.88,-9.94,7.25,0.12,-1.00,-0.65,2.50,5.60,1.50,0.00,6.19,-0.000
137702885,1.19,-6.69,2.44,50.56,-10.44,6.50,0.19,-1.05,-0.57,2.50,5.60,1.53,0.00,6.69,-0.00
137714707,1.06,-7.12,2.50,48.88,-10.75,5.69,0.17,-1.02,-0.52,2.50,5.60,1.52,0.00,7.12,-0.00
137724712,1.00,-7.56,2.56,47.44,-11.12,4.88,0.02,-0.88,-0.48,2.50,5.60,1.52,0.00,7.56,-0.00
137734722,0.88,-8.06,2.62,46.06,-11.44,4.25,0.07,-0.84,-0.29,2.50,5.60,1.53,0.00,8.06,-0.00
137744969,0.75,-8.50,2.69,44.88,-11.31,4.25,-0.05,-0.75,-0.28,2.50,5.60,1.54,0.00,8.50,-0.00
137754971,0.69,-8.88,2.75,43.81,-11.50,4.31,0.01,-0.74,-0.30,2.50,5.60,1.53,0.00,8.88,-0.00
137765023,0.56,-9.31,2.81,42.50,-11.88,4.56,0.01,-0.74,-0.30,2.50,5.60,1.53,0.00,9.31,-0.00
137775026,0.44,-9.69,2.81,41.25,-11.75,4.62,0.11,-1.12,-0.27,2.50,5.60,1.53,0.00,9.69,-0.00
137785029,0.38,-10.06,2.88,39.56,-11.81,4.81,0.13,-0.67,-0.39,2.50,5.60,1.54,0.00,10.06,-0.00
137795032,0.25,-10.44,2.94,37.94,-11.88,4.94,0.19,-0.54,-0.38,2.50,5.60,1.55,0.00,10.44,-0.00
137805080,0.12,-10.81,3.00,36.94,-11.81,5.56,0.19,-0.14,-0.46,2.50,5.60,1.55,0.00,10.81,-0.00
137815177,0.06,-11.19,3.06,36.25,-11.81,5.81,0.19,-0.14,-0.46,2.50,5.60,1.55,0.00,11.19,-0.00
137825928,0.00,-11.50,3.19,35.88,-11.62,6.44,0.10,-0.29,-0.44,2.50,5.60,1.55,0.00,11.50,-0.00
137835932,-0.06,-11.88,3.25,35.25,-11.12,7.12,-0.01,-0.12,-0.47,2.50,5.60,1.56,0.00,11.88,-0.00
137847400,-0.19,-12.19,3.31,34.88,-10.75,7.44,-0.01,-0.05,-0.48,2.50,5.60,1.56,0.00,12.19,-0.00
137857403,-0.25,-12.56,3.38,35.12,-10.69,7.44,-0.15,0.09,-0.51,2.50,5.60,1.56,0.00,12.56,-0.00
137867407,-0.38,-12.88,3.50,35.12,-10.69,7.44,-0.28,0.25,-0.55,2.50,5.60,1.58,0.00,12.88,-0.00
137877411,-0.44,-13.25,3.56,35.38,-9.81,7.25,-0.34,0.31,-0.53,2.50,5.60,1.57,0.00,13.25,-0.00
137887415,-0.50,-13.56,3.62,35.69,-9.56,6.88,-0.36,0.10,-0.47,2.50,5.60,1.58,0.00,13.56,-0.00
137897589,-0.56,-13.94,3.75,35.69,-9.25,6.88,-0.47,0.17,-0.46,2.50,5.60,1.58,0.00,13.94,-0.00
137907592,-0.62,-14.25,3.81,35.88,-8.75,7.06,-0.44,0.34,-0.47,2.50,5.60,1.59,0.00,14.25,-0.00
137917596,-0.69,-14.62,3.88,35.88,-8.19,7.44,-0.22,0.16,-0.47,2.50,5.60,1.59,0.00,14.62,-0.00
137927599,-0.75,-14.94,3.94,35.69,-7.88,7.75,-0.43,0.08,-0.50,2.50,5.60,1.59,0.00,14.94,-0.00
137937602,-0.81,-15.31,4.06,35.62,-7.62,7.94,-0.23,-0.01,-0.49,2.50,5.60,1.60,0.00,15.31,-0.00
137947605,-0.88,-15.62,4.12,35.38,-6.81,8.12,-0.16,0.00,-0.46,2.50,5.60,1.60,0.00,15.62,-0.00
137957608,-0.94,-16.00,4.19,35.06,-6.56,8.25,-0.26,-0.09,-0.42,2.50,5.60,1.60,0.00,16.00,-0.00
137967612,-0.94,-16.31,4.31,34.50,-6.25,8.44,-0.30,0.02,-0.43,2.50,5.60,1.61,0.00,16.31,-0.00
137977616,-1.00,-16.69,4.38,34.38,-5.94,8.19,-0.35,0.09,-0.46,2.50,5.60,1.60,0.00,16.69,-0.00
137987619,-1.00,-17.00,4.50,34.19,-5.50,8.00,-0.42,0.07,-0.47,2.50,5.60,1.61,0.00,17.00,-0.00
137997621,-1.06,-17.31,4.56,33.94,-5.12,7.62,-0.22,0.04,-0.52,2.50,5.60,1.62,0.00,17.31,-0.00
138008149,-1.06,-17.69,4.62,33.75,-4.62,7.56,-0.14,-0.06,-0.47,2.50,5.60,1.62,0.00,17.69,-0.00
138018152,-1.12,-18.00,4.69,33.38,-4.31,7.62,-0.16,-0.22,-0.39,2.50,5.60,1.62,0.00,18.00,-0.00
138028519,-1.12,-18.31,4.81,32.69,-4.06,8.19,0.00,-0.13,-0.40,2.50,5.60,1.62,0.00,18.31,-0.00
138038523,-1.12,-18.62,4.88,32.00,-3.62,8.75,0.14,-0.01,-0.45,2.50,5.60,1.63,0.00,18.62,-0.00
138048860,-1.12,-19.25,5.06,31.50,-3.69,9.25,0.00,0.18,-0.50,2.50,5.60,1.63,0.00,19.25,-0.00
138058863,-1.12,-19.56,5.12,31.25,-3.75,9.75,0.07,0.31,-0.56,2.50,5.60,1.63,0.00,19.56,-0.00
138068865,-1.12,-19.88,5.25,31.25,-3.69,9.75,0.11,0.46,-0.64,2.50,5.60,1.64,0.00,19.88,-0.00
138078868,-1.12,-20.19,5.31,31.56,-3.50,9.94,0.12,0.18,-0.62,2.50,5.60,1.64,0.00,20.19,-0.00
138088872,-1.12,-20.50,5.44,31.94,-3.75,9.88,0.11,0.08,-0.62,2.50,5.60,1.64,0.00,20.50,-0.00
138098877,-1.12,-20.81,5.56,31.94,-3.81,10.44,0.11,0.00,-0.55,2.50,5.60,1.65,0.00,20.81,-0.00
138108880,-1.12,-21.12,5.62,31.56,-3.94,10.62,0.09,0.08,-0.55,2.50,5.60,1.66,0.00,21.12,-0.00
138118882,-1.12,-21.12,5.62,31.12,-4.00,10.62,0.15,0.16,-0.61,2.50,5.60,1.67,0.00,21.12,-0.00
138129249,-1.12,-21.69,5.88,30.88,-4.38,10.50,0.06,0.36,-0.70,2.50,5.60,1.66,0.00,21.69,-0.00
138139252,-1.12,-22.00,5.94,30.94,-4.50,9.88,0.32,0.35,-0.71,2.50,5.60,1.66,0.00,22.00,-0.00
138150860,-1.12,-22.31,6.06,31.00,-4.75,9.44,0.36,0.35,-0.68,2.50,5.60,1.67,0.00,22.31,-0.00
138160863,-1.12,-22.62,6.19,31.50,-5.12,8.81,0.37,0.19,-0.67,2.50,5.60,1.68,0.00,22.62,-0.00
138171716,-1.19,-22.94,6.25,31.62,-5.44,7.94,0.44,0.15,-0.64,2.50,5.60,1.69,0.00,22.94,-0.00
138181720,-1.19,-23.25,6.31,31.44,-5.94,7.25,0.40,0.17,-0.61,2.50,5.60,1.69,0.00,23.25,-0.00
138191723,-1.25,-23.56,6.38,31.38,-6.38,6.12,0.27,0.18,-0.70,2.50,5.60,1.70,0.00,23.56,-0.00
138201726,-1.25,-23.81,6.44,31.00,-6.94,5.00,0.16,0.12,-0.76,2.50,5.60,1.71,0.00,23.81,-0.00
138211730,-1.31,-24.12,6.50,30.81,-7.56,4.00,0.10,0.17,-0.74,2.50,5.60,1.71,0.00,24.12,-0.00
138221734,-1.38,-24.44,6.56,30.56,-7.75,3.44,0.07,0.15,-0.68,2.50,5.60,1.72,0.00,24.44,-0.00
138232433,-1.44,-24.75,6.62,30.44,-8.12,3.25,0.14,0.09,-0.62,2.50,5.60,1.73,0.00,24.75,-0.00
138242437,-1.50,-25.00,6.62,30.19,-8.31,3.12,0.08,-0.20,-0.52,2.50,5.60,1.73,0.00,25.00,-0.00
138253419,-1.56,-25.31,6.69,29.69,-8.50,3.19,0.06,-0.20,-0.54,2.50,5.60,1.73,0.00,25.31,-0.00
138263804,-1.62,-25.62,6.75,28.94,-8.50,3.44,0.02,-0.17,-0.59,2.50,5.60,1.74,0.00,25.62,-0.00
138273806,-1.69,-25.88,6.81,28.12,-8.50,3.31,-0.12,-0.21,-0.62,2.50,5.60,1.75,0.00,25.88,-0.00
138287040,-1.75,-26.12,6.81,27.38,-8.50,3.25,-0.19,-0.32,-0.66,2.50,5.60,1.75,0.00,26.12,-0.00
138297044,-1.81,-26.38,6.88,26.56,-8.50,3.31,-0.27,-0.44,-0.59,2.50,5.60,1.75,0.00,26.38,-0.00
138308460,-1.88,-26.62,6.94,25.25,-7.88,3.94,-0.34,-0.45,-0.56,2.50,5.60,1.77,0.00,26.62,-0.00
138318464,-1.88,-26.88,7.00,25.25,-7.88,3.94,-0.34,-0.45,-0.56,2.50,5.60,1.77,0.00,26.88,-0.00
138328467,-1.94,-27.12,7.00,23.38,-6.94,3.62,-0.57,-0.84,-0.45,2.50,5.60,1.77,0.00,27.12,-0.00
138338470,-2.00,-27.38,7.06,22.25,-6.56,2.81,-0.63,-0.91,-0.42,2.50,5.60,1.78,0.00,27.38,-0.00
138348472,-2.00,-27.56,7.12,20.81,-6.19,1.81,-0.68,-1.03,-0.40,2.50,5.60,1.77,0.00,27.56,-0.00
138358476,-2.06,-27.81,7.12,19.12,-5.56,0.75,-0.76,-1.24,-0.26,2.50,5.60,1.78,0.00,27.81,-0.00
138368479,-2.12,-28.00,7.19,19.12,-5.56,0.75,-0.76,-1.35,-0.19,2.50,5.60,1.78,0.00,28.00,-0.00
138378483,-2.19,-28.12,7.19,17.38,-4.94,0.12,-0.62,-1.57,-0.11,2.50,5.60,1.78,0.00,28.12,-0.00
138388486,-2.19,-28.31,7.19,13.00,-3.44,-0.75,-0.51,-1.78,0.00,2.50,5.60,1.78,0.00,28.31,0.00
138398490,-2.25,-28.44,7.19,10.38,-2.94,-0.69,-0.41,-2.16,0.19,2.50,5.60,1.78,0.00,28.44,0.00
138408493,-2.25,-28.50,7.19,7.19,-2.19,-0.69,-0.38,-2.39,0.29,2.50,5.60,1.77,0.00,28.50,0.00
138420862,-2.31,-28.62,7.19,3.56,-1.31,-0.50,-0.35,-2.47,0.36,2.50,5.60,1.77,0.00,28.62,0.00
138430866,-2.31,-28.62,7.19,-0.25,-0.69,-0.44,-0.44,-2.41,0.39,2.50,5.60,1.77,0.00,28.62,0.00
138440869,-2.31,-28.56,7.19,-3.94,0.19,-0.38,-0.61,-2.49,0.36,2.50,5.60,1.76,0.00,28.56,0.00
138450873,-2.31,-28.50,7.19,-7.81,1.06,-0.69,-0.66,-2.48,0.36,2.50,5.60,1.76,0.00,28.50,0.00
138463086,-2.25,-28.38,7.19,-11.75,1.94,-1.00,-0.72,-2.36,0.31,2.50,5.60,1.75,0.00,28.38,0.00
138473090,-2.25,-28.25,7.12,-15.38,2.81,-1.31,-0.79,-2.35,0.31,2.50,5.60,1.75,0.00,28.25,0.00
138484527,-2.25,-28.06,7.12,-19.19,3.94,-1.50,-0.87,-2.00,0.14,2.50,5.60,1.74,0.00,28.06,0.00
138495429,-2.19,-27.81,7.12,-22.75,4.94,-1.75,-0.93,-1.82,0.10,2.50,5.60,1.73,0.00,27.81,0.00
138509920,-2.19,-27.56,7.06,-28.88,7.38,-2.50,-1.00,-1.70,0.04,2.50,5.60,1.72,0.00,27.56,0.00
138519924,-2.12,-27.31,7.00,-28.88,7.38,-2.50,-0.95,-1.53,-0.12,2.50,5.60,1.72,0.00,27.31,0.00
138529928,-2.06,-27.00,7.00,-34.19,9.75,-4.19,-0.83,-1.51,-0.15,2.50,5.60,1.70,0.00,27.00,0.00
138539932,-2.00,-26.69,6.94,-36.81,10.69,-5.12,-0.77,-1.54,-0.18,2.50,5.60,1.70,0.00,26.69,0.00
138550191,-1.94,-26.31,6.88,-39.25,11.75,-6.00,-0.76,-1.48,-0.20,2.50,5.60,1.69,0.00,26.31,0.00
138560195,-1.81,-25.94,6.75,-41.81,12.50,-6.62,-0.54,-1.11,-0.26,2.50,5.60,1.67,0.00,25.94,0.00
138570198,-1.75,-25.50,6.69,-41.81,12.50,-6.62,-0.46,-1.00,-0.33,2.50,5.60,1.67,0.00,25.50,0.00
138580201,-1.69,-25.06,6.62,-43.81,13.31,-7.38,-0.41,-0.76,-0.46,2.50,5.60,1.66,0.00,25.06,0.00
138590205,-1.56,-24.62,6.50,-47.50,14.88,-7.19,-0.26,-0.63,-0.56,2.50,5.60,1.66,0.00,24.62,0.00
138600208,-1.50,-24.19,6.44,-48.56,15.38,-6.75,-0.10,-0.54,-0.63,2.50,5.60,1.65,0.00,24.19,0.00
138610212,-1.38,-23.69,6.31,-49.62,15.69,-6.44,-0.04,-0.61,-0.64,2.50,5.60,1.65,0.00,23.69,0.00
138622689,-1.12,-22.69,6.12,-51.81,16.06,-6.75,0.02,-0.67,-0.66,2.50,5.60,1.64,0.00,22.69,0.00
138632692,-1.00,-22.19,6.06,-51.81,16.06,-6.75,0.16,-0.69,-0.61,2.50,5.60,1.63,0.00,22.19,0.00
138644793,-0.88,-21.69,5.94,-53.12,15.94,-6.88,0.34,-0.38,-0.75,2.50,5.60,1.63,0.00,21.69,0.00
138655196,-0.75,-21.19,5.88,-54.19,15.81,-6.75,0.46,-0.24,-0.78,2.50,5.60,1.62,0.00,21.19,0.00
138668898,-0.69,-20.62,5.81,-55.50,15.19,-5.69,0.57,-0.14,-0.88,2.50,5.60,1.61,0.00,20.62,0.00
138678901,-0.56,-20.06,5.69,-55.88,14.69,-5.06,0.60,-0.26,-0.88,2.50,5.60,1.60,0.00,20.06,0.00
138690535,-0.44,-19.56,5.62,-56.75,13.19,-3.88,0.47,0.01,-0.98,2.50,5.60,1.60,0.00,19.56,0.00
138700540,-0.31,-19.00,5.62,-56.69,12.56,-3.69,0.48,0.02,-0.96,2.50,5.60,1.59,0.00,19.00,0.00
138713354,-0.12,-17.88,5.50,-56.81,11.94,-3.38,0.47,0.08,-0.98,2.50,5.60,1.58,0.00,17.88,0.00
138723358,0.00,-17.31,5.44,-56.75,11.19,-3.50,0.45,-0.06,-0.82,2.50,5.60,1.57,0.00,17.31,0.00
138734766,0.00,-16.75,5.38,-57.19,10.50,-3.38,0.54,-0.10,-0.77,2.50,5.60,1.56,0.00,16.75,0.00
138744770,0.06,-16.25,5.38,-57.19,9.69,-2.94,0.63,-0.06,-0.83,2.50,5.60,1.55,0.00,16.25,0.00
138757605,0.19,-15.69,5.31,-57.56,8.81,-2.62,0.59,-0.24,-0.81,2.50,5.60,1.55,0.00,15.69,0.00
138768707,0.25,-15.12,5.25,-58.06,8.12,-2.38,0.50,-0.27,-0.73,2.50,5.60,1.54,0.00,15.12,0.00
138778865,0.38,-14.62,5.25,-58.88,7.62,-2.44,0.38,-0.40,-0.64,2.50,5.60,1.54,0.00,14.62,0.00
