Time,sensPitch,sensRoll,sensYaw,xGyro,yGyro,ZGyro,xAcc,yAcc,zAcc,latitude,longitude,alt,cP,cR,cYI
162237014,-1.31,4.19,3.88,-6.75,-2.19,-5.06,-2.21,-0.85,-0.05,2.50,5.60,1.16,6.75,0.00,0.00
162247017,-1.31,4.25,3.88,-8.44,0.75,-4.56,-1.68,-1.60,-0.18,2.50,5.60,1.16,8.44,0.00,0.00
162257021,-1.31,4.31,3.81,-8.44,0.75,-4.56,-1.25,-1.02,-0.61,2.50,5.60,1.16,8.44,0.00,0.00
162267026,-1.31,4.44,3.75,-11.81,6.06,-4.94,-1.19,0.41,-0.38,2.50,5.60,1.16,11.81,0.00,0.00
162277030,-1.25,4.56,3.69,-11.69,8.25,-4.00,-1.31,-0.26,-0.40,2.50,5.60,1.16,11.69,0.00,0.00
162287034,-1.12,4.69,3.69,-12.75,11.19,-3.19,0.04,0.59,-0.80,2.50,5.60,1.16,12.75,0.00,0.00
162297122,-1.00,4.81,3.62,-12.31,12.88,-2.62,-0.78,-0.39,-0.44,2.50,5.60,1.17,12.31,0.00,0.00
162307125,-0.88,4.94,3.62,-12.31,12.88,-2.62,-1.19,-0.67,-0.31,2.50,5.60,1.18,12.31,0.00,0.00
162317128,-0.75,5.06,3.62,-12.44,14.75,-0.31,-0.13,0.67,-0.64,2.50,5.60,1.18,12.44,0.00,0.00
162327131,-0.62,5.19,3.69,-12.25,17.81,1.19,-0.42,0.10,-0.43,2.50,5.60,1.18,12.25,0.00,-0.00
162337134,-0.44,5.31,3.69,-11.50,18.56,2.25,-0.83,0.45,-0.50,2.50,5.60,1.18,11.50,0.00,-0.00
162347137,-0.25,5.38,3.69,-10.88,19.50,2.25,-0.40,1.17,-0.78,2.50,5.60,1.18,10.88,0.00,-0.00
162357141,-0.06,5.50,3.75,-10.88,19.50,2.25,0.74,0.39,-0.45,2.50,5.60,1.18,10.88,0.00,-0.00
162367144,0.06,5.56,3.75,-9.00,19.44,1.31,0.35,0.41,-0.34,2.50,5.60,1.18,9.00,0.00,-0.0000
162377147,0.25,5.69,3.81,-7.00,18.31,1.56,0.75,0.49,-0.30,2.50,5.60,1.18,7.00,0.00,-0.0000
162387151,0.44,5.75,3.81,-5.81,16.75,0.75,1.28,0.05,-0.16,2.50,5.60,1.18,5.81,0.00,-0.0000
162397155,0.56,5.81,3.81,-5.38,15.44,0.31,0.97,0.54,-0.54,2.50,5.60,1.18,5.38,0.00,-0.0000
162407160,0.75,5.88,3.81,-5.38,15.44,0.31,1.25,0.53,-0.41,2.50,5.60,1.18,5.38,0.00,-0.0000
162417163,0.88,5.88,3.81,-4.75,13.81,0.12,0.93,0.56,-0.41,2.50,5.60,1.18,4.75,0.00,-0.0000
162427167,1.00,5.94,3.81,-2.31,9.94,-1.25,1.74,0.72,-0.40,2.50,5.60,1.18,2.31,0.00,0.0000
162437170,1.06,5.94,3.81,-0.81,8.12,-0.50,1.43,0.75,-0.30,2.50,5.60,1.18,0.81,0.00,0.0000
162447175,1.12,5.94,3.81,0.75,5.88,-0.88,1.19,0.49,-0.15,2.50,5.60,1.19,-0.75,0.00,0.0000
162457841,1.19,5.94,3.81,0.75,5.88,-0.88,1.43,0.38,-0.04,2.50,5.60,1.19,-0.75,0.00,0.0000
162467843,1.25,5.94,3.81,3.12,1.62,-2.50,1.50,0.20,0.02,2.50,5.60,1.19,-3.12,0.00,0.0000
162477847,1.25,5.88,3.81,3.75,-0.75,-3.00,1.00,-0.28,0.13,2.50,5.60,1.19,-3.75,0.00,0.0000
162487850,1.25,5.88,3.75,3.88,-3.06,-4.19,1.21,-0.42,0.12,2.50,5.60,1.19,-3.88,0.00,0.0000
162497852,1.25,5.81,3.75,3.69,-4.94,-4.06,1.62,-0.54,0.11,2.50,5.60,1.21,-3.69,0.00,0.0000
162508400,1.19,5.81,3.69,3.25,-6.94,-2.94,1.19,-0.49,0.09,2.50,5.60,1.21,-3.25,0.00,0.0000
162518403,1.12,5.75,3.62,2.88,-8.94,-2.25,1.20,-0.46,0.09,2.50,5.60,1.21,-2.88,0.00,0.0000
162529901,0.94,5.69,3.62,2.56,-10.94,-1.88,1.56,-0.14,0.05,2.50,5.60,1.21,-2.56,0.00,0.000
162539914,0.81,5.69,3.56,2.50,-12.94,-1.69,1.12,-0.06,0.10,2.50,5.60,1.21,-2.50,0.00,0.000
162550707,0.69,5.62,3.56,2.38,-14.75,-1.56,0.88,-0.27,0.08,2.50,5.60,1.22,-2.38,0.00,0.000
162560709,0.50,5.62,3.50,2.00,-15.62,-1.75,1.14,-0.08,-0.10,2.50,5.60,1.21,-2.00,0.00,0.00
162570757,0.38,5.62,3.50,1.69,-16.88,-1.94,0.62,-0.05,-0.15,2.50,5.60,1.21,-1.69,0.00,0.00
162580761,0.19,5.62,3.50,1.81,-17.81,-1.50,0.25,-0.24,-0.16,2.50,5.60,1.21,-1.81,0.00,0.00
162590977,0.00,5.56,3.44,1.44,-17.75,-1.19,0.21,-0.30,-0.20,2.50,5.60,1.22,-1.44,0.00,0.00
162600981,-0.06,5.56,3.44,1.25,-17.94,-0.88,-0.10,-0.38,-0.15,2.50,5.60,1.22,-1.25,0.00,0.00
162610985,-0.25,5.56,3.44,0.81,-17.69,-0.69,-0.45,-0.42,-0.14,2.50,5.60,1.21,-0.81,0.00,0.00
162620989,-0.44,5.56,3.44,0.25,-17.12,-0.94,-0.21,-0.32,-0.17,2.50,5.60,1.22,-0.25,0.00,0.00
162631269,-0.56,5.56,3.38,-0.19,-16.44,-1.50,-0.05,-0.20,-0.21,2.50,5.60,1.22,0.19,0.00,0.00
162641271,-0.75,5.56,3.38,-0.44,-15.81,-1.88,-0.55,-0.07,-0.19,2.50,5.60,1.22,0.44,0.00,0.00
162653909,-0.88,5.56,3.31,-0.31,-15.06,-2.44,-0.52,-0.11,-0.20,2.50,5.60,1.23,0.31,0.00,0.00
162666376,-1.00,5.56,3.31,-0.44,-13.81,-2.75,-0.45,-0.09,-0.18,2.50,5.60,1.22,0.44,0.00,0.00
162676381,-1.12,5.56,3.25,-0.38,-13.12,-2.56,-0.64,-0.19,0.04,2.50,5.60,1.22,0.38,0.00,0.00
162686837,-1.25,5.56,3.25,-0.31,-12.12,-2.38,-0.49,-0.06,0.10,2.50,5.60,1.22,0.31,0.00,0.00
162701191,-1.44,5.56,3.19,-0.69,-10.06,-1.94,-0.38,0.09,0.11,2.50,5.60,1.23,0.69,0.00,0.00
162711194,-1.56,5.56,3.19,-0.56,-9.31,-2.00,-0.39,0.22,0.07,2.50,5.60,1.23,0.56,0.00,0.00
162721197,-1.62,5.56,3.12,-0.06,-8.62,-2.56,-0.36,0.56,-0.05,2.50,5.60,1.22,0.06,0.00,0.00
162731201,-1.69,5.56,3.12,0.56,-8.00,-3.31,-0.32,0.54,-0.08,2.50,5.60,1.22,-0.56,0.00,0.00
162741205,-1.81,5.56,3.06,1.56,-7.50,-4.12,-0.19,0.45,-0.10,2.50,5.60,1.22,-1.56,0.00,0.00
162751208,-1.88,5.56,3.00,2.44,-7.12,-4.50,-0.14,0.35,-0.09,2.50,5.60,1.23,-2.44,0.00,0.00
162761210,-1.94,5.50,2.94,2.81,-6.81,-4.50,0.01,0.06,-0.08,2.50,5.60,1.23,-2.81,0.00,0.00
162771214,-2.00,5.50,2.94,3.25,-6.75,-4.00,0.10,-0.10,-0.01,2.50,5.60,1.23,-3.25,0.00,0.00
162781217,-2.00,5.44,2.88,3.25,-6.44,-3.81,0.10,-0.07,0.02,2.50,5.60,1.23,-3.25,0.00,0.00
162791221,-2.06,5.44,2.81,2.94,-6.31,-3.56,0.19,-0.07,0.08,2.50,5.60,1.23,-2.94,0.00,0.00
162801224,-2.12,5.44,2.81,2.88,-6.44,-3.00,0.18,0.06,-0.02,2.50,5.60,1.23,-2.88,0.00,0.00
162811228,-2.19,5.38,2.75,3.06,-6.44,-2.69,0.10,0.19,-0.15,2.50,5.60,1.23,-3.06,0.00,0.00
162821247,-2.25,5.38,2.75,3.12,-6.44,-2.19,0.19,0.33,-0.30,2.50,5.60,1.24,-3.12,0.00,0.00
162832670,-2.31,5.31,2.75,3.44,-6.50,-2.00,0.38,0.36,-0.40,2.50,5.60,1.23,-3.44,0.00,0.00
162842673,-2.38,5.25,2.69,4.12,-6.81,-1.06,0.31,0.30,-0.52,2.50,5.60,1.23,-4.12,0.00,0.00
162852677,-2.44,5.25,2.69,4.62,-7.38,-1.19,0.36,0.15,-0.38,2.50,5.60,1.23,-4.62,0.00,0.00
162862681,-2.56,5.19,2.69,4.94,-7.88,-0.94,0.57,-0.06,-0.24,2.50,5.60,1.23,-4.94,0.00,0.00
162872685,-2.62,5.12,2.69,5.06,-8.50,-0.88,0.75,-0.24,-0.18,2.50,5.60,1.23,-5.06,0.00,0.00
162882688,-2.69,5.06,2.69,4.94,-9.62,-0.75,0.59,-0.27,-0.21,2.50,5.60,1.23,-4.94,0.00,0.00
162892690,-2.81,5.06,2.62,4.56,-10.31,-0.62,0.86,0.12,-0.34,2.50,5.60,1.25,-4.56,0.00,0.00
162902692,-2.94,5.00,2.62,4.31,-11.06,-0.44,0.90,0.28,-0.50,2.50,5.60,1.24,-4.31,0.00,0.00
162912696,-3.06,4.94,2.62,4.69,-12.12,-0.69,0.53,0.14,-0.73,2.50,5.60,1.24,-4.69,0.00,0.00
162922699,-3.19,4.94,2.62,5.12,-13.31,-1.25,0.42,0.13,-0.69,2.50,5.60,1.25,-5.12,0.00,0.00
162932703,-3.31,4.88,2.56,5.69,-14.12,-2.19,0.47,0.11,-0.70,2.50,5.60,1.25,-5.69,0.00,0.00
162942705,-3.44,4.81,2.56,6.06,-14.75,-3.19,0.46,0.05,-0.71,2.50,5.60,1.25,-6.06,0.00,0.00
162952707,-3.56,4.75,2.50,6.44,-15.50,-4.00,0.48,-0.32,-0.57,2.50,5.60,1.25,-6.44,0.00,0.00
162962711,-3.75,4.69,2.44,6.31,-16.19,-4.88,0.38,-0.36,-0.55,2.50,5.60,1.26,-6.31,0.00,0.00
162972713,-3.88,4.62,2.38,6.06,-16.75,-5.12,0.63,-0.41,-0.57,2.50,5.60,1.26,-6.06,0.00,0.00
162982717,-4.06,4.56,2.31,5.50,-17.50,-5.06,0.59,-0.42,-0.62,2.50,5.60,1.27,-5.50,0.00,0.00
162992753,-4.25,4.56,2.25,5.00,-18.12,-4.69,0.35,0.16,-0.85,2.50,5.60,1.26,-5.00,0.00,0.00
163002757,-4.44,4.50,2.25,4.50,-18.75,-3.56,0.40,0.31,-0.84,2.50,5.60,1.27,-4.50,0.00,0.00
163013379,-4.62,4.44,2.19,4.69,-19.38,-2.94,0.47,-0.20,-0.63,2.50,5.60,1.27,-4.69,0.00,0.00
163023384,-4.81,4.44,2.12,4.75,-19.88,-2.19,0.60,-0.25,-0.52,2.50,5.60,1.26,-4.75,0.00,0.00
163035432,-4.94,4.38,2.12,4.44,-20.88,-1.25,0.43,-0.36,-0.43,2.50,5.60,1.26,-4.44,0.00,0.00
163046743,-5.12,4.31,2.12,4.00,-21.31,-0.62,0.49,-0.77,-0.38,2.50,5.60,1.27,-4.00,0.00,0.00
163061912,-5.56,4.25,2.12,2.19,-22.12,0.75,0.35,-0.36,-0.48,2.50,5.60,1.27,-2.19,0.00,-0.00
163071915,-5.81,4.25,2.12,1.31,-22.75,1.25,0.23,-0.35,-0.49,2.50,5.60,1.26,-1.31,0.00,-0.00
163083058,-6.00,4.25,2.12,0.62,-22.69,1.50,0.22,0.01,-0.56,2.50,5.60,1.26,-0.62,0.00,-0.00
163093061,-6.25,4.25,2.12,0.25,-23.06,2.00,0.21,0.08,-0.49,2.50,5.60,1.27,-0.25,0.00,-0.00
163103065,-6.44,4.25,2.12,0.44,-23.38,2.25,0.23,-0.05,-0.42,2.50,5.60,1.28,-0.44,0.00,-0.00
163113067,-6.69,4.25,2.12,0.56,-23.50,2.12,0.04,-0.05,-0.31,2.50,5.60,1.28,-0.56,0.00,-0.00
163123071,-6.94,4.25,2.19,0.62,-23.88,1.75,-0.07,-0.35,-0.14,2.50,5.60,1.27,-0.62,0.00,-0.00
163133075,-7.12,4.25,2.19,0.81,-23.88,1.19,-0.02,-0.58,-0.04,2.50,5.60,1.26,-0.81,0.00,-0.00
163143079,-7.38,4.25,2.12,0.06,-23.94,-0.06,0.08,-0.82,0.06,2.50,5.60,1.26,-0.06,0.00,0.000
163153083,-7.62,4.25,2.12,-0.94,-24.12,-0.81,-0.02,-0.84,0.17,2.50,5.60,1.28,0.94,0.00,0.00
163163088,-7.88,4.25,2.12,-2.12,-24.19,-1.19,0.16,-0.78,0.24,2.50,5.60,1.28,2.12,0.00,0.00
163173092,-8.06,4.31,2.12,-3.56,-24.25,-1.69,0.21,-0.68,0.21,2.50,5.60,1.28,3.56,0.00,0.00
163185633,-8.31,4.38,2.06,-4.62,-24.69,-1.56,0.18,-0.53,0.13,2.50,5.60,1.29,4.62,0.00,0.00
163197741,-8.56,4.44,2.06,-5.69,-24.56,-1.31,-0.23,-0.29,0.15,2.50,5.60,1.28,5.69,0.00,0.00
163208665,-8.81,4.50,2.06,-6.25,-24.69,-1.38,0.03,-0.28,0.24,2.50,5.60,1.28,6.25,0.00,0.00
163219739,-9.00,4.56,2.00,-6.62,-24.88,-1.62,0.03,-0.22,0.29,2.50,5.60,1.28,6.62,0.00,0.00
163229743,-9.25,4.62,2.00,-7.12,-24.88,-2.19,0.11,-0.22,0.17,2.50,5.60,1.28,7.12,0.00,0.00
163241457,-9.50,4.69,1.94,-7.81,-25.31,-4.38,0.38,-0.29,0.10,2.50,5.60,1.28,7.81,0.00,0.00
163251461,-9.75,4.81,1.94,-8.12,-25.62,-5.25,0.42,-0.18,0.04,2.50,5.60,1.30,8.12,0.00,0.00
163261463,-10.00,4.88,1.88,-8.12,-25.62,-5.25,0.33,-0.18,0.01,2.50,5.60,1.28,8.12,0.00,0.00
163271465,-10.19,4.94,1.81,-8.69,-26.38,-5.69,0.30,-0.30,0.01,2.50,5.60,1.29,8.69,0.00,0.00
163281469,-10.44,5.06,1.75,-9.62,-27.50,-6.69,0.23,-0.27,-0.03,2.50,5.60,1.29,9.62,0.00,0.00
163294533,-10.94,5.25,1.56,-10.06,-28.38,-7.25,0.23,-0.19,0.00,2.50,5.60,1.30,10.06,0.00,0.00
163304538,-11.19,5.38,1.50,-10.75,-28.88,-7.56,0.17,-0.21,-0.01,2.50,5.60,1.29,10.75,0.00,0.00
163314825,-11.44,5.50,1.44,-11.75,-29.94,-7.88,0.19,-0.13,-0.20,2.50,5.60,1.29,11.75,0.00,0.00
163324829,-11.75,5.62,1.38,-11.75,-29.94,-7.88,0.23,-0.12,-0.27,2.50,5.60,1.29,11.75,0.00,0.00
163334832,-12.00,5.75,1.31,-12.56,-30.62,-7.31,0.15,0.00,-0.36,2.50,5.60,1.29,12.56,0.00,0.00
163344835,-12.31,5.88,1.19,-12.88,-30.94,-7.12,0.12,0.02,-0.41,2.50,5.60,1.31,12.88,0.00,0.00
163354838,-12.62,6.06,1.12,-13.25,-31.06,-6.75,0.00,-0.10,-0.38,2.50,5.60,1.31,13.25,0.00,0.00
163364841,-12.88,6.19,1.06,-13.38,-31.12,-6.25,0.00,-0.08,-0.38,2.50,5.60,1.32,13.38,0.00,0.00
163374843,-13.19,6.38,1.00,-13.62,-31.38,-5.94,0.07,0.09,-0.45,2.50,5.60,1.32,13.62,0.00,0.00
163384847,-13.50,6.50,1.00,-13.69,-31.81,-5.69,0.12,0.08,-0.50,2.50,5.60,1.31,13.69,0.00,0.00
163394849,-13.81,6.69,0.94,-13.62,-32.00,-5.12,0.32,0.42,-0.67,2.50,5.60,1.31,13.62,0.00,0.00
163404853,-14.12,6.81,0.88,-13.25,-32.25,-4.56,0.45,0.46,-0.65,2.50,5.60,1.31,13.25,0.00,0.00
163414858,-14.44,6.94,0.81,-12.62,-32.75,-4.06,0.18,0.41,-0.63,2.50,5.60,1.31,12.62,0.00,0.00
163424863,-14.75,7.12,0.81,-12.19,-32.94,-4.00,0.21,0.39,-0.58,2.50,5.60,1.32,12.19,0.00,0.00
163436014,-15.06,7.25,0.75,-11.75,-33.12,-4.19,0.04,0.30,-0.58,2.50,5.60,1.32,11.75,0.00,0.00
163446018,-15.38,7.38,0.69,-11.38,-33.25,-4.31,-0.13,0.29,-0.57,2.50,5.60,1.32,11.38,0.00,0.00
163458289,-15.69,7.50,0.62,-10.88,-33.00,-4.62,-0.25,0.39,-0.61,2.50,5.60,1.32,10.88,0.00,0.00
163468291,-16.00,7.62,0.56,-10.38,-33.00,-4.69,-0.12,0.43,-0.65,2.50,5.60,1.33,10.38,0.00,0.00
163479291,-16.31,7.75,0.56,-9.62,-32.62,-4.44,0.08,0.65,-0.64,2.50,5.60,1.33,9.62,0.00,0.0000
163489982,-16.62,7.88,0.50,-9.06,-32.81,-4.38,0.20,0.61,-0.45,2.50,5.60,1.33,9.06,0.00,0.0000
163502373,-16.94,7.94,0.44,-7.50,-32.81,-4.19,0.15,0.48,-0.39,2.50,5.60,1.33,7.50,0.00,0.0000
163512377,-17.19,8.06,0.38,-7.50,-32.81,-4.19,0.25,0.50,-0.40,2.50,5.60,1.33,7.50,0.00,0.0000
163522381,-17.50,8.12,0.31,-6.69,-33.00,-3.88,0.27,0.54,-0.41,2.50,5.60,1.34,6.69,0.00,0.0000
163532385,-17.81,8.31,0.25,-5.25,-33.69,-4.44,0.22,0.60,-0.42,2.50,5.60,1.34,5.25,0.00,0.0000
163545068,-18.44,8.62,0.12,-4.06,-34.19,-4.50,0.32,0.67,-0.41,2.50,5.60,1.34,4.06,0.00,0.0000
163555072,-18.69,8.75,0.06,-3.00,-34.75,-4.31,0.59,0.49,-0.43,2.50,5.60,1.34,3.00,0.00,0.0000
163567159,-19.00,8.88,-0.06,-2.38,-35.44,-4.06,0.45,0.45,-0.39,2.50,5.60,1.35,2.38,0.00,0.000
163577163,-19.25,9.00,-0.12,-1.69,-35.94,-3.50,0.66,0.41,-0.39,2.50,5.60,1.35,1.69,0.00,0.000
163587166,-19.50,9.12,-0.19,-1.19,-36.38,-2.44,0.59,0.33,-0.41,2.50,5.60,1.35,1.19,0.00,0.000
163597169,-19.81,9.19,-0.25,-0.88,-36.88,-1.81,0.18,0.33,-0.34,2.50,5.60,1.35,0.88,0.00,0.000
163607173,-20.19,9.25,-0.25,-0.44,-37.19,-1.56,0.27,0.33,-0.37,2.50,5.60,1.36,0.44,0.00,0.000
163617177,-20.56,9.25,-0.31,-0.44,-37.50,-1.12,0.52,0.17,-0.31,2.50,5.60,1.26,0.44,0.00,0.000
163627180,-20.94,9.25,-0.31,-0.31,-38.56,-0.38,0.49,0.06,-0.30,2.50,5.60,0.94,0.31,0.00,0.000
163637602,-21.31,9.31,-0.38,-0.31,-39.00,0.31,0.52,0.07,-0.47,2.50,5.60,0.87,0.31,0.00,0.000
163648138,-21.69,9.31,-0.38,-0.38,-39.62,1.19,0.64,0.01,-0.48,2.50,5.60,0.87,0.38,0.00,0.000
163662258,-22.06,9.31,-0.38,-0.38,-40.50,1.94,0.38,0.00,-0.44,2.50,5.60,0.82,0.38,0.00,0.000
163672261,-22.44,9.38,-0.44,-0.25,-40.94,2.38,0.09,0.09,-0.46,2.50,5.60,0.78,0.25,0.00,0.000
163684843,-23.25,9.38,-0.44,-0.12,-41.44,2.50,0.06,0.11,-0.45,2.50,5.60,0.78,0.12,0.00,0.000
163694846,-23.62,9.44,-0.44,0.06,-41.56,2.50,0.16,0.16,-0.42,2.50,5.60,0.76,-0.06,0.00,0.000
163705051,-24.06,9.44,-0.44,0.38,-41.81,2.50,0.24,0.10,-0.36,2.50,5.60,0.75,-0.38,0.00,0.000
163715053,-24.44,9.44,-0.44,0.44,-42.31,2.38,0.09,0.01,-0.35,2.50,5.60,0.72,-0.44,0.00,0.000
163725057,-24.88,9.44,-0.44,0.44,-42.56,2.56,-0.06,0.00,-0.34,2.50,5.60,0.71,-0.44,0.00,0.00
163735060,-25.31,9.50,-0.44,0.62,-42.31,2.94,0.21,0.06,-0.37,2.50,5.60,0.69,-0.62,0.00,0.000
163745062,-25.69,9.50,-0.44,0.44,-42.31,2.88,-0.07,0.01,-0.41,2.50,5.60,0.68,-0.44,0.00,0.00
163755064,-26.12,9.50,-0.50,0.38,-42.50,2.44,-0.05,0.02,-0.37,2.50,5.60,0.66,-0.38,0.00,0.00
163765069,-26.50,9.56,-0.50,0.25,-42.25,1.88,0.05,0.06,-0.35,2.50,5.60,0.63,-0.25,0.00,0.00
163775072,-26.94,9.56,-0.50,0.31,-42.25,1.75,0.01,0.03,-0.29,2.50,5.60,0.63,-0.31,0.00,0.00
163785075,-27.31,9.62,-0.50,0.19,-42.00,1.62,-0.09,0.06,-0.29,2.50,5.60,0.61,-0.19,0.00,0.00
163795078,-27.69,9.62,-0.56,0.06,-41.62,1.94,0.09,-0.01,-0.26,2.50,5.60,0.60,-0.06,0.00,0.00
163805082,-28.12,9.62,-0.56,-0.12,-41.38,2.44,0.00,-0.12,-0.22,2.50,5.60,0.61,0.12,0.00,0.00
163815087,-28.50,9.69,-0.56,-0.56,-41.06,3.31,-0.07,-0.06,-0.17,2.50,5.60,0.59,0.56,0.00,0.00
163825488,-28.94,9.69,-0.56,-0.88,-40.69,3.75,-0.10,-0.24,-0.21,2.50,5.60,0.59,0.88,0.00,0.00
163835492,-29.31,9.75,-0.50,-1.31,-40.38,3.75,-0.19,-0.18,-0.20,2.50,5.60,0.60,1.31,0.00,0.00
163846733,-29.69,9.75,-0.50,-1.69,-39.88,3.56,-0.37,0.02,-0.27,2.50,5.60,0.59,1.69,0.00,0.00
163856736,-30.06,9.81,-0.50,-1.62,-39.31,3.06,-0.33,0.09,-0.26,2.50,5.60,0.58,1.62,0.00,0.00
163866965,-30.44,9.81,-0.50,-1.75,-38.69,2.56,-0.33,0.23,-0.27,2.50,5.60,0.58,1.75,0.00,0.00
163876968,-30.81,9.88,-0.50,-1.50,-38.69,2.19,-0.42,0.19,-0.23,2.50,5.60,0.55,1.50,0.00,0.00
163886971,-31.19,9.94,-0.50,-1.31,-38.12,2.06,-0.43,0.01,-0.22,2.50,5.60,0.57,1.31,0.00,0.00
163896974,-31.56,9.94,-0.50,-1.62,-37.50,1.88,-0.42,-0.11,-0.16,2.50,5.60,0.58,1.62,0.00,0.00
163906977,-31.88,10.00,-0.56,-1.81,-37.00,1.31,-0.54,-0.07,-0.22,2.50,5.60,0.56,1.81,0.00,0.00
163916981,-32.25,10.06,-0.56,-2.19,-36.50,0.88,-0.59,-0.01,-0.19,2.50,5.60,0.55,2.19,0.00,0.00
163926984,-32.56,10.12,-0.56,-2.25,-35.69,0.25,-0.60,0.08,-0.19,2.50,5.60,0.55,2.25,0.00,0.00
163936987,-32.94,10.19,-0.62,-2.44,-34.94,-0.31,-0.60,0.18,-0.21,2.50,5.60,0.56,2.44,0.00,0.00
163946990,-33.25,10.25,-0.62,-2.38,-34.44,-0.38,-0.30,0.25,-0.19,2.50,5.60,0.54,2.38,0.00,0.00
163956994,-33.56,10.31,-0.62,-2.38,-34.00,-0.31,-0.17,0.29,-0.21,2.50,5.60,0.54,2.38,0.00,0.00
163967088,-33.88,10.38,-0.69,-2.19,-33.94,-0.25,-0.09,0.25,-0.17,2.50,5.60,0.53,2.19,0.00,0.00
163977091,-34.25,10.44,-0.69,-2.31,-33.81,-0.25,0.04,0.11,-0.17,2.50,5.60,0.54,2.31,0.00,0.00
163987095,-34.56,10.50,-0.69,-2.44,-33.94,-0.19,-0.01,0.07,-0.23,2.50,5.60,0.54,2.44,0.00,0.00
163997099,-34.88,10.56,-0.69,-2.69,-33.94,0.19,-0.09,0.17,-0.18,2.50,5.60,0.54,2.69,0.00,0.00
164007102,-35.19,10.62,-0.75,-2.69,-33.88,0.12,-0.01,0.19,-0.18,2.50,5.60,0.51,2.69,0.00,0.00
164017106,-35.50,10.69,-0.75,-2.88,-33.69,0.81,0.02,0.17,-0.18,2.50,5.60,0.51,2.88,0.00,0.00
164027108,-35.81,10.81,-0.75,-2.88,-33.50,1.25,-0.09,0.51,-0.18,2.50,5.60,0.51,2.88,0.00,0.00
164037112,-36.19,10.88,-0.75,-2.44,-33.25,2.06,0.01,0.49,-0.15,2.50,5.60,0.51,2.44,0.00,0.00
164047115,-36.50,10.88,-0.75,-1.94,-33.25,2.69,0.11,0.43,-0.13,2.50,5.60,0.50,1.94,0.00,0.00
164057222,-36.81,10.94,-0.75,-1.75,-33.06,3.00,0.12,0.43,-0.16,2.50,5.60,0.51,1.75,0.00,0.00
164067225,-37.12,11.00,-0.75,-1.50,-32.88,3.19,-0.05,0.41,-0.25,2.50,5.60,0.49,1.50,0.00,0.00
164077868,-37.44,11.00,-0.75,-1.31,-32.62,3.19,-0.12,0.33,-0.28,2.50,5.60,0.50,1.31,0.00,0.00
164087872,-37.75,11.06,-0.75,-1.12,-32.44,2.81,-0.09,0.28,-0.28,2.50,5.60,0.49,1.12,0.00,0.00
164099957,-38.06,11.06,-0.75,-1.00,-32.06,2.50,-0.04,0.37,-0.28,2.50,5.60,0.47,1.00,0.00,0.00
164110776,-38.38,11.12,-0.75,-0.44,-31.94,2.75,-0.22,0.45,-0.24,2.50,5.60,0.47,0.44,0.00,0.00
164121752,-38.69,11.12,-0.69,-0.06,-31.38,3.25,-0.33,0.50,-0.20,2.50,5.60,0.47,0.06,0.00,0.00
164131756,-39.00,11.12,-0.69,0.50,-30.88,3.31,-0.35,0.66,-0.25,2.50,5.60,0.49,-0.50,0.00,0.00
164143280,-39.25,11.19,-0.69,1.00,-30.31,3.69,-0.65,0.47,-0.19,2.50,5.60,0.48,-1.00,0.00,0.00
164153869,-39.56,11.19,-0.69,1.50,-29.44,3.94,-0.59,-0.11,0.04,2.50,5.60,0.45,-1.50,0.00,0.00
164163967,-39.81,11.19,-0.69,2.00,-28.69,3.31,-0.59,-0.11,0.04,2.50,5.60,0.47,-2.00,0.00,0.00
164173971,-40.12,11.19,-0.69,2.00,-27.94,3.62,-0.44,0.20,0.00,2.50,5.60,0.47,-2.00,0.00,0.00
164183973,-40.38,11.12,-0.69,1.94,-26.88,3.56,-1.16,0.85,-0.21,2.50,5.60,0.45,-1.94,0.00,0.00
164194156,-40.62,11.12,-0.69,2.25,-25.75,3.44,-1.19,0.79,-0.17,2.50,5.60,0.43,-2.25,0.00,0.00
164205400,-40.88,11.12,-0.69,3.81,-22.31,2.75,-1.23,0.55,-0.13,2.50,5.60,0.49,-3.81,0.00,0.00
164215403,-41.06,11.12,-0.69,3.81,-22.31,2.75,-1.23,0.55,-0.13,2.50,5.60,0.44,-3.81,0.00,0.00
164226289,-41.25,11.06,-0.69,4.88,-17.69,2.00,-1.76,0.41,-0.10,2.50,5.60,0.47,-4.88,0.00,0.00
164236291,-41.44,11.06,-0.69,5.25,-15.19,1.56,-1.87,0.32,-0.04,2.50,5.60,0.44,-5.25,0.00,0.00
164246295,-41.56,11.00,-0.75,5.38,-12.50,1.19,-1.94,0.18,0.07,2.50,5.60,0.45,-5.38,0.00,0.00
164256298,-41.69,10.94,-0.75,5.25,-9.44,0.88,-2.18,0.17,0.16,2.50,5.60,0.44,-5.25,0.00,0.00
164266302,-41.81,10.94,-0.75,5.00,-6.44,0.38,-2.29,0.12,0.26,2.50,5.60,0.44,-5.00,0.00,0.00
164276306,-41.88,10.88,-0.81,4.50,-3.19,-0.06,-2.45,0.01,0.28,2.50,5.60,0.47,-4.50,0.00,0.00
164286310,-41.88,10.81,-0.81,4.19,0.19,-0.56,-2.47,0.13,0.25,2.50,5.60,0.43,-4.19,0.00,0.00
164296313,-41.88,10.81,-0.81,4.00,3.56,-1.25,-2.53,0.23,0.28,2.50,5.60,0.45,-4.00,0.00,0.00
164306317,-41.88,10.75,-0.81,3.81,7.19,-1.75,-2.38,0.12,0.25,2.50,5.60,0.45,-3.81,0.00,0.00
164316321,-41.81,10.75,-0.88,3.81,7.19,-1.75,-2.31,0.14,0.31,2.50,5.60,0.48,-3.81,0.00,0.00
164326324,-41.69,10.69,-0.88,3.44,10.81,-1.94,-2.30,0.11,0.32,2.50,5.60,0.49,-3.44,0.00,0.00
164336328,-41.56,10.69,-0.94,3.06,17.88,-2.19,-2.30,0.11,0.38,2.50,5.60,0.45,-3.06,0.00,0.00
164346332,-41.56,10.62,-0.94,2.62,21.44,-2.25,-2.25,0.15,0.35,2.50,5.60,0.44,-2.62,0.00,0.00
164356336,-41.62,10.62,-0.88,2.31,24.88,-2.38,-2.30,0.30,0.31,2.50,5.60,0.50,-2.31,0.00,0.00
164366340,-41.56,10.62,-0.88,2.31,24.88,-2.38,-2.44,0.51,0.27,2.50,5.60,0.49,-2.31,0.00,0.00
164377896,-41.56,10.62,-0.88,2.69,31.62,-2.62,-2.56,0.55,0.20,2.50,5.60,0.49,-2.69,0.00,0.00
164387899,-40.88,10.50,-0.94,3.12,35.44,-2.69,-2.37,0.54,0.07,2.50,5.60,0.49,-3.12,0.00,0.00
164397903,-40.50,10.44,-0.94,3.56,38.62,-3.12,-2.35,0.53,0.10,2.50,5.60,0.48,-3.56,0.00,0.00
164407906,-40.12,10.38,-0.94,3.88,41.75,-3.31,-2.29,0.45,0.11,2.50,5.60,0.49,-3.88,0.00,0.00
164417910,-40.12,10.38,-0.94,4.25,45.19,-3.56,-2.10,0.41,0.12,2.50,5.60,0.48,-4.25,0.00,0.00
164427913,-39.25,10.19,-1.00,4.62,47.69,-3.62,-1.98,0.30,0.10,2.50,5.60,0.51,-4.62,0.00,0.00
164438603,-38.75,10.12,-1.00,4.75,50.75,-3.25,-1.91,0.44,0.00,2.50,5.60,0.51,-4.75,0.00,0.00
164448606,-38.25,10.00,-1.00,5.12,53.62,-3.38,-1.78,0.54,-0.07,2.50,5.60,0.52,-5.12,0.00,0.00
164461140,-37.69,9.88,-1.00,5.75,56.25,-3.12,-1.64,0.53,-0.10,2.50,5.60,0.53,-5.75,0.00,0.00
164471144,-37.12,9.81,-1.00,5.94,58.50,-3.12,-1.28,0.56,-0.15,2.50,5.60,0.54,-5.94,0.00,0.00
164481148,-36.56,9.69,-1.06,6.69,60.31,-3.50,-1.04,0.43,-0.12,2.50,5.60,0.54,-6.69,0.00,0.00
164491151,-35.94,9.56,-1.06,7.12,62.06,-3.69,-0.83,0.25,-0.11,2.50,5.60,0.56,-7.12,0.00,0.00
164501366,-35.31,9.44,-1.06,7.44,63.38,-3.56,-0.61,0.11,-0.09,2.50,5.60,0.56,-7.44,0.00,0.00
164512790,-34.69,9.31,-1.06,7.38,64.62,-3.44,-0.12,-0.05,0.00,2.50,5.60,0.56,-7.38,0.00,0.00
164522794,-34.06,9.19,-1.06,7.25,64.81,-3.00,-0.08,-0.08,-0.03,2.50,5.60,0.58,-7.25,0.00,0.00
164532797,-33.44,9.06,-1.06,7.25,65.31,-2.75,-0.13,-0.07,-0.08,2.50,5.60,0.60,-7.25,0.00,0.00
164544328,-32.81,8.94,-1.06,6.88,65.69,-2.56,0.24,-0.13,-0.11,2.50,5.60,0.59,-6.88,0.00,0.00
164555651,-32.19,8.88,-1.06,6.69,65.69,-2.75,0.32,-0.18,-0.10,2.50,5.60,0.60,-6.69,0.00,0.00
164565773,-31.56,8.75,-1.06,6.44,65.44,-3.31,0.32,-0.18,-0.10,2.50,5.60,0.58,-6.44,0.00,0.00
164575776,-30.94,8.62,-1.06,6.12,64.88,-3.69,0.52,-0.24,-0.07,2.50,5.60,0.62,-6.12,0.00,0.00
164585780,-30.31,8.56,-1.12,5.75,64.00,-3.75,0.77,-0.29,-0.12,2.50,5.60,0.63,-5.75,0.00,0.00
164597148,-29.69,8.50,-1.12,4.50,62.06,-3.75,0.90,-0.23,-0.18,2.50,5.60,0.65,-4.50,0.00,0.00
164607152,-29.12,8.38,-1.12,3.94,61.25,-3.50,0.91,-0.24,-0.25,2.50,5.60,0.67,-3.94,0.00,0.00
164618751,-27.94,8.25,-1.12,3.56,60.00,-3.81,0.87,-0.15,-0.26,2.50,5.60,0.69,-3.56,0.00,0.00
164628765,-27.38,8.25,-1.12,3.25,58.88,-4.25,0.86,-0.15,-0.19,2.50,5.60,0.73,-3.25,0.00,0.00
164639198,-26.81,8.19,-1.12,3.00,57.50,-4.62,0.76,-0.24,-0.19,2.50,5.60,0.73,-3.00,0.00,0.00
164649203,-26.25,8.12,-1.19,2.56,56.44,-5.06,0.61,-0.23,-0.14,2.50,5.60,0.74,-2.56,0.00,0.00
164659207,-25.69,8.12,-1.19,2.31,55.00,-5.31,0.86,-0.12,-0.24,2.50,5.60,0.76,-2.31,0.00,0.00
164669212,-25.19,8.06,-1.19,1.94,54.12,-5.56,0.87,-0.10,-0.25,2.50,5.60,0.79,-1.94,0.00,0.00
164679664,-24.69,8.06,-1.25,1.56,52.88,-5.31,0.90,-0.03,-0.30,2.50,5.60,0.81,-1.56,0.00,0.00
164689666,-24.19,8.00,-1.25,1.56,51.69,-5.19,0.69,0.02,-0.32,2.50,5.60,0.82,-1.56,0.00,0.00
164699671,-23.69,8.00,-1.25,1.50,50.44,-5.00,0.62,-0.11,-0.20,2.50,5.60,0.87,-1.50,0.00,0.00
164709673,-23.19,8.00,-1.31,1.44,49.38,-5.25,0.41,-0.16,-0.17,2.50,5.60,1.04,-1.44,0.00,0.00
164719676,-22.69,7.94,-1.31,1.19,48.44,-5.44,0.31,-0.24,-0.11,2.50,5.60,1.05,-1.19,0.00,0.00
164729679,-22.25,7.94,-1.38,0.81,47.81,-5.94,0.29,-0.35,-0.08,2.50,5.60,1.09,-0.81,0.00,0.00
164739682,-21.81,7.94,-1.38,0.12,46.75,-6.31,0.65,-0.26,-0.16,2.50,5.60,1.11,-0.12,0.00,0.00
164749685,-21.31,7.94,-1.44,-0.44,46.06,-6.44,0.73,-0.14,-0.20,2.50,5.60,1.14,0.44,0.00,0.00
164759688,-20.88,7.94,-1.44,-0.69,45.06,-6.19,0.77,-0.11,-0.19,2.50,5.60,1.25,0.69,0.00,0.00
164769691,-20.50,7.94,-1.44,-0.94,44.31,-5.81,0.73,0.00,-0.25,2.50,5.60,1.26,0.94,0.00,0.00
164779695,-20.06,7.94,-1.50,-0.88,43.44,-5.31,0.62,0.11,-0.28,2.50,5.60,1.28,0.88,0.00,0.00
164792360,-19.62,7.94,-1.50,-0.56,42.94,-5.00,0.46,0.00,-0.24,2.50,5.60,1.29,0.56,0.00,0.00
164802364,-19.19,7.94,-1.50,-0.81,42.38,-4.81,0.22,0.00,-0.27,2.50,5.60,1.31,0.81,0.00,0.00
164812367,-18.81,8.00,-1.56,-0.81,41.69,-4.81,0.44,-0.04,-0.18,2.50,5.60,1.31,0.81,0.00,0.00
164822371,-18.38,8.00,-1.56,-0.94,41.38,-4.62,0.49,0.07,-0.13,2.50,5.60,1.31,0.94,0.00,0.00
164832374,-18.00,8.00,-1.56,-0.81,40.69,-4.12,0.64,0.07,-0.15,2.50,5.60,1.31,0.81,0.00,0.00
164842378,-17.56,8.00,-1.56,-0.88,40.12,-3.75,0.61,0.14,-0.23,2.50,5.60,1.31,0.88,0.00,0.00
164852383,-17.19,8.00,-1.56,-0.56,39.56,-3.38,0.51,0.20,-0.27,2.50,5.60,1.31,0.56,0.00,0.00
164862386,-16.81,8.00,-1.62,-0.25,39.00,-2.75,0.46,0.22,-0.24,2.50,5.60,1.31,0.25,0.00,0.00
164872390,-16.44,7.94,-1.62,0.12,38.50,-3.00,0.31,0.17,-0.19,2.50,5.60,1.30,-0.12,0.00,0.00
164882393,-16.06,7.94,-1.62,0.62,37.81,-3.12,0.26,0.15,-0.24,2.50,5.60,1.30,-0.62,0.00,0.00
164892397,-15.69,7.94,-1.62,0.81,37.44,-3.44,0.20,0.08,-0.16,2.50,5.60,1.31,-0.81,0.00,0.00
164902401,-15.38,7.94,-1.62,1.06,37.12,-3.69,0.25,-0.26,-0.04,2.50,5.60,1.31,-1.06,0.00,0.00
164912403,-15.00,7.94,-1.62,0.81,36.81,-3.94,0.26,-0.18,-0.08,2.50,5.60,1.31,-0.81,0.00,0.00
164922406,-14.62,7.94,-1.69,0.44,36.25,-4.06,0.19,-0.23,-0.07,2.50,5.60,1.30,-0.44,0.00,0.00
164932409,-14.25,7.94,-1.69,0.12,36.19,-4.06,0.14,-0.28,-0.06,2.50,5.60,1.30,-0.12,0.00,0.00
164942412,-13.94,7.94,-1.69,0.00,35.88,-4.00,0.00,-0.18,-0.14,2.50,5.60,1.29,0.00,0.00,0.00
164952417,-13.56,7.94,-1.69,-0.38,35.81,-4.06,-0.10,-0.12,-0.14,2.50,5.60,1.30,0.38,0.00,0.00
164962421,-13.25,7.88,-1.75,-0.38,35.88,-4.25,-0.11,-0.14,-0.16,2.50,5.60,1.30,0.38,0.00,0.00
164972424,-12.94,7.88,-1.75,-0.62,35.88,-4.31,-0.34,-0.25,-0.15,2.50,5.60,1.30,0.62,0.00,0.00
164982428,-12.56,7.88,-1.75,-0.88,36.00,-4.88,-0.13,-0.20,-0.14,2.50,5.60,1.29,0.88,0.00,0.00
164992432,-12.25,7.88,-1.81,-1.19,36.06,-5.56,-0.17,-0.26,-0.15,2.50,5.60,1.30,1.19,0.00,0.00
165002435,-11.88,7.88,-1.81,-1.56,36.31,-5.50,-0.26,-0.31,-0.16,2.50,5.60,1.30,1.56,0.00,0.00
165012440,-11.56,7.94,-1.81,-1.94,36.50,-5.88,-0.05,-0.17,-0.20,2.50,5.60,1.29,1.94,0.00,0.00
165022444,-11.19,7.94,-1.88,-2.50,36.75,-5.69,-0.09,-0.05,-0.34,2.50,5.60,1.29,2.50,0.00,0.00
165033349,-10.81,7.94,-1.88,-2.44,37.06,-5.25,-0.13,0.05,-0.40,2.50,5.60,1.29,2.44,0.00,0.00
165043394,-10.44,8.00,-1.94,-2.56,37.25,-5.12,-0.14,0.23,-0.43,2.50,5.60,1.31,2.56,0.00,0.00
165055254,-10.12,8.00,-1.94,-2.50,37.38,-5.25,-0.19,0.20,-0.41,2.50,5.60,1.30,2.50,0.00,0.00
165066785,-9.75,8.00,-1.94,-2.06,37.50,-5.62,-0.14,0.21,-0.39,2.50,5.60,1.30,2.06,0.00,0.00
165076790,-9.38,8.06,-2.00,-1.75,37.81,-5.62,-0.08,0.21,-0.41,2.50,5.60,1.30,1.75,0.00,0.00
165086793,-9.00,8.06,-2.00,-1.62,37.88,-5.88,0.02,0.02,-0.37,2.50,5.60,1.30,1.62,0.00,0.00
165100019,-8.62,8.06,-2.06,-1.38,38.56,-4.75,-0.17,0.04,-0.43,2.50,5.60,1.30,1.38,0.00,0.00
165110023,-8.25,8.06,-2.06,-1.44,39.00,-4.12,-0.20,0.12,-0.48,2.50,5.60,1.29,1.44,0.00,0.00
165121993,-7.50,8.12,-2.06,-1.38,39.25,-3.75,-0.31,0.24,-0.47,2.50,5.60,1.30,1.38,0.00,0.00
165131997,-7.12,8.12,-2.12,-1.06,39.62,-3.88,-0.44,0.21,-0.45,2.50,5.60,1.31,1.06,0.00,0.00
165142231,-6.81,8.19,-2.12,-0.62,40.06,-4.31,-0.38,0.35,-0.46,2.50,5.60,1.31,0.62,0.00,0.00
165152235,-6.44,8.19,-2.12,0.00,40.50,-4.88,-0.31,0.15,-0.43,2.50,5.60,1.30,0.00,0.00,0.00
165162239,-6.06,8.25,-2.12,0.38,40.69,-5.44,-0.33,-0.03,-0.40,2.50,5.60,1.31,-0.38,0.00,0.00
165172242,-5.69,8.25,-2.19,0.50,41.19,-5.56,-0.27,-0.03,-0.41,2.50,5.60,1.31,-0.50,0.00,0.00
165182450,-5.25,8.25,-2.19,0.62,41.50,-5.19,-0.09,-0.21,-0.44,2.50,5.60,1.31,-0.62,0.00,0.00
165192454,-4.88,8.19,-2.25,0.44,41.81,-4.94,-0.24,-0.13,-0.45,2.50,5.60,1.30,-0.44,0.00,0.00
165203096,-4.44,8.19,-2.25,0.31,42.25,-4.75,-0.39,-0.05,-0.43,2.50,5.60,1.31,-0.31,0.00,0.00
165213105,-4.06,8.19,-2.25,0.19,42.38,-4.62,-0.26,-0.06,-0.45,2.50,5.60,1.31,-0.19,0.00,0.00
165224131,-3.62,8.19,-2.25,0.19,42.50,-4.62,-0.13,0.02,-0.45,2.50,5.60,1.31,-0.19,0.00,0.00
165234133,-3.19,8.19,-2.31,0.62,42.75,-5.19,-0.17,-0.04,-0.46,2.50,5.60,1.30,-0.62,0.00,0.00
165244136,-2.81,8.19,-2.31,0.75,42.94,-5.56,0.10,-0.22,-0.40,2.50,5.60,1.31,-0.75,0.00,0.00
165254141,-2.38,8.19,-2.31,0.94,43.06,-5.56,0.16,-0.32,-0.35,2.50,5.60,1.31,-0.94,0.00,0.00
165265982,-1.94,8.19,-2.38,0.56,42.94,-5.69,0.04,-0.51,-0.27,2.50,5.60,1.31,-0.56,0.00,0.00
165275986,-1.56,8.19,-2.38,0.44,42.69,-6.06,0.29,-0.48,-0.23,2.50,5.60,1.31,-0.44,0.00,0.00
165287622,-1.12,8.19,-2.44,0.06,42.62,-6.19,-0.10,-0.41,-0.28,2.50,5.60,1.30,-0.06,0.00,0.00
165298314,-0.69,8.19,-2.44,-0.38,42.31,-6.62,0.36,-0.34,-0.30,2.50,5.60,1.31,0.38,0.00,0.00
165310644,-0.31,8.19,-2.50,-1.12,42.06,-8.12,0.20,-0.35,-0.33,2.50,5.60,1.31,1.12,0.00,0.00
165320647,0.06,8.19,-2.56,-1.12,42.06,-8.12,-0.02,-0.25,-0.30,2.50,5.60,1.32,1.12,0.00,0.00
165330651,0.44,8.25,-2.62,-1.19,41.62,-8.56,0.16,-0.22,-0.25,2.50,5.60,1.31,1.19,0.00,0.00
165340654,0.88,8.25,-2.69,-1.38,41.25,-8.62,0.00,-0.32,-0.30,2.50,2.10,1.32,1.38,0.00,0.00
165351514,1.31,8.25,-2.69,-1.56,41.19,-8.25,-0.04,-0.26,-0.28,2.50,2.10,1.32,1.56,0.00,0.00
165361518,1.69,8.25,-2.75,-1.81,41.56,-7.88,-0.02,-0.25,-0.28,2.50,2.10,1.32,1.81,0.00,0.00
165371520,2.12,8.25,-2.81,-1.81,41.56,-7.88,0.02,-0.29,-0.28,2.50,2.10,1.32,1.81,0.00,0.00
165381523,2.50,8.25,-2.88,-1.94,41.75,-7.81,-0.14,-0.03,-0.35,2.50,2.10,1.32,1.94,0.00,0.00
165391527,2.94,8.31,-2.94,-2.19,41.62,-8.38,0.07,0.01,-0.37,2.50,2.10,1.32,2.19,0.00,0.000
165401530,3.31,8.31,-2.94,-1.94,41.62,-9.00,0.05,-0.05,-0.40,2.50,2.10,1.33,1.94,0.00,0.00
165411533,3.75,8.31,-3.00,-1.81,41.81,-9.25,-0.09,-0.06,-0.43,2.50,2.10,1.32,1.81,0.00,0.00
165421537,4.12,8.38,-3.06,-1.44,42.06,-9.56,0.33,-0.19,-0.46,2.50,2.10,1.33,1.44,0.00,0.00
165431541,4.56,8.38,-3.12,-1.25,42.19,-9.38,0.28,-0.15,-0.51,2.50,2.10,1.33,1.25,0.00,0.00
165444167,5.38,8.38,-3.25,-1.38,41.81,-9.31,0.00,-0.12,-0.55,2.50,2.10,1.34,1.38,0.00,0.00
165454179,5.81,8.38,-3.31,-1.44,41.50,-9.19,0.63,0.22,-0.57,2.50,2.10,1.34,1.44,0.00,0.00
165464183,6.19,8.38,-3.38,-1.12,41.44,-8.81,0.56,0.13,-0.50,2.50,2.10,1.35,1.12,0.00,0.00
165474185,6.62,8.38,-3.44,-0.56,41.06,-8.50,0.40,0.17,-0.53,2.50,2.10,1.35,0.56,0.00,0.00
165484189,7.00,8.38,-3.50,-0.06,40.50,-8.38,0.75,0.13,-0.51,2.50,2.10,1.35,0.06,0.00,0.00
165494191,7.44,8.38,-3.56,0.56,40.00,-7.56,0.90,-0.12,-0.47,2.50,2.10,1.35,-0.56,0.00,0.00
165504194,7.81,8.38,-3.56,0.69,39.00,-6.62,0.69,-0.17,-0.45,2.50,2.10,1.34,-0.69,0.00,0.00
165514199,8.19,8.38,-3.62,0.81,38.12,-5.75,0.87,-0.22,-0.43,2.50,2.10,1.35,-0.81,0.00,0.00
165524202,8.56,8.38,-3.62,0.62,36.88,-5.06,0.94,-0.16,-0.47,2.50,2.10,1.36,-0.62,0.00,0.00
165534206,8.88,8.38,-3.62,0.56,35.81,-4.50,0.72,-0.24,-0.41,2.50,2.10,1.36,-0.56,0.00,0.00
165544210,9.25,8.38,-3.69,0.50,34.56,-4.00,0.93,-0.15,-0.41,2.50,2.10,1.36,-0.50,0.00,0.00
165554213,9.56,8.38,-3.69,0.56,33.44,-3.69,0.87,-0.04,-0.41,2.50,2.10,1.36,-0.56,0.00,0.00
165564218,9.88,8.38,-3.69,0.81,32.00,-3.25,0.85,-0.14,-0.35,2.50,2.10,1.37,-0.81,0.00,0.00
165574223,10.12,8.38,-3.69,1.12,29.19,-3.25,1.10,-0.45,-0.23,2.50,2.10,1.36,-1.12,0.00,0.00
165584227,10.44,8.38,-3.69,1.12,29.19,-3.25,1.08,-0.55,-0.21,2.50,2.10,1.36,-1.12,0.00,0.00
165594229,10.69,8.31,-3.69,1.06,27.38,-3.56,0.84,-0.88,-0.12,2.50,2.10,1.36,-1.06,0.00,0.00
165604231,10.94,8.31,-3.75,-0.19,24.19,-5.06,0.79,-0.99,-0.11,2.50,2.10,1.36,0.19,0.00,0.00
165614235,11.19,8.31,-3.81,-1.00,22.69,-5.88,0.96,-0.86,-0.10,2.50,2.10,1.37,1.00,0.00,0.00
165624239,11.38,8.38,-3.81,-1.75,21.06,-6.56,0.73,-0.82,-0.13,2.50,2.10,1.37,1.75,0.00,0.00
165634244,11.56,8.38,-3.88,-2.44,19.56,-6.81,0.81,-0.58,-0.22,2.50,2.10,1.37,2.44,0.00,0.00
165644249,11.75,8.38,-3.94,-2.94,18.25,-6.88,0.98,-0.44,-0.19,2.50,2.10,1.37,2.94,0.00,0.00
165654252,11.94,8.44,-4.00,-3.00,16.88,-6.56,0.67,-0.34,-0.10,2.50,2.10,1.37,3.00,0.00,0.00
165664256,12.06,8.44,-4.06,-3.31,15.81,-6.25,0.78,-0.26,-0.13,2.50,2.10,1.37,3.31,0.00,0.00
165674260,12.25,8.44,-4.12,-3.50,14.88,-5.81,0.91,-0.30,-0.18,2.50,2.10,1.37,3.50,0.00,0.00
165684263,12.38,8.50,-4.12,-3.56,13.81,-5.31,0.86,-0.24,-0.18,2.50,2.10,1.37,3.56,0.00,0.00
165695367,12.50,8.50,-4.19,-3.50,12.88,-4.94,0.61,-0.12,-0.24,2.50,2.10,1.37,3.50,0.00,0.00
165705370,12.62,8.56,-4.25,-3.50,12.00,-4.69,0.58,-0.07,-0.30,2.50,2.10,1.37,3.50,0.00,0.00
165715372,12.75,8.56,-4.25,-3.44,11.19,-4.19,0.32,0.08,-0.34,2.50,2.10,1.38,3.44,0.00,0.00
165725375,12.88,8.62,-4.31,-2.94,11.19,-3.50,0.26,0.20,-0.37,2.50,2.10,1.37,2.94,0.00,0.00
165735378,12.94,8.62,-4.31,-2.38,11.00,-2.69,0.32,0.16,-0.33,2.50,2.10,1.38,2.38,0.00,0.00
165745381,13.06,8.62,-4.31,-1.94,10.81,-2.00,0.20,0.17,-0.34,2.50,2.10,1.38,1.94,0.00,0.00
165755385,13.19,8.62,-4.38,-1.50,10.69,-1.19,0.08,0.12,-0.35,2.50,2.10,1.39,1.50,0.00,0.00
165765387,13.25,8.69,-4.31,-0.94,10.62,-0.50,0.33,0.06,-0.27,2.50,2.10,1.38,0.94,0.00,0.00
165775391,13.38,8.69,-4.31,-0.69,10.50,0.00,0.08,0.13,-0.25,2.50,2.10,1.38,0.69,0.00,0.00
165786235,13.50,8.69,-4.31,-0.31,10.44,0.31,0.07,0.03,-0.25,2.50,2.10,1.38,0.31,0.00,0.00
165796239,13.62,8.69,-4.31,-0.12,10.38,0.25,0.07,-0.07,-0.24,2.50,2.10,1.39,0.12,0.00,0.00
165806242,13.69,8.69,-4.31,0.00,10.56,0.31,-0.01,-0.06,-0.27,2.50,2.10,1.39,0.00,0.00,0.00
165816245,13.81,8.69,-4.31,0.25,10.56,0.44,-0.22,-0.14,-0.25,2.50,2.10,1.39,-0.25,0.00,0.00
165826248,13.94,8.69,-4.31,0.38,10.94,0.31,-0.13,-0.24,-0.21,2.50,2.10,1.39,-0.38,0.00,0.00
165836252,14.00,8.69,-4.31,0.44,11.25,0.25,-0.05,-0.20,-0.20,2.50,2.10,1.39,-0.44,0.00,0.00
165846254,14.12,8.69,-4.25,0.50,11.31,0.19,-0.20,-0.21,-0.24,2.50,2.10,1.39,-0.50,0.00,0.00
165857272,14.25,8.69,-4.25,0.06,11.62,0.00,-0.16,-0.33,-0.13,2.50,2.10,1.40,-0.06,0.00,0.00
165867274,14.31,8.69,-4.25,-0.06,11.81,-0.31,-0.25,-0.25,-0.10,2.50,2.10,1.39,0.06,0.00,0.00
165878892,14.44,8.69,-4.25,-0.31,11.88,-0.75,-0.36,-0.19,-0.11,2.50,2.10,1.39,0.31,0.00,0.00
165888895,14.50,8.69,-4.25,-0.56,12.56,-0.62,-0.39,-0.28,-0.13,2.50,2.10,1.39,0.56,0.00,0.00
165900394,14.62,8.62,-4.25,-0.69,12.75,-0.69,-0.29,-0.27,-0.19,2.50,2.10,1.39,0.69,0.00,0.00
165911059,14.75,8.62,-4.25,-0.81,13.12,-0.81,-0.23,-0.33,-0.15,2.50,2.10,1.40,0.81,0.00,0.00
165923075,14.88,8.62,-4.25,-0.88,13.62,-0.75,-0.17,-0.47,-0.11,2.50,2.10,1.39,0.88,0.00,0.00
165933078,15.00,8.62,-4.25,-1.00,13.88,-0.88,-0.28,-0.53,-0.08,2.50,2.10,1.40,1.00,0.00,0.00
165943081,15.06,8.62,-4.25,-2.06,14.19,-1.62,-0.12,-0.43,-0.07,2.50,2.10,1.40,2.06,0.00,0.00
165953085,15.19,8.56,-4.25,-2.44,14.25,-1.81,-0.09,-0.56,-0.04,2.50,2.10,1.40,2.44,0.00,0.00
165964403,15.31,8.56,-4.31,-3.06,14.50,-2.25,-0.29,-0.53,-0.07,2.50,2.10,1.40,3.06,0.00,0.00
165974407,15.44,8.56,-4.31,-3.56,14.88,-2.50,-0.18,-0.32,-0.29,2.50,2.10,1.40,3.56,0.00,0.00
165984410,15.62,8.56,-4.31,-3.69,15.19,-2.56,-0.15,-0.28,-0.29,2.50,2.10,1.41,3.69,0.00,0.00
165994762,15.88,8.56,-4.38,-3.75,15.56,-2.81,-0.39,-0.22,-0.33,2.50,2.10,1.41,3.75,0.00,0.00
166004766,16.06,8.62,-4.44,-4.00,16.06,-2.94,-0.23,-0.10,-0.32,2.50,2.10,1.41,4.00,0.00,0.00
166015209,16.19,8.62,-4.44,-3.94,16.31,-2.88,-0.08,-0.26,-0.22,2.50,2.10,1.41,3.94,0.00,0.00
166025211,16.19,8.62,-4.44,-4.31,16.62,-2.50,-0.20,-0.27,-0.21,2.50,2.10,1.41,4.31,0.00,0.00
166035215,16.38,8.69,-4.44,-4.31,16.75,-2.56,-0.17,-0.14,-0.27,2.50,2.10,1.41,4.31,0.00,0.00
166045219,16.69,8.75,-4.50,-4.31,17.00,-1.81,0.11,-0.18,-0.27,2.50,2.10,1.41,4.31,0.00,0.00
166055223,16.88,8.81,-4.50,-4.00,17.44,-1.62,-0.17,0.03,-0.32,2.50,2.10,1.41,4.00,0.00,0.00
166065226,17.00,8.81,-4.50,-3.69,17.50,-2.25,-0.26,0.11,-0.33,2.50,2.10,1.41,3.69,0.00,0.00
166075230,17.00,8.81,-4.50,-3.31,17.44,-2.62,-0.03,0.06,-0.33,2.50,2.10,1.42,3.31,0.00,0.00
166085234,17.38,8.88,-4.56,-3.00,17.38,-3.38,0.00,0.03,-0.32,2.50,2.10,1.41,3.00,0.00,0.00
166095971,17.56,8.94,-4.56,-2.88,17.38,-4.06,-0.08,0.09,-0.30,2.50,2.10,1.41,2.88,0.00,0.00
166105984,17.69,8.94,-4.62,-2.44,17.50,-4.19,0.09,0.00,-0.29,2.50,2.10,1.42,2.44,0.00,0.00
166117738,17.88,8.94,-4.62,-2.25,17.44,-3.75,0.06,0.01,-0.28,2.50,2.10,1.42,2.25,0.00,0.00
166127741,18.06,9.00,-4.69,-2.06,17.62,-3.31,0.06,0.06,-0.28,2.50,2.10,1.42,2.06,0.00,0.00
166138420,18.25,9.00,-4.69,-1.88,17.69,-2.88,0.20,-0.08,-0.27,2.50,2.10,1.42,1.88,0.00,0.00
166148547,18.38,9.00,-4.69,-1.81,17.62,-2.81,0.33,0.01,-0.22,2.50,2.10,1.42,1.81,0.00,0.00
166161103,18.56,9.06,-4.69,-1.81,17.56,-2.69,0.15,0.01,-0.19,2.50,2.10,1.43,1.81,0.00,0.00
166172335,18.75,9.06,-4.75,-1.56,17.31,-2.75,0.18,-0.07,-0.16,2.50,2.10,1.44,1.56,0.00,0.00
166182522,18.94,9.06,-4.75,-1.38,17.12,-2.69,0.23,0.13,-0.22,2.50,2.10,1.44,1.38,0.00,0.00
166192526,19.06,9.06,-4.75,-1.25,16.94,-2.69,0.12,0.00,-0.23,2.50,2.10,1.43,1.25,0.00,0.00
166204700,19.25,9.06,-4.75,-0.75,16.69,-2.31,0.27,0.08,-0.25,2.50,2.10,1.44,0.75,0.00,0.00
166214703,19.44,9.12,-4.75,-0.38,16.44,-2.06,0.32,-0.12,-0.19,2.50,2.10,1.43,0.38,0.00,0.00
166224719,19.62,9.12,-4.81,-0.38,16.44,-2.06,0.27,-0.20,-0.13,2.50,2.10,1.44,0.38,0.00,0.00
166234721,19.75,9.12,-4.81,-0.25,16.12,-1.56,0.27,-0.22,-0.09,2.50,2.10,1.43,0.25,0.00,0.00
166244726,19.94,9.12,-4.81,-0.50,15.75,-1.25,0.18,-0.13,-0.11,2.50,2.10,1.44,0.50,0.00,0.00
166254729,20.12,9.06,-4.81,-0.50,15.56,-1.56,-0.13,-0.13,-0.13,2.50,2.10,1.46,0.50,0.00,0.00
166265352,20.25,9.06,-4.81,-0.56,15.38,-2.00,-0.06,0.00,-0.18,2.50,2.10,1.45,0.56,0.00,0.00
166275356,20.44,9.06,-4.81,-0.56,15.38,-2.00,-0.08,-0.02,-0.22,2.50,2.10,1.45,0.56,0.00,0.00
166285360,20.56,9.06,-4.81,-0.56,15.50,-2.56,-0.18,-0.14,-0.21,2.50,2.10,1.46,0.56,0.00,0.00
166295364,20.75,9.06,-4.81,-0.19,15.88,-2.88,-0.13,-0.23,-0.31,2.50,2.10,1.46,0.19,0.00,0.00
166308703,21.06,9.06,-4.88,-0.44,15.56,-3.31,0.21,-0.14,-0.29,2.50,2.10,1.46,0.44,0.00,0.00
166318705,21.19,9.06,-4.88,-0.38,15.62,-3.25,-0.25,-0.32,-0.18,2.50,2.10,1.46,0.38,0.00,0.00
166328708,21.31,9.06,-4.94,-0.38,15.88,-3.94,-0.16,-0.19,-0.25,2.50,2.10,1.46,0.38,0.00,0.00
166338711,21.50,9.06,-4.94,-0.50,15.88,-4.56,-0.12,-0.17,-0.25,2.50,2.10,1.46,0.50,0.00,0.00
166348713,21.69,9.00,-5.00,-0.31,16.06,-5.00,-0.29,-0.27,-0.30,2.50,2.10,1.47,0.31,0.00,0.00
166358717,21.81,9.00,-5.06,-0.50,16.19,-5.56,-0.27,-0.19,-0.32,2.50,2.10,1.48,0.50,0.00,0.00
166368719,22.00,9.00,-5.06,-0.44,16.25,-6.19,-0.02,-0.12,-0.38,2.50,5.59,1.48,0.44,0.00,0.00
166378722,22.12,9.00,-5.12,-0.31,16.25,-5.88,-0.10,-0.35,-0.29,2.50,5.59,1.48,0.31,0.00,0.00
166388737,22.31,8.94,-5.19,-0.62,16.50,-5.56,-0.07,-0.34,-0.28,2.50,5.59,1.50,0.62,0.00,0.00
166398743,22.50,8.94,-5.25,-0.88,16.69,-5.25,0.08,-0.25,-0.31,2.50,5.59,1.48,0.88,0.00,0.00
166408745,22.62,8.94,-5.25,-1.25,16.81,-4.69,-0.04,-0.32,-0.27,2.50,5.59,1.48,1.25,0.00,0.00
166418748,22.81,8.94,-5.31,-1.56,16.81,-4.19,0.00,-0.20,-0.35,2.50,5.59,1.49,1.56,0.00,0.00
166429291,23.00,9.00,-5.31,-1.69,16.81,-3.81,0.13,-0.19,-0.36,2.50,5.59,1.49,1.69,0.00,0.00
166439295,23.12,9.00,-5.31,-1.62,16.50,-3.31,-0.51,-0.01,-0.46,2.50,5.59,1.50,1.62,0.00,0.00
166452527,23.31,9.00,-5.38,-1.44,16.94,-3.38,0.02,-0.07,-0.41,2.50,5.59,1.51,1.44,0.00,0.00
166463253,23.50,9.00,-5.38,-1.19,16.81,-3.56,-0.08,0.05,-0.36,2.50,5.59,1.50,1.19,0.00,0.00
166477539,23.81,9.00,-5.44,-0.62,16.81,-4.06,0.08,-0.14,-0.32,2.50,5.59,1.51,0.62,0.00,0.00
166487542,24.00,9.00,-5.50,-0.44,16.94,-3.75,0.05,-0.03,-0.39,2.50,5.59,1.51,0.44,0.00,0.00
166497546,24.12,9.00,-5.50,-0.31,16.75,-3.12,-0.01,-0.03,-0.38,2.50,5.59,1.51,0.31,0.00,0.00
166507548,24.31,9.00,-5.50,-0.19,17.00,-2.62,0.14,-0.11,-0.29,2.50,5.59,1.51,0.19,0.00,0.00
166517551,24.50,9.00,-5.50,-0.19,17.00,-2.44,0.14,-0.05,-0.31,2.50,5.59,1.50,0.19,0.00,0.00
166527556,24.62,9.00,-5.50,0.31,16.94,-2.25,0.00,-0.04,-0.35,2.50,5.59,1.52,-0.31,0.00,0.00
166537559,24.81,9.00,-5.56,0.56,16.88,-2.50,0.21,-0.23,-0.29,2.50,5.59,1.52,-0.56,0.00,0.00
166547562,25.00,9.00,-5.56,0.56,16.44,-3.12,0.26,-0.32,-0.25,2.50,5.59,1.52,-0.56,0.00,0.00
166557564,25.19,8.94,-5.56,0.62,16.00,-3.19,0.27,-0.28,-0.24,2.50,5.59,1.52,-0.62,0.00,0.00
166567569,25.31,8.94,-5.62,0.56,15.56,-3.62,0.68,-0.67,-0.14,2.50,5.59,1.52,-0.56,0.00,0.00
166577572,25.50,8.94,-5.62,0.12,14.88,-2.88,-0.28,-0.53,-0.22,2.50,5.59,1.53,-0.12,0.00,0.00
166587577,25.62,8.94,-5.62,-0.31,14.38,-2.81,0.49,-0.23,-0.20,2.50,5.59,1.53,0.31,0.00,0.00
166598384,25.75,8.94,-5.62,-0.31,13.69,-2.44,0.53,-0.49,-0.10,2.50,5.59,1.52,0.31,0.00,0.00
166608389,25.88,8.94,-5.69,-0.62,13.25,-2.38,0.07,0.12,-0.31,2.50,5.59,1.53,0.62,0.00,0.00
166618811,26.00,8.94,-5.69,-0.25,12.94,-3.12,0.25,0.03,-0.25,2.50,5.59,1.54,0.25,0.00,0.00
166628821,26.12,8.94,-5.69,0.12,12.44,-3.62,0.35,-0.13,-0.28,2.50,5.59,1.53,-0.12,0.00,0.00
166638826,26.25,8.94,-5.75,0.25,11.81,-3.56,0.23,-0.06,-0.31,2.50,5.59,1.53,-0.25,0.00,0.00
166648829,26.38,8.94,-5.75,0.69,11.44,-3.31,0.65,-0.35,-0.22,2.50,5.59,1.53,-0.69,0.00,0.00
166658832,26.50,8.94,-5.81,0.69,10.69,-2.75,0.72,-0.63,-0.10,2.50,5.59,1.54,-0.69,0.00,0.00
166668837,26.56,8.94,-5.81,0.25,9.75,-2.00,0.73,-0.47,-0.09,2.50,5.59,1.55,-0.25,0.00,0.00
166678841,26.69,8.94,-5.81,-0.06,8.69,-1.62,0.68,-0.30,-0.10,2.50,5.59,1.54,0.06,0.00,0.00
166689641,26.75,8.94,-5.81,-0.19,7.69,-1.62,0.62,-0.36,-0.11,2.50,5.59,1.55,0.19,0.00,0.00
166699644,26.81,8.88,-5.81,-0.38,6.38,-2.12,0.40,-0.11,-0.18,2.50,5.59,1.54,0.38,0.00,0.00
166709649,26.88,8.88,-5.88,-0.19,5.62,-2.44,0.39,-0.12,-0.22,2.50,5.59,1.54,0.19,0.00,0.00
166719651,26.94,8.88,-5.88,-0.38,4.62,-2.69,0.49,-0.24,-0.23,2.50,5.59,1.54,0.38,0.00,0.00
166729654,27.06,8.81,-5.94,-0.25,3.81,-2.38,0.69,-0.12,-0.26,2.50,5.59,1.55,0.25,0.00,0.00
166739657,27.19,8.81,-5.94,-0.25,2.94,-1.88,0.77,-0.19,-0.19,2.50,5.59,1.55,0.25,0.00,0.00
166749661,27.19,8.81,-5.94,-0.06,2.06,-1.19,0.81,-0.34,-0.12,2.50,5.59,1.55,0.06,0.00,0.00
166759665,27.19,8.81,-5.94,0.00,0.88,-0.38,0.95,-0.28,-0.11,2.50,5.59,1.54,0.00,0.00,0.00
166770201,27.19,8.81,-5.94,-0.19,-0.50,0.44,0.72,-0.24,-0.13,2.50,5.59,1.54,0.19,0.00,0.00
166780204,27.19,8.81,-5.94,-0.44,-1.62,1.00,0.53,0.05,-0.25,2.50,5.59,1.55,0.44,0.00,0.00
166790835,27.25,8.81,-5.94,-0.31,-2.69,0.75,0.71,0.10,-0.24,2.50,5.59,1.54,0.31,0.00,0.00
166800838,27.25,8.81,-5.94,0.25,-4.19,0.56,0.53,-0.04,-0.24,2.50,5.59,1.54,-0.25,0.00,0.00
166811055,27.25,8.81,-5.94,0.50,-5.31,0.31,0.45,0.14,-0.38,2.50,5.59,1.54,-0.50,0.00,0.00
166821059,27.19,8.81,-5.94,1.12,-5.81,0.25,0.70,-0.28,-0.26,2.50,5.59,1.53,-1.12,0.00,0.00
166832318,27.12,8.81,-5.94,1.12,-6.69,1.06,0.79,-0.25,-0.23,2.50,5.59,1.52,-1.12,0.00,0.00
166842322,27.12,8.75,-5.94,1.00,-7.62,2.38,0.55,-0.18,-0.19,2.50,5.59,1.53,-1.00,0.00,0.00
166855931,27.00,8.75,-5.94,0.88,-8.31,3.00,0.22,-0.17,-0.14,2.50,5.59,1.53,-0.88,0.00,0.00
166865941,26.94,8.75,-5.88,0.62,-9.25,3.38,0.03,-0.13,-0.20,2.50,5.59,1.53,-0.62,0.00,0.00
166878165,26.81,8.75,-5.88,0.69,-10.19,3.00,-0.35,-0.09,-0.26,2.50,5.59,1.53,-0.69,0.00,0.00
166888169,26.75,8.75,-5.81,0.81,-10.12,2.50,-0.35,-0.01,-0.34,2.50,5.59,1.53,-0.81,0.00,0.00
166899795,26.50,8.75,-5.81,1.25,-10.06,2.25,-0.40,-0.04,-0.40,2.50,5.59,1.53,-1.25,0.00,0.00
166909798,26.44,8.75,-5.75,1.38,-9.94,2.12,-0.45,-0.06,-0.33,2.50,5.59,1.52,-1.38,0.00,0.00
166919813,26.31,8.75,-5.75,1.56,-9.50,2.06,-0.39,-0.20,-0.25,2.50,5.59,1.52,-1.56,0.00,0.00
166929817,26.25,8.75,-5.75,1.50,-9.00,2.31,-0.41,-0.28,-0.23,2.50,5.59,1.51,-1.50,0.00,0.00
166940311,26.19,8.69,-5.75,1.62,-8.56,2.50,-0.45,-0.34,-0.23,2.50,5.59,1.52,-1.62,0.00,0.00
166950314,26.06,8.69,-5.69,1.44,-7.94,2.50,-0.46,-0.35,-0.27,2.50,5.59,1.51,-1.44,0.00,0.00
166962103,26.00,8.69,-5.69,1.19,-7.56,2.44,-0.45,-0.29,-0.31,2.50,5.59,1.51,-1.19,0.00,0.00
166972106,25.88,8.62,-5.69,1.31,-7.06,2.00,-0.64,-0.22,-0.31,2.50,5.59,1.50,-1.31,0.00,0.00
166982110,25.81,8.62,-5.62,1.25,-6.50,1.69,-0.60,-0.24,-0.32,2.50,5.59,1.50,-1.25,0.00,0.00
166992113,25.69,8.56,-5.62,1.19,-5.75,0.94,-0.40,-0.18,-0.33,2.50,5.59,1.51,-1.19,0.00,0.00
167002413,25.62,8.56,-5.62,1.06,-5.38,0.69,-0.30,-0.17,-0.34,2.50,5.59,1.51,-1.06,0.00,0.00
167012417,25.56,8.56,-5.62,1.19,-5.06,0.12,-0.21,-0.45,-0.28,2.50,5.59,1.50,-1.19,0.00,0.00
167024575,25.56,8.50,-5.62,0.94,-4.94,0.12,-0.05,-0.34,-0.25,2.50,5.59,1.49,-0.94,0.00,0.00
167034579,25.50,8.50,-5.62,0.62,-5.00,0.00,-0.04,-0.40,-0.18,2.50,5.59,1.49,-0.62,0.00,0.00
167047166,25.44,8.50,-5.62,0.50,-5.06,0.00,0.08,-0.65,-0.24,2.50,5.59,1.49,-0.50,0.00,0.00
167058902,25.38,8.50,-5.62,-0.56,-5.38,-0.38,0.15,0.14,-0.34,2.50,5.59,1.48,0.56,0.00,0.00
167068905,25.38,8.50,-5.69,-0.31,-5.81,-1.12,0.21,-0.08,-0.18,2.50,5.59,1.49,0.31,0.00,0.00
167078908,25.31,8.50,-5.69,-0.31,-5.81,-1.12,0.35,-0.37,-0.18,2.50,5.59,1.48,0.31,0.00,0.00
167088911,25.25,8.50,-5.69,-0.50,-7.19,-1.31,0.63,0.01,-0.28,2.50,5.59,1.49,0.50,0.00,0.00
167098914,25.19,8.50,-5.69,-0.25,-8.00,-1.25,0.86,-0.74,-0.10,2.50,5.59,1.49,0.25,0.00,0.00
167108918,25.06,8.44,-5.75,-0.75,-9.12,-0.50,0.81,-0.62,-0.10,2.50,5.59,1.47,0.75,0.00,0.00
167119023,25.00,8.44,-5.75,-1.31,-10.19,0.00,0.77,-0.22,-0.17,2.50,5.59,1.47,1.31,0.00,0.00
167129027,24.88,8.50,-5.75,-1.50,-11.38,0.44,0.82,-0.63,-0.04,2.50,5.59,1.48,1.50,0.00,0.00
167139031,24.81,8.50,-5.75,-1.81,-12.81,0.94,0.87,-0.27,-0.12,2.50,5.59,1.46,1.81,0.00,0.00
167149173,24.69,8.50,-5.75,-2.31,-14.19,1.44,0.75,0.02,-0.20,2.50,5.59,1.47,2.31,0.00,0.00
167159177,24.56,8.50,-5.75,-2.12,-15.75,1.38,0.84,-0.03,-0.16,2.50,5.59,1.46,2.12,0.00,0.00
167170822,24.19,8.56,-5.75,-2.00,-17.06,1.75,0.98,0.16,-0.17,2.50,5.59,1.46,2.00,0.00,0.00
167180826,24.00,8.56,-5.75,-1.81,-18.81,2.19,0.97,0.06,-0.16,2.50,5.59,1.45,1.81,0.00,0.00
167192830,23.81,8.56,-5.75,-1.62,-20.44,2.12,0.86,-0.04,-0.14,2.50,5.59,1.46,1.62,0.00,0.00
167202832,23.62,8.56,-5.75,-1.38,-21.81,2.38,0.64,-0.01,-0.18,2.50,5.59,1.45,1.38,0.00,0.00
167216588,23.38,8.56,-5.75,-1.50,-23.25,2.69,0.33,0.10,-0.25,2.50,5.59,1.44,1.50,0.00,0.00
167231736,22.94,8.62,-5.75,-1.19,-24.88,2.62,0.32,0.11,-0.31,2.50,5.59,1.43,1.19,0.00,0.00
167241739,22.69,8.62,-5.69,-0.81,-25.25,3.12,0.08,0.19,-0.37,2.50,5.59,1.44,0.81,0.00,0.00
167251743,22.44,8.62,-5.69,-0.31,-25.62,3.12,-0.27,0.14,-0.39,2.50,5.59,1.43,0.31,0.00,0.00
167261746,22.19,8.62,-5.69,0.19,-25.38,3.25,-0.17,0.04,-0.33,2.50,5.59,1.42,-0.19,0.00,0.00
167271749,21.94,8.62,-5.69,0.50,-24.81,4.00,-0.42,0.09,-0.28,2.50,5.59,1.42,-0.50,0.00,0.00
167281752,21.69,8.62,-5.62,0.75,-24.00,4.25,-1.02,-0.07,-0.20,2.50,5.59,1.41,-0.75,0.00,0.00
167291754,21.44,8.62,-5.62,0.88,-23.00,3.94,-1.05,0.01,-0.24,2.50,5.59,1.41,-0.88,0.00,0.00
167301757,21.25,8.56,-5.56,1.12,-21.56,3.75,-1.33,0.12,-0.30,2.50,5.59,1.40,-1.12,0.00,0.00
167313477,21.06,8.56,-5.56,1.31,-19.69,3.62,-1.43,0.02,-0.35,2.50,5.59,1.41,-1.31,0.00,0.00
167323480,20.88,8.56,-5.56,1.44,-18.06,3.12,-1.52,0.12,-0.30,2.50,5.59,1.41,-1.44,0.00,0.00
167333483,20.75,8.56,-5.50,1.69,-15.50,2.81,-1.58,0.03,-0.29,2.50,5.59,1.41,-1.69,0.00,0.00
167343487,20.56,8.56,-5.50,2.00,-13.31,2.62,-1.80,-0.06,-0.24,2.50,5.59,1.41,-2.00,0.00,0.00
167353845,20.50,8.50,-5.50,2.19,-10.88,2.56,-1.76,-0.17,-0.24,2.50,5.59,1.40,-2.19,0.00,0.00
167363849,20.38,8.50,-5.50,2.25,-8.38,2.00,-1.79,-0.21,-0.18,2.50,5.59,1.42,-2.25,0.00,0.00
167373853,20.38,8.50,-5.44,2.12,-5.38,1.75,-1.85,-0.19,-0.16,2.50,5.59,1.42,-2.12,0.00,0.00
167384449,20.31,8.44,-5.44,2.25,-2.75,1.06,-1.90,-0.19,-0.12,2.50,5.59,1.42,-2.25,0.00,0.00
167394452,20.31,8.44,-5.44,2.06,0.00,0.50,-1.90,-0.17,-0.13,2.50,5.59,1.41,-2.06,0.00,0.00
167406713,20.38,8.44,-5.44,2.06,2.56,-0.50,-1.88,-0.02,-0.22,2.50,5.59,1.42,-2.06,0.00,0.00
167417601,20.06,8.38,-5.44,2.19,5.19,-1.06,-1.75,-0.12,-0.17,2.50,5.60,1.42,-2.19,0.00,0.00
167429532,19.81,8.31,-5.38,2.19,7.69,-1.81,-1.72,-0.01,-0.23,2.50,5.60,1.42,-2.19,0.00,0.00
167439536,19.62,8.31,-5.38,2.38,10.25,-2.44,-1.42,-0.24,-0.18,2.50,5.60,1.43,-2.38,0.00,0.00
167449792,19.50,8.25,-5.38,2.31,15.50,-3.06,-1.37,-0.28,-0.15,2.50,5.60,1.42,-2.31,0.00,0.00
167459796,19.62,8.25,-5.44,2.12,17.81,-3.44,-1.33,-0.22,-0.18,2.50,5.60,1.43,-2.12,0.00,0.00
167471417,20.00,8.19,-5.44,1.94,20.06,-3.88,-1.27,-0.15,-0.13,2.50,5.60,1.44,-1.94,0.00,0.00
167481421,20.25,8.19,-5.50,1.81,22.31,-4.31,-1.31,-0.09,-0.18,2.50,5.60,1.44,-1.81,0.00,0.00
167492229,20.50,8.12,-5.50,1.69,24.50,-4.56,-1.48,0.00,-0.23,2.50,5.60,1.45,-1.69,0.00,0.00
167502234,20.75,8.12,-5.50,1.81,26.81,-5.31,-1.48,-0.01,-0.20,2.50,5.60,1.46,-1.81,0.00,0.00
167513866,20.81,8.06,-5.56,1.88,29.06,-5.56,-1.35,-0.10,-0.18,2.50,5.60,1.46,-1.88,0.00,0.00
167523869,20.88,8.06,-5.56,1.94,31.69,-5.75,-1.42,-0.12,-0.27,2.50,5.60,1.47,-1.94,0.00,0.00
167536478,21.00,8.00,-5.56,1.94,33.94,-6.06,-1.24,0.01,-0.34,2.50,5.60,1.48,-1.94,0.00,0.00
167546592,21.31,8.00,-5.62,2.00,36.12,-6.56,-1.08,0.01,-0.32,2.50,5.60,1.48,-2.00,0.00,0.00
167557497,21.69,8.00,-5.62,2.25,38.50,-6.81,-0.98,0.00,-0.39,2.50,5.60,1.49,-2.25,0.00,0.00
167569414,22.12,7.94,-5.69,2.38,40.31,-7.19,-0.44,-0.10,-0.52,2.50,5.60,1.50,-2.38,0.00,0.00
167579416,22.50,7.94,-5.75,2.62,42.38,-7.25,-0.44,-0.10,-0.52,2.50,5.60,1.50,-2.62,0.00,0.00
167591650,22.94,7.88,-5.75,2.75,45.38,-7.19,-0.23,-0.13,-0.57,2.50,5.60,1.51,-2.75,0.00,0.00
167601653,23.38,7.88,-5.81,2.62,46.56,-6.75,0.38,-0.48,-0.49,2.50,5.60,1.54,-2.62,0.00,0.00
167612622,24.31,7.81,-5.88,2.50,47.12,-6.31,0.45,-0.81,-0.45,2.50,5.60,1.54,-2.50,0.00,0.00
167622625,24.75,7.81,-5.88,1.88,47.81,-5.56,0.23,-0.61,-0.49,2.50,5.60,1.55,-1.88,0.00,0.00
167632628,25.25,7.81,-5.88,1.19,48.12,-4.69,0.72,-0.60,-0.45,2.50,5.60,1.55,-1.19,0.00,0.00
167642632,25.69,7.81,-5.88,0.56,48.06,-4.06,0.65,-0.44,-0.46,2.50,5.60,1.56,-0.56,0.00,0.00
167653938,26.19,7.81,-5.88,-0.12,47.88,-3.62,0.54,-0.32,-0.49,2.50,5.60,1.57,0.12,0.00,0.00
167663942,26.62,7.81,-5.94,-0.62,47.62,-3.38,0.86,-0.38,-0.42,2.50,5.60,1.57,0.62,0.00,0.00
167676393,27.06,7.88,-5.94,-0.81,46.75,-3.56,0.86,-0.47,-0.36,2.50,5.60,1.58,0.81,0.00,0.00
167688668,27.56,7.88,-5.94,-1.31,45.69,-3.81,1.18,-0.49,-0.38,2.50,5.60,1.59,1.31,0.00,0.00
167698672,27.94,7.88,-5.94,-1.56,44.62,-4.25,1.38,-0.59,-0.24,2.50,5.60,1.59,1.56,0.00,0.00
167712301,28.81,7.94,-6.00,-1.94,41.06,-5.00,1.25,-0.77,-0.16,2.50,5.60,1.60,1.94,0.00,0.00
167722305,29.19,8.00,-6.00,-2.75,39.19,-5.25,1.44,-0.42,-0.30,2.50,5.60,1.61,2.75,0.00,0.00
167734884,29.56,8.00,-6.06,-3.00,37.19,-5.44,1.42,-0.45,-0.31,2.50,5.60,1.62,3.00,0.00,0.00
167744888,29.88,8.06,-6.12,-3.12,35.12,-5.88,1.56,-0.31,-0.37,2.50,5.60,1.62,3.12,0.00,0.00
167758273,30.19,8.06,-6.12,-3.50,32.81,-5.75,1.68,-0.09,-0.44,2.50,5.60,1.63,3.50,0.00,0.00
167770401,30.50,8.06,-6.19,-3.56,30.69,-5.62,1.86,-0.22,-0.43,2.50,5.60,1.63,3.56,0.00,0.00
167780403,30.81,8.12,-6.25,-3.31,28.19,-5.38,1.86,-0.22,-0.43,2.50,5.60,1.64,3.31,0.00,0.00
167790407,31.06,8.12,-6.25,-3.38,26.06,-4.62,2.04,-0.24,-0.39,2.50,5.60,1.64,3.38,0.00,0.00
167800411,31.25,8.19,-6.31,-3.56,23.38,-3.50,2.02,-0.26,-0.47,2.50,5.60,1.64,3.56,0.00,0.00
167810414,31.50,8.19,-6.31,-3.69,20.75,-2.75,2.27,0.05,-0.57,2.50,5.60,1.64,3.69,0.00,0.00
167820418,31.62,8.25,-6.38,-3.56,18.12,-1.81,2.26,0.14,-0.65,2.50,5.60,1.65,3.56,0.00,0.00
167830569,31.81,8.31,-6.38,-3.62,15.06,-0.88,2.26,0.14,-0.65,2.50,5.60,1.65,3.62,0.00,0.00
167840770,31.94,8.31,-6.38,-3.06,12.00,-0.44,2.00,0.11,-0.65,2.50,5.60,1.65,3.06,0.00,0.00
167850774,32.00,8.38,-6.38,-2.50,8.62,-0.50,3.00,-0.03,-0.70,2.50,5.60,1.64,2.50,0.00,0.00
167862115,32.06,8.38,-6.38,-1.25,1.56,1.19,2.80,-0.41,-0.58,2.50,5.60,1.64,1.25,0.00,0.00
167872117,32.06,8.44,-6.38,-1.19,-2.44,2.88,3.52,-0.02,-0.58,2.50,5.60,1.64,1.19,0.00,0.00
167882182,32.00,8.44,-6.31,-1.19,-2.44,2.88,3.60,0.10,-0.50,2.50,5.60,1.64,1.19,0.00,0.00
167892186,31.94,8.50,-6.31,-0.56,-11.50,6.31,3.24,0.00,-0.60,2.50,5.60,1.63,0.56,0.00,0.00
167902188,31.81,8.50,-6.25,0.06,-17.12,7.06,3.33,0.44,-0.73,2.50,5.60,1.63,-0.06,0.00,0.00
167912191,31.69,8.50,-6.19,0.75,-22.00,6.81,3.36,0.58,-0.71,2.50,5.60,1.62,-0.75,0.00,0.00
167922631,31.44,8.56,-6.12,1.88,-27.38,6.38,2.73,-0.34,-0.64,2.50,5.60,1.62,-1.88,0.00,0.00
167932634,31.19,8.56,-6.06,1.88,-27.38,6.38,2.58,0.01,-0.74,2.50,5.60,1.60,-1.88,0.00,0.00
167942637,30.81,8.50,-6.06,2.62,-37.06,5.56,2.59,-0.42,-0.67,2.50,5.60,1.59,-2.62,0.00,0.00
167952640,30.44,8.50,-6.00,2.75,-40.69,5.25,2.34,-0.93,-0.66,2.50,5.60,1.58,-2.75,0.00,0.00
167962706,30.06,8.44,-6.00,1.94,-47.06,5.69,1.23,-0.13,-0.83,2.50,5.60,1.58,-1.94,0.00,0.00
167972709,29.56,8.44,-5.94,2.19,-49.38,5.44,1.14,-0.44,-0.75,2.50,5.60,1.57,-2.19,0.00,0.00
167983903,29.12,8.38,-5.94,2.00,-50.88,5.50,0.89,-0.27,-0.81,2.50,5.60,1.56,-2.00,0.00,0.00
167993906,28.12,8.31,-5.88,2.06,-51.69,5.69,0.21,0.02,-0.90,2.50,5.60,1.56,-2.06,0.00,0.00
168004539,27.62,8.31,-5.81,1.88,-51.69,5.31,-0.09,-0.59,-0.81,2.50,5.60,1.55,-1.88,0.00,0.00
168014543,27.12,8.25,-5.81,1.44,-51.50,5.19,-0.50,0.29,-0.89,2.50,5.60,1.54,-1.44,0.00,0.00
168026187,26.62,8.25,-5.81,1.62,-51.00,5.12,-0.52,-0.21,-0.73,2.50,5.60,1.53,-1.62,0.00,0.00
168036190,26.12,8.25,-5.75,1.38,-49.94,5.31,-0.70,-0.69,-0.74,2.50,5.60,1.51,-1.38,0.00,0.00
168047634,25.62,8.19,-5.75,1.25,-48.69,4.94,-0.96,-0.19,-0.80,2.50,5.60,1.51,-1.25,0.00,0.00
168058745,25.19,8.19,-5.75,1.00,-47.25,4.88,-1.22,-0.83,-0.69,2.50,5.60,1.50,-1.00,0.00,0.00
168070641,24.75,8.19,-5.75,0.50,-45.56,4.81,-1.42,-0.48,-0.75,2.50,5.60,1.49,-0.50,0.00,0.00
168081199,24.31,8.19,-5.69,0.38,-43.38,4.69,-1.42,-0.48,-0.75,2.50,5.60,1.49,-0.38,0.00,0.00
168091202,23.94,8.19,-5.69,0.25,-41.06,4.44,-1.34,-0.35,-0.74,2.50,5.60,1.49,-0.25,0.00,0.00
168101204,23.56,8.19,-5.69,0.31,-39.00,4.75,-1.23,-0.23,-0.63,2.50,5.60,1.47,-0.31,0.00,0.00
168111227,23.19,8.19,-5.62,0.25,-36.69,4.75,-1.28,-0.21,-0.50,2.50,5.60,1.46,-0.25,0.00,0.00
168122606,22.88,8.19,-5.62,-0.44,-32.19,4.38,-1.39,-0.26,-0.49,2.50,5.60,1.46,0.44,0.00,0.00
168132610,22.56,8.19,-5.62,-0.44,-32.19,4.38,-1.48,-0.21,-0.51,2.50,5.60,1.46,0.44,0.00,0.00
168142615,22.25,8.19,-5.56,-0.56,-29.81,4.31,-1.61,-0.11,-0.53,2.50,5.60,1.46,0.56,0.00,0.00
168153550,22.00,8.19,-5.56,-0.81,-24.38,3.81,-1.78,-0.24,-0.51,2.50,5.60,1.45,0.81,0.00,0.00
168163553,21.75,8.19,-5.56,-0.81,-21.62,3.50,-1.72,0.04,-0.52,2.50,5.60,1.45,0.81,0.00,0.00
168174006,21.50,8.19,-5.50,-0.69,-18.94,3.25,-1.54,0.06,-0.46,2.50,5.60,1.44,0.69,0.00,0.00
168184009,21.31,8.19,-5.50,-0.50,-16.44,2.81,-1.56,-0.13,-0.34,2.50,5.60,1.45,0.50,0.00,0.00
168194352,21.06,8.19,-5.50,-0.50,-13.88,2.19,-1.51,-0.02,-0.24,2.50,5.60,1.44,0.50,0.00,0.00
168204357,21.06,8.19,-5.50,-0.50,-11.50,1.38,-1.62,-0.16,-0.22,2.50,5.60,1.44,0.50,0.00,0.00
168217059,20.81,8.19,-5.50,-0.62,-8.88,0.69,-1.55,-0.87,-0.24,2.50,5.60,1.44,0.62,0.00,0.00
168227063,20.75,8.19,-5.50,-1.06,-6.31,-0.19,-1.28,-0.37,-0.20,2.50,5.60,1.44,1.06,0.00,0.00
168239246,20.75,8.19,-5.50,-0.69,-4.06,-0.88,-1.13,0.25,-0.10,2.50,5.60,1.44,0.69,0.00,0.00
168249249,20.75,8.19,-5.50,-0.38,-2.12,-1.00,-0.89,-0.19,-0.07,2.50,5.60,1.44,0.38,0.00,0.00
168262750,20.75,8.19,-5.50,-0.44,1.12,-0.75,-0.56,0.08,-0.13,2.50,5.60,1.44,0.44,0.00,0.000
168272752,20.75,8.19,-5.50,-0.88,2.38,-0.50,-0.14,-0.35,0.00,2.50,5.60,1.44,0.88,0.00,0.000
168282955,20.75,8.19,-5.50,-0.88,2.38,-0.50,-0.14,-0.35,0.00,2.50,5.60,1.44,0.88,0.00,0.000
168292960,20.81,8.25,-5.50,-1.38,3.19,-0.06,-0.08,-0.37,-0.01,2.50,5.60,1.43,1.38,0.00,0.00
168302964,20.81,8.25,-5.50,-1.38,4.12,-0.62,0.02,-0.50,0.00,2.50,5.60,1.44,1.38,0.00,0.000
168315202,20.94,8.25,-5.56,-1.75,4.31,-0.62,0.14,0.00,-0.10,2.50,5.60,1.44,1.75,0.00,0.00
168325204,20.94,8.31,-5.56,-1.44,4.44,-0.88,0.22,-0.11,-0.10,2.50,5.60,1.44,1.44,0.00,0.00
168336099,21.00,8.31,-5.56,-1.56,4.44,-1.06,0.39,-0.29,-0.09,2.50,5.60,1.44,1.56,0.00,0.00
168346101,21.06,8.31,-5.56,-1.62,4.00,-0.88,0.52,-0.23,-0.12,2.50,5.60,1.44,1.62,0.00,0.00
168356678,21.06,8.31,-5.56,-1.81,3.81,-0.94,0.55,-0.34,-0.07,2.50,5.60,1.44,1.81,0.00,0.00
168366682,21.12,8.38,-5.56,-1.94,3.38,-0.81,0.61,-0.46,-0.01,2.50,5.60,1.44,1.94,0.00,0.00
168376685,21.12,8.38,-5.62,-2.50,2.88,-1.12,0.68,-0.22,-0.04,2.50,5.60,1.44,2.50,0.00,0.00
168386687,21.19,8.38,-5.62,-2.50,2.12,-1.31,0.59,0.00,-0.10,2.50,5.60,1.44,2.50,0.00,0.00
168396690,21.19,8.38,-5.62,-2.00,1.56,-1.56,0.56,-0.11,-0.12,2.50,5.60,1.44,2.00,0.00,0.00
168406694,21.19,8.44,-5.62,-1.88,1.06,-1.56,0.50,0.01,-0.22,2.50,5.60,1.43,1.88,0.00,0.00
168416699,21.19,8.44,-5.69,-1.69,0.31,-1.56,0.30,0.03,-0.20,2.50,5.60,1.44,1.69,0.00,0.00
168426703,21.19,8.44,-5.69,-1.62,0.31,-1.44,0.29,-0.04,-0.19,2.50,5.60,1.44,1.62,0.00,0.00
168436707,21.19,8.44,-5.69,-1.31,0.00,-1.25,0.40,-0.06,-0.29,2.50,5.60,1.45,1.31,0.00,0.00
168446711,21.25,8.44,-5.69,-1.19,-0.44,-0.88,0.32,-0.09,-0.30,2.50,5.60,1.44,1.19,0.00,0.00
168456714,21.25,8.44,-5.69,-1.12,-0.38,-0.56,0.27,-0.01,-0.29,2.50,5.60,1.44,1.12,0.00,0.00
168466719,21.31,8.50,-5.69,-1.12,-0.44,-0.12,0.35,0.07,-0.32,2.50,5.60,1.44,1.12,0.00,0.00
168476723,21.31,8.50,-5.75,-0.81,-0.62,0.06,0.18,-0.06,-0.36,2.50,5.60,1.44,0.81,0.00,0.00
168486726,21.31,8.50,-5.75,-0.81,-0.88,0.19,0.19,0.00,-0.34,2.50,5.60,1.44,0.81,0.00,0.00
168496731,21.31,8.50,-5.75,-0.69,-0.88,0.31,0.23,-0.04,-0.30,2.50,5.60,1.44,0.69,0.00,0.00
168506735,21.31,8.50,-5.75,-0.44,-0.88,0.44,0.05,0.02,-0.35,2.50,5.60,1.44,0.44,0.00,0.00
168516738,21.31,8.50,-5.75,0.00,-0.81,0.31,-0.05,0.12,-0.38,2.50,5.60,1.44,0.00,0.00,0.00
168526741,21.31,8.50,-5.75,0.25,-0.38,0.44,-0.05,0.18,-0.38,2.50,5.60,1.44,-0.25,0.00,0.00
168537294,21.31,8.50,-5.75,0.75,-0.38,0.25,-0.19,0.22,-0.42,2.50,5.60,1.44,-0.75,0.00,0.00
168547297,21.31,8.50,-5.75,1.50,-0.19,-0.06,-0.28,0.29,-0.45,2.50,5.60,1.44,-1.50,0.00,0.00
168557301,21.31,8.50,-5.75,1.94,0.38,0.06,-0.04,0.16,-0.48,2.50,5.60,1.44,-1.94,0.00,0.000
168567303,21.31,8.44,-5.69,2.38,0.56,0.06,-0.13,0.06,-0.44,2.50,5.60,1.44,-2.38,0.00,0.000
168577307,21.38,8.44,-5.69,2.75,0.81,0.12,-0.19,-0.01,-0.37,2.50,5.60,1.44,-2.75,0.00,0.00
168587310,21.38,8.44,-5.69,2.81,1.31,0.25,-0.13,-0.06,-0.33,2.50,5.60,1.44,-2.81,0.00,0.00
168597313,21.38,8.38,-5.69,2.81,1.75,0.38,-0.28,-0.17,-0.33,2.50,5.60,1.43,-2.81,0.00,0.00
168607316,21.38,8.38,-5.69,2.81,1.94,0.19,-0.27,-0.13,-0.41,2.50,5.60,1.44,-2.81,0.00,0.00
168617320,21.44,8.31,-5.69,2.81,2.38,-0.12,-0.10,-0.13,-0.43,2.50,5.60,1.44,-2.81,0.00,0.00
168627395,21.44,8.31,-5.69,2.75,2.75,-0.19,0.02,-0.22,-0.34,2.50,5.60,1.45,-2.75,0.00,0.00
168637398,21.50,8.25,-5.69,2.75,2.69,-0.25,-0.04,-0.25,-0.29,2.50,5.60,1.44,-2.75,0.00,0.00
168647402,21.50,8.25,-5.69,2.75,2.88,-0.25,0.20,-0.25,-0.27,2.50,5.60,1.44,-2.75,0.00,0.00
168657405,21.50,8.25,-5.69,2.38,2.88,-0.19,0.20,-0.22,-0.28,2.50,5.60,1.44,-2.38,0.00,0.00
168667410,21.56,8.19,-5.62,2.12,2.69,-0.56,0.13,-0.25,-0.23,2.50,5.60,1.44,-2.12,0.00,0.00
168677413,21.56,8.19,-5.62,2.06,2.50,-0.50,0.32,-0.23,-0.22,2.50,5.60,1.44,-2.06,0.00,0.00
168687416,21.62,8.19,-5.62,1.81,2.25,-0.75,0.25,-0.27,-0.24,2.50,5.60,1.44,-1.81,0.00,0.00
168697418,21.62,8.12,-5.62,1.75,1.81,-0.75,0.26,-0.26,-0.22,2.50,5.60,1.45,-1.75,0.00,0.00
168707422,21.69,8.12,-5.69,1.56,1.56,-0.88,0.27,-0.18,-0.28,2.50,5.60,1.44,-1.56,0.00,0.00
168717425,21.69,8.06,-5.69,1.50,1.50,-1.00,0.26,-0.08,-0.32,2.50,5.60,1.44,-1.50,0.00,0.00
168727427,21.75,8.06,-5.69,1.50,1.19,-1.19,0.19,-0.04,-0.32,2.50,5.60,1.44,-1.50,0.00,0.00
168738304,21.75,8.06,-5.69,1.62,1.06,-1.25,0.23,-0.05,-0.26,2.50,5.60,1.44,-1.62,0.00,0.00
168748307,21.81,8.00,-5.69,1.62,0.88,-1.38,0.38,0.00,-0.26,2.50,5.60,1.44,-1.62,0.00,0.00
168760811,21.88,8.00,-5.69,1.88,0.44,-1.19,0.55,0.11,-0.31,2.50,5.60,1.44,-1.88,0.00,0.00
168772248,21.88,8.00,-5.75,2.06,-0.12,-1.12,0.93,0.04,-0.29,2.50,5.60,1.44,-2.06,0.00,0.00
168787157,21.81,7.94,-5.69,2.56,-2.81,0.50,2.08,0.06,-0.23,2.50,5.60,1.44,-2.56,0.00,0.00
168797160,21.75,7.94,-5.69,2.75,-5.69,2.44,3.84,-0.04,-0.08,2.50,5.60,1.44,-2.75,0.00,0.00
168807164,21.62,7.88,-5.62,3.00,-10.25,4.62,4.99,-0.17,-0.02,2.50,5.60,1.43,-3.00,0.00,0.00
168817167,21.50,7.88,-5.56,3.06,-16.94,6.81,5.87,-0.08,0.02,2.50,5.60,1.43,-3.06,0.00,0.00
168827791,21.25,7.88,-5.50,3.06,-25.12,8.94,6.73,-0.13,0.03,2.50,5.60,1.42,-3.06,0.00,0.00
168837794,20.88,7.88,-5.44,3.19,-34.62,10.62,8.30,-0.68,-0.10,2.50,5.60,1.41,-3.19,0.00,0.00
168847799,20.44,7.88,-5.31,2.75,-46.06,12.00,8.52,-0.39,-0.31,2.50,5.60,1.40,-2.75,0.00,0.00
168857803,19.81,7.88,-5.25,2.69,-58.31,12.62,8.94,-0.08,-0.68,2.50,5.60,1.38,-2.69,0.00,0.00
168867807,19.12,7.81,-5.19,3.19,-71.38,12.38,9.69,-0.50,-0.86,2.50,5.60,1.39,-3.19,0.00,0.00
168877811,18.31,7.81,-5.06,3.44,-84.81,12.56,9.18,-0.24,-1.39,2.50,5.60,1.37,-3.44,0.00,0.00
168887820,18.31,7.81,-5.06,3.69,-98.06,13.25,9.45,-0.72,-1.52,2.50,5.60,1.36,-3.69,0.00,0.00
168897825,16.25,7.75,-4.94,3.44,-111.12,15.31,9.26,-1.23,-1.66,2.50,5.60,1.35,-3.44,0.00,0.00
