Time,sensPitch,sensRoll,sensYaw,xGyro,yGyro,ZGyro,xAcc,yAcc,zAcc,latitude,longitude,alt,cP,cR,cYI
141182304,-3.50,6.88,0.62,0.06,-1.88,4.75,-1.53,0.29,0.92,2.50,5.60,0.63,0.00,1.88,-0.00
141192309,-3.56,6.88,0.69,-0.56,0.06,4.00,-1.46,2.27,0.88,2.50,5.60,0.61,0.00,-0.06,-0.00
141204191,-3.50,6.88,0.75,-0.56,1.06,4.25,0.13,-1.46,1.52,2.50,5.60,0.63,0.00,-1.06,-0.00
141215255,-3.56,6.88,0.75,-1.69,-1.06,4.25,1.94,-0.91,1.79,2.50,5.60,0.62,0.00,1.06,-0.00
141225258,-3.56,6.94,0.81,-3.62,-3.81,5.19,2.87,-1.59,1.80,2.50,5.60,0.62,0.00,3.81,-0.00
141235260,-3.69,6.94,0.88,-3.69,-7.38,4.31,1.71,-0.61,1.30,2.50,5.60,0.62,0.00,7.38,-0.00
141246787,-3.75,7.00,0.88,-3.00,-12.00,0.00,1.42,-0.92,1.64,2.50,5.60,0.66,0.00,12.00,0.00
141257931,-3.94,7.06,0.81,-4.12,-16.31,-2.75,1.58,1.29,1.47,2.50,5.60,0.58,0.00,16.31,0.00
141269620,-4.12,7.06,0.75,-4.25,-19.25,-3.50,1.58,1.29,1.47,2.50,5.60,0.57,0.00,19.25,0.00
141279624,-4.31,7.12,0.69,-3.44,-22.44,-4.75,0.59,-0.30,1.54,2.50,5.60,0.57,0.00,22.44,0.00
141292669,-4.81,7.19,0.56,-1.56,-25.12,-6.25,0.48,2.00,0.89,2.50,5.60,0.57,0.00,25.12,0.00
141303567,-5.00,7.19,0.50,0.56,-25.75,-5.75,0.35,-0.01,1.36,2.50,5.60,0.58,0.00,25.75,0.00
141313571,-5.25,7.19,0.44,1.25,-26.00,-4.75,-0.32,0.54,1.33,2.50,5.60,0.58,0.00,26.00,0.00
141323574,-5.50,7.19,0.38,2.44,-24.88,-4.44,-0.89,1.71,1.16,2.50,5.60,0.58,0.00,24.88,0.00
141333578,-5.75,7.12,0.31,3.56,-24.12,-4.31,-0.24,-0.24,1.85,2.50,5.60,0.58,0.00,24.12,0.00
141343582,-5.94,7.12,0.25,3.38,-23.69,-3.88,-0.26,0.62,1.91,2.50,5.60,0.59,0.00,23.69,0.00
141355150,-6.19,7.06,0.19,3.44,-23.00,-3.75,-1.25,0.41,1.98,2.50,5.60,0.58,0.00,23.00,0.00
141366621,-6.38,7.06,0.12,3.69,-21.62,-4.19,-1.22,0.12,2.02,2.50,5.60,0.58,0.00,21.62,0.00
141377560,-6.56,7.00,0.12,3.81,-20.00,-3.75,-1.19,0.19,2.06,2.50,5.60,0.58,0.00,20.00,0.00
141387575,-6.75,7.00,0.06,3.62,-18.25,-3.12,-1.57,0.87,1.63,2.50,5.60,0.59,0.00,18.25,0.00
141400878,-6.88,6.94,-0.00,5.00,-13.38,-2.62,-1.35,0.64,1.56,2.50,5.60,0.60,0.00,13.38,0.00
141410883,-7.00,6.94,-0.00,5.44,-10.75,-2.06,-1.35,0.42,1.55,2.50,5.60,0.60,0.00,10.75,0.00
141422223,-7.19,6.81,-0.06,5.69,-8.56,-1.75,-1.15,0.85,1.55,2.50,5.60,0.60,0.00,8.56,0.000
141432226,-7.25,6.75,-0.12,6.31,-6.25,-1.69,-1.42,0.18,1.73,2.50,5.60,0.61,0.00,6.25,0.000
141442230,-7.31,6.69,-0.12,6.56,-3.75,-1.38,-1.63,0.05,1.80,2.50,5.60,0.62,0.00,3.75,0.000
141452234,-7.31,6.62,-0.12,6.38,-1.62,-1.50,-1.36,-0.16,1.93,2.50,5.60,0.60,0.00,1.62,0.00
141462239,-7.31,6.56,-0.12,5.88,0.38,-1.50,-1.49,0.25,1.70,2.50,5.60,0.63,0.00,-0.38,0.00
141472244,-7.25,6.50,-0.19,6.31,2.56,-1.94,-1.63,0.52,1.51,2.50,5.60,0.65,0.00,-2.56,0.00
141482248,-7.25,6.44,-0.19,6.75,4.88,-2.94,-1.45,-0.00,1.48,2.50,5.60,0.66,0.00,-4.88,0.00
141492252,-7.31,6.38,-0.25,6.56,6.38,-3.75,-0.99,0.12,1.56,2.50,5.60,0.66,0.00,-6.38,0.00
141502256,-7.31,6.31,-0.25,6.25,7.88,-4.62,-1.22,0.13,1.69,2.50,5.60,0.66,0.00,-7.88,0.00
141512259,-7.25,6.25,-0.31,6.19,9.12,-5.94,-0.95,-0.05,1.74,2.50,5.60,0.68,0.00,-9.12,0.00
141522262,-7.12,6.25,-0.38,6.12,9.69,-6.06,-0.11,0.04,1.73,2.50,5.60,0.70,0.00,-9.69,0.00
141533521,-7.00,6.19,-0.44,6.25,9.81,-5.50,-0.13,0.21,1.98,2.50,5.60,0.68,0.00,-9.81,0.00
141543523,-6.94,6.12,-0.50,6.50,9.44,-4.62,0.25,0.43,1.93,2.50,5.60,0.71,0.00,-9.44,0.00
141555344,-6.81,6.06,-0.50,7.12,9.12,-3.75,0.77,0.43,1.85,2.50,5.60,0.70,0.00,-9.12,0.00
141565348,-6.75,6.00,-0.56,7.31,8.12,-3.06,0.91,-0.19,1.86,2.50,5.60,0.71,0.00,-8.12,0.00
141575581,-6.69,5.94,-0.56,6.62,7.06,-3.12,0.37,-0.44,2.04,2.50,5.60,0.72,0.00,-7.06,0.00
141585584,-6.62,5.88,-0.62,5.81,6.19,-3.56,0.50,-0.46,2.12,2.50,5.60,0.74,0.00,-6.19,0.00
141595929,-6.56,5.81,-0.62,5.25,5.31,-3.94,0.59,-0.42,2.15,2.50,5.60,0.74,0.00,-5.31,0.00
141606317,-6.50,5.75,-0.69,4.50,3.62,-3.56,0.67,-0.61,2.30,2.50,5.60,0.77,0.00,-3.62,0.00
141618830,-6.50,5.75,-0.75,3.62,2.56,-3.12,0.84,-0.04,2.10,2.50,5.60,0.76,0.00,-2.56,0.00
141628834,-6.50,5.69,-0.75,3.62,0.88,-2.38,1.04,-0.17,2.05,2.50,5.60,0.78,0.00,-0.88,0.00
141639467,-6.50,5.69,-0.75,3.12,-0.81,-1.31,0.55,-0.52,1.83,2.50,5.60,0.80,0.00,0.81,0.00
141649552,-6.50,5.62,-0.75,2.69,-2.88,-1.12,0.61,-0.47,1.77,2.50,5.60,0.80,0.00,2.88,0.00
141662914,-6.62,5.62,-0.81,1.25,-5.75,-1.31,0.51,-0.76,1.69,2.50,5.60,0.82,0.00,5.75,0.00
141672918,-6.69,5.62,-0.81,0.62,-7.25,-1.31,0.74,-0.77,1.54,2.50,5.60,0.83,0.00,7.25,0.00
141684717,-6.75,5.62,-0.81,-0.88,-8.62,-1.19,0.97,-0.91,1.44,2.50,5.60,0.83,0.00,8.62,0.00
141694719,-6.88,5.69,-0.88,-2.56,-9.88,-1.00,0.40,-0.90,1.34,2.50,5.60,0.83,0.00,9.88,0.00
141704724,-6.94,5.69,-0.88,-4.31,-10.81,-1.00,0.77,-0.55,1.29,2.50,5.60,0.84,0.00,10.81,0.00
141714728,-7.06,5.75,-0.88,-5.69,-11.94,-0.88,0.75,-0.10,1.18,2.50,5.60,0.86,0.00,11.94,0.00
141724732,-7.19,5.81,-0.88,-6.31,-12.44,-0.06,0.12,0.71,0.66,2.50,5.60,0.86,0.00,12.44,0.00
141734736,-7.31,5.88,-0.88,-5.94,-12.06,1.69,-0.18,0.88,0.31,2.50,5.60,0.86,0.00,12.06,0.00
141744831,-7.44,5.94,-0.81,-4.56,-11.19,3.75,-0.13,0.54,0.09,2.50,5.60,0.87,0.00,11.19,0.00
141754835,-7.56,5.94,-0.75,-3.75,-10.56,5.50,-0.42,0.27,0.00,2.50,5.60,0.89,0.00,10.56,0.00
141765851,-7.62,6.00,-0.69,-3.12,-9.06,6.88,-1.03,-0.22,0.05,2.50,5.60,0.89,0.00,9.06,0.00
141775853,-7.69,6.00,-0.62,-3.12,-7.69,7.19,-1.13,-0.06,0.10,2.50,5.60,0.90,0.00,7.69,0.00
141786707,-7.81,6.00,-0.56,-3.50,-6.31,6.69,-0.67,0.11,0.17,2.50,5.60,0.90,0.00,6.31,0.00
141797649,-7.81,6.06,-0.50,-4.00,-5.12,6.56,-0.94,-0.18,0.12,2.50,5.60,0.93,0.00,5.12,0.00
141812300,-7.88,6.06,-0.44,-3.81,-2.62,5.62,-0.72,0.50,-0.18,2.50,5.60,0.94,0.00,2.62,0.00
141822305,-7.94,6.12,-0.38,-3.25,-0.69,5.75,-0.52,0.67,-0.36,2.50,5.60,0.93,0.00,0.69,0.00
141832552,-7.94,6.12,-0.38,-2.50,0.38,6.06,-0.92,0.77,-0.47,2.50,5.60,0.96,0.00,-0.38,0.00
141842556,-7.94,6.19,-0.31,-1.56,2.00,7.00,-1.02,0.80,-0.69,2.50,5.60,0.96,0.00,-2.00,0.00
141852560,-7.94,6.19,-0.19,-0.50,3.81,6.88,-0.62,-0.17,-0.48,2.50,5.60,0.99,0.00,-3.81,0.00
141862896,-7.88,6.19,-0.12,-0.38,5.19,7.81,-0.30,0.01,-0.67,2.50,5.60,0.99,0.00,-5.19,0.00
141872899,-7.88,6.12,-0.06,-0.25,5.94,7.69,-0.47,0.38,-0.75,2.50,5.60,1.00,0.00,-5.94,0.00
141883510,-7.75,6.12,0.06,0.00,5.88,6.75,-0.25,0.03,-0.50,2.50,5.60,1.01,0.00,-5.88,-0.00
141893514,-7.69,6.12,0.12,0.06,6.38,5.31,-0.25,0.70,-0.63,2.50,5.60,1.02,0.00,-6.38,-0.00
141905163,-7.62,6.12,0.19,0.62,6.75,3.56,-0.16,1.02,-0.69,2.50,5.60,1.03,0.00,-6.75,-0.00
141915167,-7.56,6.06,0.19,1.81,6.69,2.06,-0.43,0.73,-0.62,2.50,5.60,1.04,0.00,-6.69,-0.00
141926575,-7.50,6.06,0.19,2.75,7.25,0.94,-0.50,0.74,-0.71,2.50,5.60,1.04,0.00,-7.25,-0.00
141936577,-7.44,6.00,0.19,3.44,7.94,0.19,-0.30,0.43,-0.70,2.50,5.60,1.06,0.00,-7.94,-0.00
141948164,-7.38,6.00,0.19,3.88,8.50,-0.25,-0.50,0.23,-0.70,2.50,5.60,1.06,0.00,-8.50,0.00
141959535,-7.25,5.94,0.19,4.31,8.88,-0.88,-0.70,0.60,-0.72,2.50,5.60,1.07,0.00,-8.88,0.00
141973223,-7.19,5.88,0.19,5.62,10.00,-0.88,-0.22,1.35,-0.69,2.50,5.60,1.08,0.00,-10.00,0.00
141983226,-7.06,5.81,0.19,6.44,10.25,0.31,-0.06,0.73,-0.48,2.50,5.60,1.10,0.00,-10.25,-0.00
141993230,-6.94,5.75,0.19,7.12,10.56,0.06,0.26,0.69,-0.66,2.50,5.60,1.10,0.00,-10.56,-0.00
142003234,-6.88,5.69,0.19,7.88,10.56,0.12,-0.07,0.74,-0.98,2.50,5.60,1.12,0.00,-10.56,-0.00
142013250,-6.75,5.62,0.19,9.31,10.88,-0.31,0.40,1.74,-1.31,2.50,5.60,1.13,0.00,-10.88,0.00
142023253,-6.69,5.50,0.19,9.31,10.88,-0.31,1.43,1.35,-0.86,2.50,5.60,1.13,0.00,-10.88,0.00
142033723,-6.56,5.44,0.19,12.56,9.31,0.69,1.66,0.51,-0.90,2.50,5.60,1.14,0.00,-9.31,-0.00
142043727,-6.50,5.31,0.19,13.44,8.38,2.38,1.07,0.59,-1.12,2.50,5.60,1.16,0.00,-8.38,-0.00
142054894,-6.31,5.00,0.25,14.19,7.25,3.00,1.31,0.52,-1.05,2.50,5.60,1.17,0.00,-7.25,-0.00
142064897,-6.25,4.88,0.25,14.94,5.56,3.94,0.59,-0.05,-0.89,2.50,5.60,1.18,0.00,-5.56,-0.00
142074901,-6.25,4.75,0.31,15.62,4.62,3.75,0.62,0.32,-0.93,2.50,5.60,1.19,0.00,-4.62,-0.00
142084904,-6.19,4.56,0.31,16.19,3.06,2.62,0.90,0.27,-1.26,2.50,5.60,1.20,0.00,-3.06,-0.00
142094908,-6.19,4.38,0.31,16.62,1.31,1.75,0.78,0.48,-1.36,2.50,5.60,1.20,0.00,-1.31,-0.00
142104911,-6.19,4.25,0.31,17.38,-0.19,1.94,0.97,0.72,-1.29,2.50,5.60,1.21,0.00,0.19,-0.00
142114913,-6.19,4.06,0.38,18.12,-1.56,2.94,0.95,0.36,-1.16,2.50,5.60,1.22,0.00,1.56,-0.00
142125580,-6.25,3.88,0.38,18.88,-3.00,3.62,1.06,0.37,-1.03,2.50,5.60,1.23,0.00,3.00,-0.00
142135583,-6.12,3.75,0.38,19.12,-4.12,5.44,1.03,0.29,-0.98,2.50,5.60,1.23,0.00,4.12,-0.00
142145585,-6.19,3.56,0.44,19.25,-5.19,7.06,0.58,-0.12,-0.91,2.50,5.60,1.25,0.00,5.19,-0.00
142155588,-6.25,3.38,0.50,19.69,-6.31,7.44,0.56,-0.32,-0.89,2.50,5.60,1.28,0.00,6.31,-0.00
142165591,-6.31,3.19,0.56,19.12,-7.31,6.62,0.66,-0.84,-0.71,2.50,5.60,1.29,0.00,7.31,-0.00
142175594,-6.38,3.00,0.62,18.31,-8.31,6.00,0.78,-0.68,-0.75,2.50,5.60,1.30,0.00,8.31,-0.00
142185597,-6.50,2.81,0.62,17.62,-9.62,5.06,0.47,-0.74,-0.75,2.50,5.60,1.31,0.00,9.62,-0.00
142195600,-6.56,2.62,0.69,16.62,-10.44,3.88,0.91,-1.00,-0.67,2.50,5.60,1.31,0.00,10.44,-0.00
142205603,-6.69,2.50,0.69,15.56,-11.94,3.12,0.90,-0.49,-0.81,2.50,5.60,1.32,0.00,11.94,-0.00
142215607,-6.81,2.38,0.69,14.50,-13.06,1.94,0.52,-0.86,-0.79,2.50,5.60,1.33,0.00,13.06,-0.00
142226195,-6.94,2.25,0.69,13.25,-14.25,-0.38,0.98,-1.33,-0.80,2.50,5.60,1.34,0.00,14.25,0.00
142236198,-7.12,2.12,0.62,11.50,-15.44,-3.12,0.95,-1.34,-0.81,2.50,5.60,1.35,0.00,15.44,0.00
142246625,-7.25,2.06,0.56,9.00,-16.94,-6.75,0.48,-1.26,-0.70,2.50,5.60,1.36,0.00,16.94,0.00
142256628,-7.44,2.00,0.50,6.81,-18.00,-8.88,0.31,-1.08,-0.73,2.50,5.60,1.37,0.00,18.00,0.00
142266632,-7.62,1.94,0.38,4.62,-18.69,-10.31,0.10,-1.56,-0.70,2.50,5.60,1.38,0.00,18.69,0.00
142276635,-7.81,1.94,0.25,2.06,-19.19,-11.06,-0.22,-1.72,-0.80,2.50,5.60,1.39,0.00,19.19,0.00
142286916,-8.00,2.00,0.19,-0.81,-19.06,-10.94,-0.20,-1.61,-0.88,2.50,5.60,1.39,0.00,19.06,0.00
142296921,-8.19,2.00,0.06,-3.38,-18.75,-10.75,-0.70,-2.21,-0.84,2.50,5.60,1.40,0.00,18.75,0.00
142306924,-8.31,2.12,-0.06,-6.50,-18.00,-11.56,-1.73,-1.84,-0.96,2.50,5.60,1.41,0.00,18.00,0.00
142316926,-8.50,2.25,-0.19,-9.38,-16.00,-12.44,-0.87,-1.19,-1.14,2.50,5.60,1.42,0.00,16.00,0.00
142326929,-8.62,2.38,-0.31,-11.88,-14.31,-13.25,-1.75,-1.41,-1.12,2.50,5.60,1.43,0.00,14.31,0.00
142336932,-8.75,2.50,-0.44,-14.00,-11.75,-14.75,-1.24,-1.25,-1.19,2.50,5.60,1.43,0.00,11.75,0.00
142346936,-8.81,2.69,-0.56,-16.19,-9.06,-15.94,-1.16,-1.01,-1.24,2.50,5.60,1.44,0.00,9.06,0.000
142356941,-8.88,2.88,-0.75,-17.94,-6.31,-16.00,-1.38,-0.88,-1.15,2.50,5.60,1.44,0.00,6.31,0.000
142366944,-8.88,3.12,-0.88,-19.50,-3.62,-14.62,-2.02,-0.99,-1.43,2.50,5.60,1.45,0.00,3.62,0.000
142376948,-8.88,3.31,-1.00,-20.88,-0.69,-16.56,-0.47,-0.49,-1.51,2.50,5.60,1.45,0.00,0.69,0.000
142386951,-8.88,3.56,-1.12,-21.69,1.19,-18.44,-0.70,0.73,-1.58,2.50,5.60,1.46,0.00,-1.19,0.000
142396955,-8.81,3.81,-1.31,-20.75,2.94,-18.38,-2.28,0.87,-1.52,2.50,5.60,1.47,0.00,-2.94,0.000
142406959,-8.75,4.00,-1.50,-19.25,5.56,-18.69,-2.18,1.69,-1.63,2.50,5.60,1.49,0.00,-5.56,0.000
142416962,-8.69,4.19,-1.62,-16.56,8.44,-17.44,-1.98,0.94,-1.55,2.50,5.60,1.49,0.00,-8.44,0.000
142426965,-8.56,4.38,-1.81,-14.44,11.31,-17.12,-1.23,0.26,-1.44,2.50,5.60,1.49,0.00,-11.31,0.00
142436968,-8.38,4.50,-1.94,-13.25,14.12,-16.19,-2.28,0.46,-1.61,2.50,5.60,1.50,0.00,-14.12,0.00
142446972,-8.19,4.62,-2.06,-12.31,17.31,-16.81,-1.80,0.02,-1.37,2.50,5.60,1.50,0.00,-17.31,0.00
142456976,-8.00,4.81,-2.25,-12.00,20.75,-16.75,-1.56,0.02,-1.43,2.50,5.60,1.50,0.00,-20.75,0.00
142467265,-7.75,4.94,-2.31,-11.88,23.88,-13.56,-1.58,0.77,-1.63,2.50,5.60,1.50,0.00,-23.88,0.00
142477268,-7.50,5.06,-2.44,-11.19,26.50,-10.75,-1.97,1.18,-1.53,2.50,5.60,1.52,0.00,-26.50,0.00
142487271,-7.19,5.12,-2.50,-9.56,29.31,-9.38,-1.78,2.46,-1.43,2.50,5.60,1.52,0.00,-29.31,0.000
142497276,-6.88,5.25,-2.56,-7.44,32.19,-7.81,-0.94,3.03,-1.71,2.50,5.60,1.53,0.00,-32.19,0.000
142507280,-6.56,5.25,-2.62,-3.50,34.50,-7.25,-1.54,2.58,-1.81,2.50,5.60,1.53,0.00,-34.50,0.000
142517284,-6.19,5.25,-2.62,0.31,36.94,-6.88,-1.50,1.66,-1.80,2.50,5.60,1.54,0.00,-36.94,0.000
142527289,-5.81,5.25,-2.69,2.69,38.75,-6.38,-0.62,1.26,-1.94,2.50,5.60,1.55,0.00,-38.75,0.000
142537292,-5.44,5.19,-2.75,4.44,40.62,-4.50,-0.55,0.74,-1.79,2.50,5.60,1.56,0.00,-40.62,0.000
142547430,-5.00,5.12,-2.75,5.56,42.38,-1.19,-0.38,0.50,-1.81,2.50,5.60,1.56,0.00,-42.38,0.000
142557435,-4.56,5.06,-2.69,6.00,43.62,2.69,0.41,0.93,-1.94,2.50,5.60,1.56,0.00,-43.62,0.0000
142567671,-4.19,5.00,-2.62,6.88,44.44,6.19,0.52,0.79,-1.91,2.50,5.60,1.57,0.00,-44.44,0.0000
142577675,-3.75,4.94,-2.50,8.00,44.62,9.88,0.56,0.86,-2.00,2.50,5.60,1.57,0.00,-44.62,0.0000
142588701,-3.31,4.81,-2.38,8.75,44.81,13.12,0.61,1.18,-2.16,2.50,5.60,1.58,0.00,-44.81,0.000
142598705,-2.88,4.69,-2.19,9.81,44.38,14.81,0.53,0.80,-2.15,2.50,5.60,1.58,0.00,-44.38,0.000
142608709,-2.50,4.62,-2.00,10.62,44.00,15.75,0.63,0.47,-2.18,2.50,5.60,1.58,0.00,-44.00,0.000
142618712,-2.06,4.50,-1.88,11.19,43.31,15.75,0.98,0.63,-2.21,2.50,5.60,1.59,0.00,-43.31,0.000
142628715,-1.69,4.38,-1.69,11.94,42.00,14.38,1.16,0.23,-2.15,2.50,5.60,1.59,0.00,-42.00,0.000
142638719,-1.31,4.25,-1.56,12.25,40.38,12.62,1.21,-0.09,-2.09,2.50,5.60,1.59,0.00,-40.38,0.000
142648723,-0.94,4.12,-1.44,12.25,38.19,10.88,1.92,-0.21,-2.01,2.50,5.60,1.59,0.00,-38.19,0.000
142658728,-0.62,4.00,-1.31,12.25,36.06,10.31,1.72,-0.35,-1.99,2.50,5.60,1.59,0.00,-36.06,0.000
142668731,-0.31,3.88,-1.25,12.12,33.56,10.19,1.68,-0.48,-1.96,2.50,5.60,1.60,0.00,-33.56,0.000
142678736,0.00,3.75,-1.12,11.69,31.12,10.44,2.01,-0.64,-1.80,2.50,5.60,1.60,0.00,-31.12,0.000
142688738,0.19,3.69,-1.00,10.69,28.69,10.56,1.94,-0.61,-1.77,2.50,5.60,1.60,0.00,-28.69,0.000
142698742,0.44,3.56,-0.88,9.94,25.69,10.19,2.07,0.26,-2.24,2.50,5.60,1.61,0.00,-25.69,0.0000
142708746,0.69,3.50,-0.81,9.81,22.81,9.81,2.44,1.26,-2.63,2.50,5.60,1.61,0.00,-22.81,0.0000
142718748,0.88,3.38,-0.69,10.44,19.62,9.50,1.34,-1.09,-1.31,2.50,5.60,1.61,0.00,-19.62,0.000
142728752,1.00,3.31,-0.62,9.25,16.31,8.62,2.06,-2.20,-0.87,2.50,5.60,1.61,0.00,-16.31,0.000
142738755,1.12,3.19,-0.50,7.25,13.31,9.00,2.19,-3.53,-0.31,2.50,5.60,1.61,0.00,-13.31,0.000
142750211,1.25,3.19,-0.44,3.56,10.19,10.31,2.30,-3.34,-0.47,2.50,5.60,1.61,0.00,-10.19,0.000
142760215,1.31,3.19,-0.31,-0.62,7.31,11.44,1.37,-0.30,-1.54,2.50,5.60,1.61,0.00,-7.31,0.000
142770220,1.31,3.19,-0.19,-2.12,5.06,11.62,1.10,-0.34,-1.55,2.50,5.60,1.62,0.00,-5.06,0.000
142780223,1.38,3.25,-0.06,-2.56,2.88,11.31,0.76,-0.22,-1.62,2.50,5.60,1.62,0.00,-2.88,0.000
142790227,1.38,3.25,-0.00,-2.81,0.94,9.81,0.48,-0.30,-1.48,2.50,5.60,1.61,0.00,-0.94,0.000
142800272,1.38,3.31,0.12,-2.88,-0.50,7.62,0.52,-1.44,-0.94,2.50,5.60,1.61,0.00,0.50,-0.000
142811338,1.31,3.31,0.12,-3.81,-1.44,5.94,0.10,-1.19,-0.95,2.50,5.60,1.60,0.00,1.44,-0.000
142822248,1.31,3.38,0.19,-5.38,-2.38,4.75,-0.46,-1.14,-1.01,2.50,5.60,1.61,0.00,2.38,-0.000
142832574,1.31,3.44,0.25,-6.69,-2.69,3.06,-0.68,-0.92,-1.09,2.50,5.60,1.61,0.00,2.69,-0.000
142842578,1.25,3.56,0.25,-7.81,-2.56,0.75,-0.99,-0.47,-1.16,2.50,5.60,1.61,0.00,2.56,-0.000
142857755,1.25,3.69,0.19,-8.56,-1.38,-3.00,-0.78,-0.58,-1.01,2.50,5.60,1.61,0.00,1.38,0.000
142867759,1.25,3.81,0.12,-8.69,-0.38,-4.62,-0.69,-0.62,-0.82,2.50,5.60,1.61,0.00,0.38,0.000
142879959,1.25,3.88,0.06,-9.00,0.62,-5.88,-0.84,0.20,-0.84,2.50,5.60,1.60,0.00,-0.62,0.000
142889962,1.25,3.94,-0.00,-8.94,1.88,-6.62,-0.53,-0.32,-0.72,2.50,5.60,1.60,0.00,-1.88,0.000
142901067,1.31,4.06,-0.06,-8.69,3.25,-7.06,-0.20,-0.43,-0.66,2.50,5.60,1.60,0.00,-3.25,0.000
142911071,1.38,4.12,-0.12,-8.81,4.25,-7.00,-0.26,-0.00,-0.65,2.50,5.60,1.61,0.00,-4.25,0.000
142924031,1.38,4.19,-0.19,-8.69,4.94,-6.56,-0.03,-0.05,-0.53,2.50,5.60,1.60,0.00,-4.94,0.000
142934034,1.44,4.31,-0.25,-8.50,6.06,-5.94,0.21,-0.05,-0.48,2.50,5.60,1.61,0.00,-6.06,0.000
142944849,1.56,4.38,-0.31,-8.31,6.75,-5.06,-0.23,0.60,-0.63,2.50,5.60,1.61,0.00,-6.75,0.000
142955149,1.62,4.44,-0.31,-7.81,7.31,-4.75,0.49,1.00,-0.60,2.50,5.60,1.60,0.00,-7.31,0.000
142966864,1.69,4.50,-0.38,-5.69,7.94,-5.31,0.38,0.98,-0.49,2.50,5.60,1.60,0.00,-7.94,0.000
142976868,1.75,4.56,-0.44,-5.69,7.94,-5.31,0.50,0.83,-0.42,2.50,5.60,1.60,0.00,-7.94,0.000
142986870,1.81,4.62,-0.50,-4.06,7.25,-5.69,0.90,0.94,-0.38,2.50,5.60,1.60,0.00,-7.25,0.000
142996872,1.94,4.62,-0.56,-1.12,6.00,-5.38,1.08,0.79,-0.36,2.50,5.60,1.60,0.00,-6.00,0.000
143006876,2.00,4.62,-0.56,0.50,5.12,-4.69,1.07,0.66,-0.32,2.50,5.60,1.61,0.00,-5.12,0.000
143016879,2.00,4.62,-0.62,1.69,4.12,-3.25,1.23,0.59,-0.31,2.50,5.60,1.60,0.00,-4.12,0.000
143027180,2.06,4.62,-0.69,1.69,4.12,-3.25,1.23,0.74,-0.33,2.50,5.60,1.60,0.00,-4.12,0.000
143037184,2.12,4.56,-0.69,2.75,3.00,-1.88,1.02,0.52,-0.32,2.50,5.60,1.60,0.00,-3.00,0.000
143047849,2.12,4.56,-0.69,4.94,0.31,0.25,1.05,0.47,-0.29,2.50,5.60,1.60,0.00,-0.31,0.000
143057852,2.12,4.50,-0.69,5.88,-1.12,1.06,0.90,0.51,-0.32,2.50,5.60,1.60,0.00,1.12,0.000
143067856,2.12,4.44,-0.69,6.69,-2.56,1.31,0.75,0.53,-0.33,2.50,5.60,1.60,0.00,2.56,0.000
143077859,2.25,4.50,-0.62,7.62,-3.75,1.69,0.80,-0.11,-0.21,2.50,5.60,1.60,0.00,3.75,0.000
143087863,2.19,4.44,-0.62,8.31,-5.06,2.00,0.59,0.09,-0.22,2.50,5.60,1.61,0.00,5.06,0.000
143097867,2.12,4.31,-0.62,8.38,-6.31,2.25,0.47,0.07,-0.20,2.50,5.60,1.59,0.00,6.31,0.000
143108748,2.00,4.19,-0.56,8.44,-7.25,2.25,0.48,-0.25,-0.13,2.50,5.60,1.58,0.00,7.25,0.000
143118751,1.94,4.06,-0.56,8.31,-7.94,2.38,0.33,-0.61,-0.01,2.50,5.60,1.59,0.00,7.94,0.000
143129182,1.88,4.00,-0.56,7.94,-8.56,2.19,0.25,-0.62,-0.03,2.50,5.60,1.58,0.00,8.56,0.000
143139185,1.75,3.94,-0.50,7.25,-8.75,2.06,0.22,-0.58,0.00,2.50,5.60,1.59,0.00,8.75,0.000
143149188,1.69,3.88,-0.50,6.69,-9.19,1.56,0.04,-0.59,0.00,2.50,5.60,1.59,0.00,9.19,0.000
143159190,1.56,3.81,-0.50,5.81,-9.06,1.31,-0.12,-0.62,0.01,2.50,5.60,1.59,0.00,9.06,0.000
143169192,1.50,3.75,-0.50,4.88,-8.81,0.88,-0.14,-0.42,0.02,2.50,5.60,1.59,0.00,8.81,0.000
143179195,1.44,3.75,-0.50,4.12,-8.50,0.31,-0.18,-0.58,0.11,2.50,5.60,1.59,0.00,8.50,0.000
143189204,1.38,3.69,-0.50,3.38,-8.19,-0.19,-0.41,-0.80,0.14,2.50,5.60,1.58,0.00,8.19,0.000
143199207,1.25,3.69,-0.50,2.38,-7.25,-0.38,-0.32,-0.74,0.08,2.50,5.60,1.59,0.00,7.25,0.000
143210342,1.19,3.69,-0.50,0.94,-6.62,-0.69,-0.43,-0.72,0.09,2.50,5.60,1.60,0.00,6.62,0.000
143220346,1.12,3.69,-0.50,-0.31,-5.81,-0.62,-0.62,-0.53,0.02,2.50,5.60,1.59,0.00,5.81,0.000
143231181,1.12,3.69,-0.50,-1.25,-4.69,-0.69,-0.59,-0.34,-0.06,2.50,5.60,1.60,0.00,4.69,0.000
143241185,1.06,3.69,-0.50,-1.62,-3.69,-0.81,-0.58,-0.21,-0.17,2.50,5.60,1.59,0.00,3.69,0.000
143251188,1.06,3.69,-0.56,-2.25,-3.06,-1.06,-0.71,-0.19,-0.22,2.50,5.60,1.59,0.00,3.06,0.000
143261192,1.00,3.75,-0.56,-2.31,-2.44,-1.19,-0.56,-0.37,-0.22,2.50,5.60,1.60,0.00,2.44,0.000
143271196,1.00,3.75,-0.56,-2.69,-0.94,-1.31,-0.38,-0.58,-0.12,2.50,5.60,1.59,0.00,0.94,0.000
143281200,1.00,3.81,-0.56,-3.31,-0.06,-1.12,-0.52,-0.29,-0.14,2.50,5.60,1.59,0.00,0.06,0.000
143291205,0.94,3.81,-0.56,-3.88,0.31,-1.50,-0.42,-0.27,-0.16,2.50,5.60,1.58,0.00,-0.31,0.000
143301208,1.00,3.81,-0.62,-4.44,1.19,-1.75,-0.14,-0.32,-0.17,2.50,5.60,1.58,0.00,-1.19,0.000
143311211,1.00,3.88,-0.62,-4.88,1.75,-2.19,-0.03,-0.28,-0.18,2.50,5.60,1.59,0.00,-1.75,0.000
143321215,1.00,3.94,-0.62,-5.25,1.88,-2.38,0.02,-0.14,-0.20,2.50,5.60,1.58,0.00,-1.88,0.000
143331217,1.06,4.00,-0.69,-5.50,2.25,-2.44,0.19,-0.12,-0.22,2.50,5.60,1.58,0.00,-2.25,0.000
143341220,1.06,4.06,-0.69,-5.62,2.31,-2.25,0.23,-0.13,-0.23,2.50,5.60,1.59,0.00,-2.31,0.000
143351223,1.06,4.12,-0.69,-5.75,2.25,-2.00,0.21,-0.13,-0.20,2.50,5.60,1.58,0.00,-2.25,0.000
143361227,1.12,4.12,-0.75,-5.88,1.94,-2.19,0.41,-0.02,-0.12,2.50,5.60,1.58,0.00,-1.94,0.000
143371229,1.12,4.19,-0.75,-6.00,1.44,-2.19,0.44,-0.03,-0.11,2.50,5.60,1.59,0.00,-1.44,0.000
143381232,1.12,4.25,-0.75,-6.06,1.00,-2.12,0.54,-0.13,-0.09,2.50,5.60,1.58,0.00,-1.00,0.000
143391235,1.12,4.31,-0.81,-6.31,0.25,-1.81,0.63,-0.05,-0.16,2.50,5.60,1.58,0.00,-0.25,0.000
143401243,1.12,4.38,-0.81,-6.25,-0.38,-1.31,0.45,0.05,-0.18,2.50,5.60,1.58,0.00,0.38,0.000
143411246,1.12,4.44,-0.81,-6.38,-1.12,-0.94,0.47,0.02,-0.17,2.50,5.60,1.58,0.00,1.12,0.000
143421254,1.12,4.50,-0.81,-6.19,-1.88,-0.56,0.39,0.03,-0.14,2.50,5.60,1.58,0.00,1.88,0.000
143431265,1.12,4.56,-0.81,-5.62,-3.25,-0.81,0.33,0.14,-0.19,2.50,5.60,1.58,0.00,3.25,0.000
143441276,1.12,4.62,-0.88,-5.62,-3.25,-0.81,0.39,0.19,-0.18,2.50,5.60,1.58,0.00,3.25,0.000
143451280,1.12,4.69,-0.88,-5.19,-3.62,-1.06,0.36,0.27,-0.17,2.50,5.60,1.58,0.00,3.62,0.000
143461284,1.06,4.75,-0.88,-4.06,-4.81,-1.00,0.23,0.31,-0.18,2.50,5.60,1.58,0.00,4.81,0.000
143471287,1.06,4.75,-0.88,-3.44,-5.19,-1.00,0.21,0.58,-0.25,2.50,5.60,1.58,0.00,5.19,0.000
143481294,1.00,4.81,-0.88,-2.50,-5.25,-0.94,0.23,0.53,-0.26,2.50,5.60,1.57,0.00,5.25,0.000
143491298,0.94,4.81,-0.88,-1.75,-5.50,-0.81,0.08,0.45,-0.22,2.50,5.60,1.58,0.00,5.50,0.000
143501301,0.88,4.81,-0.94,-1.00,-5.81,-0.75,0.03,0.46,-0.19,2.50,5.60,1.57,0.00,5.81,0.000
143511306,0.81,4.81,-0.94,-0.56,-5.88,-0.81,0.01,0.46,-0.19,2.50,5.60,1.58,0.00,5.88,0.000
143521310,0.75,4.81,-0.94,0.19,-5.69,-1.00,-0.22,0.33,-0.17,2.50,5.60,1.58,0.00,5.69,0.000
143531314,0.75,4.81,-0.94,0.62,-5.19,-1.12,-0.22,0.35,-0.23,2.50,5.60,1.58,0.00,5.19,0.000
143541317,0.69,4.81,-0.94,1.25,-4.81,-1.25,-0.14,0.41,-0.22,2.50,5.60,1.58,0.00,4.81,0.000
143551320,0.62,4.81,-1.00,2.00,-4.38,-1.25,-0.19,0.49,-0.27,2.50,5.60,1.57,0.00,4.38,0.000
143561325,0.62,4.75,-1.00,2.88,-3.94,-1.19,-0.18,0.49,-0.23,2.50,5.60,1.58,0.00,3.94,0.000
143571329,0.56,4.75,-1.00,3.62,-3.38,-1.00,-0.08,0.58,-0.27,2.50,5.60,1.58,0.00,3.38,0.000
143581332,0.50,4.75,-1.00,4.69,-3.12,-0.75,-0.09,0.63,-0.31,2.50,5.60,1.58,0.00,3.12,0.000
143591487,0.50,4.75,-1.00,5.38,-2.44,0.06,-0.17,0.46,-0.26,2.50,5.60,1.57,0.00,2.44,0.000
143601490,0.44,4.75,-1.00,5.75,-1.81,0.94,-0.10,0.33,-0.30,2.50,5.60,1.58,0.00,1.81,0.000
143612498,0.44,4.69,-1.00,6.19,-1.44,1.88,-0.15,0.20,-0.28,2.50,5.60,1.57,0.00,1.44,0.000
143622501,0.44,4.62,-0.94,6.31,-0.69,2.38,-0.30,0.18,-0.29,2.50,5.60,1.58,0.00,0.69,0.000
143633341,0.44,4.56,-0.94,6.69,-0.31,2.38,-0.16,0.09,-0.23,2.50,5.60,1.58,0.00,0.31,0.000
143643344,0.44,4.50,-0.94,7.00,0.12,2.56,-0.12,0.06,-0.23,2.50,5.60,1.58,0.00,-0.12,0.000
143653346,0.44,4.44,-0.88,7.44,0.38,2.44,-0.11,0.08,-0.21,2.50,5.60,1.58,0.00,-0.38,0.000
143663528,0.44,4.38,-0.88,7.69,0.56,2.12,-0.03,-0.01,-0.18,2.50,5.60,1.58,0.00,-0.56,0.000
143673531,0.44,4.31,-0.81,7.69,0.56,2.31,0.00,-0.35,-0.07,2.50,5.60,1.59,0.00,-0.56,0.000
143683534,0.44,4.25,-0.81,7.38,0.38,2.62,-0.02,-0.30,-0.05,2.50,5.60,1.59,0.00,-0.38,0.000
143693538,0.38,4.19,-0.81,6.50,0.25,2.62,0.00,-0.46,-0.04,2.50,5.60,1.59,0.00,-0.25,0.000
143704576,0.38,4.12,-0.75,5.81,0.19,2.31,-0.02,-0.44,-0.07,2.50,5.60,1.59,0.00,-0.19,0.000
143714904,0.38,4.06,-0.75,5.44,-0.06,2.12,0.08,-0.35,-0.09,2.50,5.60,1.59,0.00,0.06,0.000
143726204,0.38,4.00,-0.75,4.88,-0.38,1.88,0.05,-0.38,-0.11,2.50,5.60,1.59,0.00,0.38,0.000
143736207,0.38,3.94,-0.69,4.69,-0.69,1.31,-0.02,-0.32,-0.10,2.50,5.60,1.60,0.00,0.69,0.000
143746210,0.38,3.88,-0.69,4.44,-0.75,1.06,0.07,-0.27,-0.11,2.50,5.60,1.59,0.00,0.75,0.000
143757155,0.38,3.81,-0.69,4.31,-1.19,0.75,0.20,-0.38,-0.10,2.50,5.60,1.59,0.00,1.19,0.000
143768442,0.38,3.75,-0.69,4.06,-1.44,0.62,0.17,-0.34,-0.09,2.50,5.60,1.59,0.00,1.44,0.000
143778596,0.38,3.69,-0.69,3.75,-1.81,0.50,0.17,-0.34,-0.09,2.50,5.60,1.59,0.00,1.81,0.000
143788600,0.38,3.62,-0.69,3.56,-2.31,0.50,0.20,-0.36,-0.08,2.50,5.60,1.58,0.00,2.31,0.000
143798603,0.38,3.62,-0.69,2.94,-2.44,0.69,-0.05,-0.28,-0.13,2.50,5.60,1.60,0.00,2.44,0.000
143808757,0.31,3.56,-0.69,2.62,-2.56,0.50,0.01,-0.22,-0.14,2.50,5.60,1.59,0.00,2.56,0.000
143818761,0.31,3.50,-0.69,2.25,-2.50,0.44,0.00,-0.27,-0.12,2.50,5.60,1.59,0.00,2.50,0.000
143828947,0.25,3.50,-0.69,1.88,-2.62,0.00,0.00,-0.27,-0.12,2.50,5.60,1.59,0.00,2.62,0.000
143838950,0.25,3.50,-0.69,1.81,-2.69,-0.44,-0.01,-0.20,-0.10,2.50,5.60,1.59,0.00,2.69,0.000
143850729,0.25,3.44,-0.69,1.50,-2.12,-0.62,-0.04,-0.27,-0.11,2.50,5.60,1.59,0.00,2.12,0.000
143860731,0.19,3.44,-0.69,1.00,-1.94,-0.50,-0.15,-0.26,-0.11,2.50,5.60,1.59,0.00,1.94,0.000
143870741,0.19,3.38,-0.69,0.88,-1.62,-0.50,-0.08,-0.12,-0.16,2.50,5.60,1.59,0.00,1.62,0.000
143880746,0.19,3.38,-0.69,0.88,-1.62,-0.50,-0.09,-0.10,-0.17,2.50,5.60,1.59,0.00,1.62,0.000
143890750,0.12,3.38,-0.69,0.75,-1.44,-0.38,-0.12,-0.11,-0.16,2.50,5.60,1.59,0.00,1.44,0.000
143903401,0.12,3.38,-0.69,0.38,-0.94,-0.12,-0.06,-0.16,-0.18,2.50,5.60,1.59,0.00,0.94,0.000
143913404,0.12,3.38,-0.69,0.00,-0.81,0.19,-0.09,-0.05,-0.19,2.50,5.60,1.59,0.00,0.81,0.000
143923408,0.12,3.38,-0.69,0.00,-0.69,0.25,-0.10,-0.07,-0.23,2.50,5.60,1.59,0.00,0.69,0.000
143933738,0.12,3.38,-0.69,0.25,-0.44,0.12,-0.12,-0.00,-0.24,2.50,5.60,1.59,0.00,0.44,0.000
143943741,0.12,3.38,-0.69,0.12,-0.44,-0.06,-0.15,0.07,-0.26,2.50,5.60,1.59,0.00,0.44,0.000
143955181,0.06,3.38,-0.69,0.25,-0.06,-0.19,-0.07,0.02,-0.33,2.50,5.60,1.59,0.00,0.06,0.000
143965184,0.06,3.38,-0.69,0.69,-0.12,-0.38,-0.06,0.03,-0.30,2.50,5.60,1.58,0.00,0.12,0.000
143976795,0.06,3.38,-0.69,0.88,-0.19,-0.50,-0.02,0.05,-0.29,2.50,5.60,1.58,0.00,0.19,0.000
143986809,0.06,3.31,-0.69,1.00,-0.19,-0.38,0.02,0.17,-0.32,2.50,5.60,1.58,0.00,0.19,0.000
144000087,0.06,3.31,-0.69,1.44,-0.19,-0.25,0.18,0.03,-0.30,2.50,5.60,1.58,0.00,0.19,0.000
144010107,0.12,3.31,-0.69,1.50,-0.44,0.06,0.17,0.01,-0.29,2.50,5.60,1.58,0.00,0.44,0.000
144020132,0.12,3.31,-0.69,1.62,-0.56,0.25,0.19,-0.04,-0.28,2.50,5.60,1.58,0.00,0.56,0.000
144030349,0.12,3.31,-0.69,1.56,-0.56,0.50,0.19,-0.04,-0.28,2.50,5.60,1.58,0.00,0.56,0.000
144040352,0.12,3.25,-0.69,1.56,-0.69,0.62,0.20,0.01,-0.24,2.50,5.60,1.58,0.00,0.69,0.000
144050355,0.12,3.25,-0.69,1.56,-1.00,0.81,0.18,0.08,-0.26,2.50,5.60,1.59,0.00,1.00,0.000
144061736,0.06,3.25,-0.69,1.62,-1.62,0.50,0.21,0.04,-0.26,2.50,5.60,1.58,0.00,1.62,0.000
144071739,0.06,3.25,-0.69,1.75,-1.88,0.38,0.26,0.06,-0.22,2.50,5.60,1.58,0.00,1.88,0.000
144083385,0.06,3.25,-0.69,1.69,-2.19,0.56,0.26,-0.06,-0.25,2.50,5.60,1.58,0.00,2.19,0.000
144093388,0.06,3.19,-0.69,1.81,-2.31,0.69,0.25,-0.02,-0.26,2.50,5.60,1.58,0.00,2.31,0.000
144103391,0.06,3.19,-0.69,1.88,-2.69,0.94,0.26,0.02,-0.28,2.50,5.60,1.58,0.00,2.69,0.000
144113395,0.00,3.12,-0.69,2.06,-2.81,1.19,0.17,0.10,-0.32,2.50,5.60,1.57,0.00,2.81,0.000
144123400,0.00,3.12,-0.69,2.50,-3.19,0.88,0.13,0.11,-0.32,2.50,5.60,1.58,0.00,3.19,0.000
144133403,0.00,3.12,-0.62,2.62,-3.38,0.75,0.10,0.11,-0.27,2.50,5.60,1.58,0.00,3.38,0.000
144143405,0.00,3.06,-0.62,2.81,-3.56,0.44,0.06,0.02,-0.29,2.50,5.60,1.58,0.00,3.56,0.000
144153409,0.00,3.06,-0.62,2.88,-3.56,0.69,0.16,-0.04,-0.25,2.50,5.60,1.58,0.00,3.56,0.000
144163411,-0.06,3.06,-0.62,2.94,-3.88,0.81,0.06,-0.00,-0.23,2.50,5.60,1.58,0.00,3.88,0.000
144173416,-0.12,3.00,-0.62,2.94,-3.94,0.94,0.05,-0.05,-0.20,2.50,5.60,1.58,0.00,3.94,0.000
144183758,-0.12,3.00,-0.62,2.94,-3.94,1.25,0.02,-0.07,-0.21,2.50,5.60,1.58,0.00,3.94,0.000
144193761,-0.19,2.94,-0.62,2.69,-4.06,1.56,-0.07,-0.18,-0.26,2.50,5.60,1.58,0.00,4.06,0.000
144204378,-0.25,2.94,-0.62,2.44,-3.88,1.44,-0.18,-0.17,-0.27,2.50,5.60,1.58,0.00,3.88,0.000
144214382,-0.25,2.88,-0.56,2.31,-3.44,1.25,-0.18,-0.25,-0.30,2.50,5.60,1.58,0.00,3.44,0.000
144224800,-0.31,2.88,-0.56,2.06,-3.31,1.00,-0.20,-0.30,-0.29,2.50,5.60,1.58,0.00,3.31,0.000
144234803,-0.38,2.81,-0.56,1.56,-3.25,0.44,-0.30,-0.29,-0.30,2.50,5.60,1.58,0.00,3.25,0.000
144244805,-0.38,2.81,-0.56,1.12,-2.94,0.12,-0.23,-0.22,-0.36,2.50,5.60,1.58,0.00,2.94,0.000
144254808,-0.44,2.75,-0.56,0.75,-2.50,-0.06,-0.12,-0.20,-0.37,2.50,5.60,1.57,0.00,2.50,0.000
144264811,-0.44,2.75,-0.56,0.44,-2.31,-0.50,-0.11,-0.07,-0.42,2.50,5.60,1.58,0.00,2.31,0.000
144274815,-0.50,2.75,-0.56,0.44,-2.25,-0.75,-0.16,-0.00,-0.40,2.50,5.60,1.57,0.00,2.25,0.000
144284817,-0.50,2.75,-0.62,0.38,-2.00,-1.12,-0.19,0.04,-0.32,2.50,5.60,1.58,0.00,2.00,0.000
144294820,-0.56,2.75,-0.62,0.56,-1.75,-1.44,-0.20,-0.00,-0.32,2.50,5.60,1.57,0.00,1.75,0.000
144304824,-0.56,2.75,-0.62,0.75,-1.62,-1.62,-0.22,-0.01,-0.31,2.50,5.60,1.57,0.00,1.62,0.000
144314828,-0.56,2.75,-0.62,0.94,-1.56,-2.19,-0.15,-0.08,-0.20,2.50,5.60,1.57,0.00,1.56,0.000
144324831,-0.56,2.75,-0.69,0.94,-1.50,-2.69,-0.04,-0.07,-0.19,2.50,5.60,1.57,0.00,1.50,0.000
144334834,-0.62,2.75,-0.69,1.25,-1.75,-3.06,0.08,-0.00,-0.14,2.50,5.60,1.58,0.00,1.75,0.000
144344839,-0.62,2.69,-0.75,1.25,-2.25,-3.12,0.11,-0.00,-0.11,2.50,5.60,1.58,0.00,2.25,0.000
144354843,-0.62,2.69,-0.75,1.44,-2.25,-3.00,0.15,0.17,-0.16,2.50,5.60,1.57,0.00,2.25,0.000
144364846,-0.69,2.69,-0.81,1.94,-2.56,-2.88,0.20,0.16,-0.18,2.50,5.60,1.57,0.00,2.56,0.000
144374849,-0.69,2.69,-0.81,2.12,-2.94,-2.44,0.26,0.05,-0.16,2.50,5.60,1.57,0.00,2.94,0.000
144384852,-0.75,2.62,-0.81,2.56,-3.12,-1.81,0.20,0.05,-0.11,2.50,5.60,1.57,0.00,3.12,0.000
144394854,-0.75,2.62,-0.88,2.62,-3.31,-1.31,0.29,0.01,-0.07,2.50,5.60,1.57,0.00,3.31,0.000
144404985,-0.75,2.62,-0.88,2.62,-3.25,-0.56,0.22,-0.08,-0.07,2.50,5.60,1.57,0.00,3.25,0.000
144414988,-0.81,2.56,-0.88,2.62,-3.50,0.25,0.12,-0.07,-0.06,2.50,5.60,1.58,0.00,3.50,0.000
144426811,-0.81,2.56,-0.88,2.38,-3.81,0.75,0.04,-0.07,-0.07,2.50,5.60,1.58,0.00,3.81,0.000
144436816,-0.88,2.50,-0.81,2.12,-3.75,1.31,0.02,0.01,-0.05,2.50,5.60,1.58,0.00,3.75,0.000
144447029,-0.88,2.50,-0.81,2.12,-4.06,1.75,-0.06,-0.00,-0.07,2.50,5.60,1.57,0.00,4.06,0.000
144457032,-0.94,2.50,-0.81,2.06,-3.88,2.00,-0.13,-0.05,-0.08,2.50,5.60,1.57,0.00,3.88,0.000
144468486,-1.00,2.44,-0.81,2.12,-3.94,2.06,-0.20,-0.04,-0.06,2.50,5.60,1.58,0.00,3.94,0.000
144479760,-1.00,2.44,-0.75,1.88,-4.00,2.12,-0.40,-0.18,-0.04,2.50,5.60,1.57,0.00,4.00,0.000
144490304,-1.06,2.44,-0.75,1.62,-3.69,2.31,-0.39,-0.26,-0.01,2.50,5.60,1.57,0.00,3.69,0.000
144500307,-1.12,2.44,-0.75,1.38,-3.50,2.12,-0.33,-0.30,-0.01,2.50,5.60,1.57,0.00,3.50,0.000
144511532,-1.12,2.38,-0.69,0.88,-2.88,2.06,-0.54,-0.07,-0.09,2.50,5.60,1.57,0.00,2.88,0.000
144521873,-1.12,2.38,-0.69,0.62,-2.62,1.50,-0.43,-0.09,-0.09,2.50,5.60,1.57,0.00,2.62,0.000
144532805,-1.19,2.38,-0.69,0.44,-2.12,1.19,-0.43,-0.09,-0.09,2.50,5.60,1.57,0.00,2.12,0.000
144542807,-1.25,2.38,-0.69,0.31,-1.56,1.12,-0.53,-0.02,-0.14,2.50,5.60,1.57,0.00,1.56,0.000
144552809,-1.31,2.38,-0.69,0.25,-0.38,0.56,-0.32,-0.05,-0.17,2.50,5.60,1.57,0.00,0.38,0.000
144562813,-1.31,2.38,-0.62,0.25,-0.38,0.56,-0.37,-0.02,-0.13,2.50,5.60,1.57,0.00,0.38,0.000
144573063,-1.38,2.38,-0.62,0.25,0.62,0.62,-0.37,-0.03,-0.17,2.50,5.60,1.57,0.00,-0.62,0.000
144583089,-1.38,2.38,-0.62,0.25,0.62,0.62,-0.21,-0.15,-0.20,2.50,5.60,1.57,0.00,-0.62,0.000
144594099,-1.38,2.38,-0.62,0.06,1.56,0.69,-0.21,-0.14,-0.18,2.50,5.60,1.57,0.00,-1.56,0.000
144604103,-1.38,2.38,-0.62,-0.31,2.12,1.00,-0.14,-0.11,-0.20,2.50,5.60,1.57,0.00,-2.12,0.000
144614334,-1.38,2.38,-0.62,-0.38,2.31,1.12,-0.08,-0.10,-0.20,2.50,5.60,1.57,0.00,-2.31,0.000
144624337,-1.38,2.38,-0.62,-0.50,2.38,1.06,-0.09,-0.09,-0.14,2.50,5.60,1.57,0.00,-2.38,0.000
144635971,-1.31,2.38,-0.56,-0.62,2.56,1.12,-0.02,-0.07,-0.15,2.50,5.60,1.57,0.00,-2.56,0.000
144645974,-1.31,2.38,-0.56,-0.94,2.56,1.25,-0.01,-0.07,-0.18,2.50,5.60,1.57,0.00,-2.56,0.000
144657163,-1.25,2.38,-0.56,-0.94,2.62,0.94,0.02,-0.07,-0.19,2.50,5.60,1.57,0.00,-2.62,0.000
144667165,-1.25,2.38,-0.56,-1.19,2.50,0.69,0.11,0.05,-0.20,2.50,5.60,1.57,0.00,-2.50,0.000
144677620,-1.19,2.38,-0.56,-1.00,2.62,0.62,0.11,-0.00,-0.19,2.50,5.60,1.57,0.00,-2.62,0.000
144687625,-1.19,2.38,-0.56,-1.06,2.50,0.56,0.06,0.10,-0.20,2.50,5.60,1.57,0.00,-2.50,0.000
144698445,-1.19,2.44,-0.56,-0.94,2.44,0.50,0.13,0.08,-0.24,2.50,5.60,1.57,0.00,-2.44,0.000
144708448,-1.12,2.44,-0.56,-0.62,2.06,0.56,0.16,-0.02,-0.25,2.50,5.60,1.57,0.00,-2.06,0.000
144720323,-1.12,2.44,-0.56,-0.75,1.88,0.50,0.12,-0.01,-0.23,2.50,5.60,1.57,0.00,-1.88,0.000
144731771,-1.12,2.44,-0.56,-0.62,1.38,0.38,0.13,0.04,-0.27,2.50,5.60,1.57,0.00,-1.38,0.000
144742859,-1.06,2.44,-0.56,-0.62,1.12,0.19,0.13,0.02,-0.28,2.50,5.60,1.58,0.00,-1.12,0.000
144752862,-1.06,2.44,-0.56,-0.56,0.81,0.00,0.19,-0.00,-0.30,2.50,5.60,1.58,0.00,-0.81,0.000
144763707,-1.06,2.44,-0.56,-0.31,0.38,-0.62,0.19,-0.07,-0.24,2.50,5.60,1.58,0.00,-0.38,0.000
144773711,-1.06,2.44,-0.56,-0.31,0.38,-0.62,0.20,-0.06,-0.25,2.50,5.60,1.58,0.00,-0.38,0.000
144785897,-1.06,2.44,-0.56,-0.38,-0.19,-0.81,0.18,-0.04,-0.23,2.50,5.60,1.58,0.00,0.19,0.000
144795900,-1.06,2.44,-0.56,-0.50,-0.31,-0.88,0.19,-0.01,-0.24,2.50,5.60,1.58,0.00,0.31,0.000
144805904,-1.06,2.44,-0.56,-0.31,-0.62,-0.94,0.11,0.05,-0.30,2.50,5.60,1.58,0.00,0.62,0.000
144815908,-1.06,2.44,-0.62,-0.31,-0.75,-0.62,0.03,0.02,-0.28,2.50,5.60,1.58,0.00,0.75,0.000
144825910,-1.06,2.44,-0.62,-0.25,-0.75,-0.50,0.02,-0.12,-0.20,2.50,5.60,1.58,0.00,0.75,0.000
144835914,-1.06,2.44,-0.62,-0.56,-0.75,-0.19,0.00,-0.12,-0.16,2.50,5.60,1.58,0.00,0.75,0.000
144845918,-1.06,2.44,-0.62,-0.69,-0.69,-0.06,-0.08,-0.17,-0.16,2.50,5.60,1.58,0.00,0.69,0.000
144855921,-1.06,2.44,-0.62,-0.75,-0.62,-0.06,-0.11,-0.20,-0.19,2.50,5.60,1.58,0.00,0.62,0.000
144865926,-1.06,2.44,-0.62,-1.06,-0.69,0.12,-0.11,-0.05,-0.18,2.50,5.60,1.58,0.00,0.69,0.000
144875928,-1.06,2.44,-0.62,-1.25,-0.62,-0.12,-0.18,-0.12,-0.16,2.50,5.60,1.58,0.00,0.62,0.000
144885931,-1.12,2.44,-0.62,-1.38,-0.50,-0.25,-0.18,-0.13,-0.14,2.50,5.60,1.58,0.00,0.50,0.000
144897685,-1.12,2.50,-0.62,-1.56,-0.50,-0.38,-0.05,-0.09,-0.14,2.50,5.60,1.58,0.00,0.50,0.000
144907687,-1.12,2.50,-0.62,-1.75,-0.31,-0.38,-0.08,-0.24,-0.11,2.50,5.60,1.58,0.00,0.31,0.000
144919512,-1.12,2.50,-0.62,-1.94,-0.19,-0.44,-0.11,-0.27,-0.04,2.50,5.60,1.58,0.00,0.19,0.000
144929515,-1.12,2.50,-0.62,-2.44,-0.06,-0.50,-0.10,-0.41,0.03,2.50,5.60,1.57,0.00,0.06,0.000
144940997,-1.12,2.50,-0.62,-3.00,0.06,-0.56,-0.16,-0.44,0.05,2.50,5.60,1.57,0.00,-0.06,0.000
144951000,-1.12,2.56,-0.62,-3.56,0.12,-1.00,-0.16,-0.54,0.16,2.50,5.60,1.57,0.00,-0.12,0.000
144964967,-1.12,2.56,-0.62,-5.44,0.69,-1.25,-0.14,-0.79,0.20,2.50,5.60,1.56,0.00,-0.69,0.000
144974970,-1.12,2.62,-0.62,-6.56,0.56,-0.94,-0.07,-0.93,0.29,2.50,5.60,1.56,0.00,-0.56,0.000
144986760,-1.12,2.69,-0.62,-8.06,0.81,-0.56,-0.02,-1.32,0.44,2.50,5.60,1.57,0.00,-0.81,0.000
144996774,-1.12,2.88,-0.62,-9.69,1.12,-0.12,-0.06,-1.60,0.58,2.50,5.60,1.57,0.00,-1.12,0.000
145008021,-1.06,3.00,-0.62,-11.75,1.25,0.38,-0.05,-2.02,0.74,2.50,5.60,1.56,0.00,-1.25,0.000
145018024,-1.06,3.12,-0.62,-14.62,1.38,1.12,-0.15,-2.50,0.91,2.50,5.60,1.57,0.00,-1.38,0.000
145028856,-1.06,3.31,-0.62,-18.06,1.69,2.06,-0.38,-3.98,1.54,2.50,5.60,1.56,0.00,-1.69,0.000
145038860,-1.06,3.50,-0.56,-23.12,2.19,3.19,-0.74,-4.76,1.81,2.50,5.60,1.57,0.00,-2.19,0.000
145048865,-1.00,3.81,-0.50,-30.19,3.38,5.62,-0.67,-5.64,2.12,2.50,5.60,1.56,0.00,-3.38,0.000
145058868,-1.00,4.19,-0.44,-38.88,4.38,7.81,-1.21,-6.43,2.30,2.50,5.60,1.57,0.00,-4.38,0.000
145068871,-0.94,4.69,-0.31,-49.62,6.12,9.12,-1.78,-7.66,1.83,2.50,5.60,1.56,0.00,-6.12,0.000
145078876,-0.88,5.25,-0.25,-61.81,7.75,8.75,-2.22,-7.71,1.32,2.50,5.60,1.56,0.00,-7.75,0.000
145090142,-0.75,6.00,-0.19,-75.00,10.12,6.88,-2.65,-8.01,0.85,2.50,5.60,1.57,0.00,-10.12,0.000
145100145,-0.62,6.88,-0.12,-88.06,12.88,3.88,-2.83,-7.76,0.27,2.50,5.60,1.56,0.00,-12.88,0.000
145113397,-0.50,7.81,-0.06,-100.69,16.06,0.06,-2.18,-5.38,-1.42,2.50,5.60,1.57,0.00,-16.06,0.00
145124089,-0.31,8.88,-0.12,-111.12,18.62,-4.25,-1.71,-4.40,-1.90,2.50,5.60,1.57,0.00,-18.62,0.00
145135807,-0.06,10.06,-0.19,-119.88,21.06,-8.69,-1.30,-3.31,-2.28,2.50,5.60,1.57,0.00,-21.06,0.00
145145810,0.06,11.31,-0.25,-126.69,23.12,-12.50,-0.33,-1.78,-2.73,2.50,5.60,1.59,0.00,-23.12,0.00
145155814,0.38,12.56,-0.44,-133.69,25.38,-18.19,-0.07,-0.66,-3.01,2.50,5.60,1.58,0.00,-25.38,0.00
145167336,0.62,13.88,-0.56,-134.44,25.75,-20.31,0.48,0.18,-3.15,2.50,5.60,1.58,0.00,-25.75,0.000
145177345,0.94,15.12,-0.75,-132.62,25.31,-22.38,0.73,0.79,-3.19,2.50,5.60,1.58,0.00,-25.31,0.000
145188165,1.50,17.69,-1.12,-129.62,24.31,-23.69,1.60,2.95,-3.30,2.50,5.60,1.59,0.00,-24.31,0.000
145198178,1.81,18.88,-1.38,-124.44,23.06,-24.38,1.51,3.51,-3.01,2.50,5.60,1.60,0.00,-23.06,0.000
145208184,2.06,20.00,-1.56,-117.69,21.56,-23.50,1.64,4.13,-2.70,2.50,5.60,1.59,0.00,-21.56,0.000
145218186,2.31,21.06,-1.75,-110.00,19.81,-22.38,1.85,4.62,-2.43,2.50,5.60,1.60,0.00,-19.81,0.000
145228190,2.56,22.06,-2.00,-101.56,17.62,-21.62,2.20,4.80,-2.07,2.50,5.60,1.60,0.00,-17.62,0.000
145238194,2.56,22.06,-2.00,-92.94,15.56,-21.12,2.05,4.97,-1.95,2.50,5.60,1.61,0.00,-15.56,0.000
145250659,3.00,23.75,-2.38,-84.50,13.31,-20.06,2.11,4.96,-1.79,2.50,5.60,1.62,0.00,-13.31,0.000
145263360,3.12,24.50,-2.56,-76.38,11.25,-18.00,2.31,5.11,-1.68,2.50,5.60,1.62,0.00,-11.25,0.000
145274464,3.31,25.12,-2.69,-68.31,9.00,-15.06,2.10,5.32,-1.25,2.50,5.60,1.63,0.00,-9.00,0.0000
145287778,3.38,25.75,-2.81,-52.44,4.56,-7.69,1.99,5.00,-1.08,2.50,5.60,1.63,0.00,-4.56,0.0000
145297782,3.44,26.25,-2.88,-44.88,2.31,-4.12,1.89,4.57,-0.87,2.50,5.60,1.63,0.00,-2.31,0.0000
145308204,3.50,27.00,-2.94,-38.00,0.44,-1.06,1.82,4.06,-0.73,2.50,5.60,1.63,0.00,-0.44,0.0000
145318206,3.50,27.31,-2.94,-31.81,-1.19,1.94,1.54,3.70,-0.60,2.50,5.60,1.63,0.00,1.19,0.0000
145329021,3.44,27.62,-2.94,-26.25,-2.81,3.31,1.57,3.46,-0.58,2.50,5.60,1.64,0.00,2.81,0.0000
145339024,3.38,27.81,-2.88,-21.19,-4.38,3.88,1.13,3.37,-0.49,2.50,5.60,1.64,0.00,4.38,0.0000
145349029,3.31,27.94,-2.88,-16.25,-5.69,3.12,0.87,2.43,-0.40,2.50,5.60,1.64,0.00,5.69,0.0000
145359032,3.25,28.06,-2.88,-12.44,-6.56,1.69,0.64,2.48,-0.38,2.50,5.60,1.64,0.00,6.56,0.0000
145369322,3.19,28.19,-2.94,-9.12,-7.56,0.38,0.08,1.86,-0.20,2.50,5.60,1.64,0.00,7.56,0.0000
145379327,3.12,28.25,-2.94,-5.94,-8.44,-1.38,0.22,1.52,-0.05,2.50,5.60,1.64,0.00,8.44,0.0000
145389331,3.06,28.25,-3.00,-3.75,-9.00,-2.75,0.56,1.54,-0.06,2.50,5.60,1.64,0.00,9.00,0.0000
145399334,3.00,28.25,-3.06,-1.44,-9.56,-3.50,-0.08,1.10,0.02,2.50,5.60,1.63,0.00,9.56,0.0000
145409336,2.94,28.25,-3.12,0.62,-10.19,-4.19,0.00,1.06,0.08,2.50,5.60,1.64,0.00,10.19,0.0000
145419339,2.88,28.25,-3.19,2.25,-10.19,-4.88,0.31,1.06,0.07,2.50,5.60,1.63,0.00,10.19,0.0000
145429344,2.81,28.19,-3.25,3.88,-10.56,-4.81,-0.15,0.83,0.09,2.50,5.60,1.63,0.00,10.56,0.0000
145439348,2.75,28.12,-3.31,5.44,-10.56,-4.62,-0.16,0.66,0.12,2.50,5.60,1.63,0.00,10.56,0.0000
145449353,2.69,28.06,-3.38,6.69,-10.25,-4.56,0.00,0.46,0.17,2.50,5.60,1.63,0.00,10.25,0.0000
145459357,2.62,28.00,-3.50,7.44,-10.62,-4.50,-0.15,0.20,0.16,2.50,5.60,1.62,0.00,10.62,0.0000
145469360,2.56,27.88,-3.56,7.75,-10.38,-4.56,-0.42,-0.29,0.21,2.50,5.60,1.63,0.00,10.38,0.0000
145479364,2.44,27.81,-3.62,7.56,-9.94,-4.44,-0.15,-0.28,0.21,2.50,5.60,1.63,0.00,9.94,0.00000
145489750,2.44,27.75,-3.69,7.06,-9.31,-4.38,-0.40,-0.30,0.18,2.50,5.60,1.63,0.00,9.31,0.00000
145499754,2.38,27.69,-3.75,6.69,-9.06,-3.88,-0.81,-0.15,0.13,2.50,5.60,1.62,0.00,9.06,0.00000
145509756,2.31,27.62,-3.75,6.31,-8.19,-3.44,-0.34,0.17,0.09,2.50,5.60,1.62,0.00,8.19,0.00000
145519759,2.25,27.56,-3.81,6.31,-7.62,-3.25,-0.55,0.05,0.14,2.50,5.60,1.62,0.00,7.62,0.00000
145529764,2.19,27.50,-3.88,6.56,-7.25,-3.44,-0.79,0.02,0.18,2.50,5.60,1.62,0.00,7.25,0.00000
145539767,2.19,27.44,-3.94,6.69,-6.25,-3.44,-0.33,-0.16,0.23,2.50,5.60,1.62,0.00,6.25,0.00000
145551468,2.12,27.38,-4.00,6.50,-5.50,-3.81,-0.62,-0.25,0.24,2.50,5.60,1.62,0.00,5.50,0.00000
145561472,2.00,27.25,-4.00,6.19,-4.81,-3.88,-0.63,-0.21,0.19,2.50,5.60,1.62,0.00,4.81,0.00000
145573702,2.00,27.19,-4.06,5.69,-3.69,-4.19,-0.33,-0.22,0.14,2.50,5.60,1.62,0.00,3.69,0.00000
145584980,2.00,27.12,-4.12,5.38,-3.25,-4.88,-0.66,-0.01,0.12,2.50,5.60,1.62,0.00,3.25,0.00000
145595092,2.00,27.12,-4.19,4.94,-2.88,-5.19,-0.23,0.23,0.02,2.50,5.60,1.62,0.00,2.88,0.00000
145605094,2.00,27.06,-4.25,4.94,-2.19,-5.38,0.08,0.35,-0.02,2.50,5.60,1.61,0.00,2.19,0.00000
145616152,2.00,27.00,-4.25,5.56,-1.81,-5.25,-0.07,0.47,-0.02,2.50,5.60,1.62,0.00,1.81,0.00000
145626287,2.00,26.94,-4.31,6.25,-1.94,-5.12,0.23,0.22,0.07,2.50,5.60,1.61,0.00,1.94,0.000000
145639951,2.06,26.88,-4.38,7.81,-1.50,-4.94,0.03,0.23,0.13,2.50,5.60,1.62,0.00,1.50,0.000000
145649955,2.06,26.69,-4.50,8.31,-1.50,-4.44,0.00,0.37,0.13,2.50,5.60,1.62,0.00,1.50,0.000000
145662019,2.06,26.62,-4.50,8.75,-1.88,-4.12,0.53,0.23,0.27,2.50,5.60,1.62,0.00,1.88,0.000000
145672022,2.06,26.50,-4.56,9.69,-2.00,-3.75,0.37,0.34,0.27,2.50,5.60,1.62,0.00,2.00,0.000000
145683210,2.06,26.44,-4.56,10.31,-2.50,-2.94,0.16,0.49,0.22,2.50,5.60,1.62,0.00,2.50,0.00000
145693213,2.00,26.31,-4.62,10.94,-2.75,-2.12,0.35,0.35,0.20,2.50,5.60,1.62,0.00,2.75,0.00000
145705806,2.00,26.19,-4.62,11.69,-3.12,-1.69,0.10,0.23,0.15,2.50,5.60,1.62,0.00,3.12,0.00000
145717740,2.00,26.06,-4.62,12.44,-3.56,-1.19,0.09,-0.01,0.22,2.50,5.60,1.61,0.00,3.56,0.00000
145727744,1.94,25.94,-4.69,12.88,-3.81,-0.94,0.10,-0.08,0.25,2.50,5.60,1.61,0.00,3.81,0.00000
145740245,1.94,25.81,-4.69,12.94,-3.88,-0.94,-0.13,-0.30,0.35,2.50,5.60,1.61,0.00,3.88,0.0000
145750247,1.88,25.56,-4.69,12.62,-3.81,-1.00,0.09,-0.24,0.34,2.50,5.60,1.60,0.00,3.81,0.0000
145762634,1.81,25.44,-4.75,12.19,-3.62,-1.38,0.18,-0.19,0.29,2.50,5.60,1.60,0.00,3.62,0.0000
145772638,1.81,25.31,-4.75,12.00,-3.88,-1.56,0.00,-0.20,0.26,2.50,5.60,1.61,0.00,3.88,0.0000
145783833,1.75,25.19,-4.75,11.75,-3.81,-1.44,0.12,-0.19,0.25,2.50,5.60,1.61,0.00,3.81,0.0000
145793836,1.75,25.12,-4.81,11.69,-3.75,-0.94,-0.04,-0.24,0.23,2.50,5.60,1.61,0.00,3.75,0.0000
145803839,1.69,25.00,-4.81,11.56,-3.88,-0.31,-0.32,-0.24,0.19,2.50,5.60,1.61,0.00,3.88,0.0000
145814506,1.69,24.88,-4.81,11.31,-3.56,0.19,-0.31,-0.30,0.19,2.50,5.60,1.61,0.00,3.56,0.0000
145828065,1.69,24.75,-4.81,11.06,-3.31,0.19,-0.35,-0.10,0.16,2.50,5.60,1.60,0.00,3.31,0.0000
145838158,1.62,24.69,-4.81,10.56,-3.19,-0.19,-0.35,-0.10,0.16,2.50,5.60,1.61,0.00,3.19,0.0000
145848914,1.62,24.56,-4.81,10.31,-2.69,-1.19,-0.08,-0.00,0.15,2.50,5.60,1.60,0.00,2.69,0.0000
145858925,1.56,24.44,-4.88,10.75,-2.75,-1.69,-0.19,0.22,0.05,2.50,5.60,1.60,0.00,2.75,0.0000
145869524,1.56,24.38,-4.88,11.12,-2.62,-1.44,0.07,0.26,0.02,2.50,5.60,1.60,0.00,2.62,0.0000
145879528,1.56,24.25,-4.88,11.69,-2.88,-1.06,0.18,0.32,0.01,2.50,5.60,1.60,0.00,2.88,0.0000
145889531,1.56,24.12,-4.88,11.69,-2.88,-1.06,0.02,0.25,0.00,2.50,5.60,1.60,0.00,2.88,0.0000
145899535,1.50,24.00,-4.88,12.38,-2.75,-0.50,0.20,0.33,-0.01,2.50,5.60,1.60,0.00,2.75,0.0000
145910416,1.50,23.88,-4.94,13.50,-2.62,0.12,0.18,0.40,-0.01,2.50,5.60,1.59,0.00,2.62,0.0000
145920419,1.44,23.75,-4.94,14.12,-2.75,0.19,0.01,0.42,-0.03,2.50,5.60,1.59,0.00,2.75,0.0000
145931648,1.44,23.50,-4.94,15.12,-2.75,0.19,0.00,0.67,-0.11,2.50,5.60,1.60,0.00,2.75,0.0000
145941652,1.38,23.38,-4.94,16.50,-2.81,-0.31,0.10,0.87,-0.22,2.50,5.60,1.60,0.00,2.81,0.0000
145951657,1.38,23.19,-4.94,17.81,-2.94,-0.12,-0.03,0.97,-0.24,2.50,5.60,1.59,0.00,2.94,0.0000
145961661,1.31,23.00,-4.94,19.62,-3.06,-0.25,0.04,1.13,-0.33,2.50,5.60,1.59,0.00,3.06,0.0000
145971913,1.31,22.81,-4.94,21.31,-2.94,0.19,0.13,1.19,-0.37,2.50,5.60,1.60,0.00,2.94,0.0000
145981915,1.31,22.56,-4.94,23.56,-3.00,0.44,-0.02,1.57,-0.44,2.50,5.60,1.59,0.00,3.00,0.0000
145991918,1.25,22.31,-4.94,26.00,-3.25,0.50,0.21,1.63,-0.48,2.50,5.60,1.59,0.00,3.25,0.0000
146001922,1.25,22.06,-4.94,28.38,-3.56,0.44,0.27,1.67,-0.51,2.50,5.60,1.59,0.00,3.56,0.0000
146011926,1.19,21.75,-4.94,31.06,-3.88,0.81,0.24,1.76,-0.56,2.50,5.60,1.58,0.00,3.88,0.0000
146021929,1.12,21.38,-4.94,33.75,-4.06,1.62,0.35,1.79,-0.57,2.50,5.60,1.59,0.00,4.06,0.0000
146031932,1.06,21.06,-4.88,36.75,-4.25,3.12,0.52,1.78,-0.61,2.50,5.60,1.58,0.00,4.25,0.0000
146041935,1.06,20.69,-4.88,39.19,-4.31,4.56,0.54,1.74,-0.70,2.50,5.60,1.59,0.00,4.31,0.0000
146052264,1.00,20.25,-4.81,42.12,-4.75,5.81,0.33,1.74,-0.71,2.50,5.60,1.58,0.00,4.75,0.0000
146062267,1.00,20.19,-4.75,44.75,-4.88,6.75,0.49,1.62,-0.73,2.50,5.60,1.57,0.00,4.88,0.0000
146073327,0.94,19.69,-4.69,47.12,-5.06,7.75,0.35,1.43,-0.74,2.50,5.60,1.57,0.00,5.06,0.0000
146083329,0.81,19.25,-4.62,49.38,-4.94,8.31,0.12,1.25,-0.77,2.50,5.60,1.57,0.00,4.94,0.0000
146093565,0.75,18.75,-4.50,51.31,-4.94,9.38,0.24,1.33,-0.79,2.50,5.60,1.57,0.00,4.94,0.0000
146103569,0.69,18.25,-4.44,53.06,-5.00,10.38,0.53,0.77,-0.68,2.50,5.60,1.57,0.00,5.00,0.0000
146113573,0.62,17.69,-4.31,54.06,-5.06,11.81,0.40,0.73,-0.64,2.50,5.60,1.56,0.00,5.06,0.0000
146123577,0.50,17.19,-4.19,55.06,-5.06,13.06,0.38,0.80,-0.66,2.50,5.60,1.56,0.00,5.06,0.0000
146133581,0.44,16.62,-4.06,56.12,-4.81,14.50,0.77,0.57,-0.59,2.50,5.60,1.55,0.00,4.81,0.0000
146143583,0.38,16.06,-3.94,56.69,-5.00,16.25,0.70,0.40,-0.63,2.50,5.60,1.56,0.00,5.00,0.0000
146155081,0.25,15.50,-3.75,57.44,-5.00,16.88,0.17,0.20,-0.57,2.50,5.60,1.56,0.00,5.00,0.0000
146165083,0.19,14.94,-3.56,58.00,-4.94,17.00,0.44,0.01,-0.53,2.50,5.60,1.56,0.00,4.94,0.0000
146178882,0.06,14.38,-3.44,58.25,-4.94,16.62,0.02,-0.30,-0.49,2.50,5.60,1.56,0.00,4.94,0.0000
146189213,0.00,13.81,-3.31,58.38,-5.00,15.69,0.02,-0.30,-0.49,2.50,5.60,1.56,0.00,5.00,0.0000
146201405,0.00,13.25,-3.12,57.81,-5.31,14.19,0.29,-0.23,-0.44,2.50,5.60,1.56,0.00,5.31,0.0000
146211407,-0.12,12.69,-3.00,57.69,-5.50,14.25,0.21,-0.23,-0.45,2.50,5.60,1.56,0.00,5.50,0.0000
146223527,-0.25,11.62,-2.75,57.44,-6.19,14.00,0.44,-0.26,-0.44,2.50,5.60,1.56,0.00,6.19,0.0000
146233532,-0.38,11.06,-2.62,57.44,-6.69,13.75,0.51,-0.21,-0.44,2.50,5.60,1.55,0.00,6.69,0.0000
146245716,-0.44,10.50,-2.50,57.25,-7.44,13.56,0.38,-0.38,-0.44,2.50,5.60,1.56,0.00,7.44,0.0000
146255719,-0.56,9.94,-2.38,57.00,-8.12,13.19,0.49,-0.35,-0.43,2.50,5.60,1.55,0.00,8.12,0.0000
146270580,-0.69,9.38,-2.31,56.00,-9.25,12.38,0.41,-0.80,-0.32,2.50,5.60,1.56,0.00,9.25,0.0000
146280582,-0.75,8.81,-2.19,55.12,-9.81,12.00,0.47,-0.87,-0.29,2.50,5.60,1.55,0.00,9.81,0.0000
146290586,-0.88,8.31,-2.06,55.12,-9.81,12.00,0.47,-0.87,-0.29,2.50,5.60,1.55,0.00,9.81,0.0000
146300588,-1.00,7.75,-1.94,54.12,-10.31,11.75,0.47,-1.02,-0.23,2.50,5.60,1.55,0.00,10.31,0.000
146310592,-1.12,7.25,-1.88,51.50,-11.69,10.62,0.57,-1.17,-0.09,2.50,5.60,1.55,0.00,11.69,0.000
146320652,-1.25,6.75,-1.75,50.25,-12.50,10.25,0.53,-1.33,-0.03,2.50,5.60,1.56,0.00,12.50,0.000
146330654,-1.38,6.25,-1.69,48.75,-13.62,9.44,0.39,-1.22,-0.04,2.50,5.60,1.56,0.00,13.62,0.000
146340656,-1.50,5.81,-1.62,48.75,-13.62,9.44,0.39,-1.22,-0.04,2.50,5.60,1.56,0.00,13.62,0.000
146350659,-1.69,5.31,-1.56,47.50,-14.56,8.69,0.47,-1.50,0.01,2.50,5.60,1.56,0.00,14.56,0.000
146360704,-1.81,4.88,-1.50,44.06,-16.19,7.12,0.12,-1.73,0.07,2.50,5.60,1.56,0.00,16.19,0.000
146370708,-2.00,4.44,-1.44,44.06,-16.19,7.12,0.35,-1.78,0.07,2.50,5.60,1.55,0.00,16.19,0.000
146381153,-2.19,4.06,-1.38,39.31,-17.50,6.69,-0.07,-2.05,0.20,2.50,5.60,1.56,0.00,17.50,0.000
146391155,-2.31,3.69,-1.31,39.31,-17.50,6.69,-0.07,-2.05,0.20,2.50,5.60,1.56,0.00,17.50,0.000
146402741,-2.50,3.31,-1.25,34.25,-17.56,8.06,-0.06,-1.85,0.19,2.50,5.60,1.57,0.00,17.56,0.000
146412743,-2.69,3.00,-1.19,31.75,-17.44,8.44,-0.24,-1.70,0.11,2.50,5.60,1.56,0.00,17.44,0.000
146422747,-2.88,2.69,-1.12,29.38,-17.25,8.44,-0.52,-1.69,0.12,2.50,5.60,1.56,0.00,17.25,0.000
146432752,-3.00,2.38,-1.06,27.38,-16.69,8.19,-0.51,-1.84,0.17,2.50,5.60,1.57,0.00,16.69,0.000
146442754,-3.19,2.12,-1.00,24.81,-16.12,8.31,-0.77,-1.91,0.18,2.50,5.60,1.56,0.00,16.12,0.000
146452758,-3.38,1.88,-0.94,22.19,-15.12,8.12,-0.89,-2.01,0.16,2.50,5.60,1.57,0.00,15.12,0.000
146462762,-3.50,1.62,-0.81,19.44,-13.75,8.12,-0.87,-1.90,0.05,2.50,5.60,1.56,0.00,13.75,0.000
146472767,-3.62,1.44,-0.75,16.94,-12.75,8.00,-1.03,-1.79,0.03,2.50,5.60,1.57,0.00,12.75,0.000
146483865,-3.88,1.12,-0.62,14.50,-11.44,7.62,-1.08,-1.77,0.02,2.50,5.60,1.56,0.00,11.44,0.000
146493867,-3.94,1.00,-0.56,12.19,-9.88,7.19,-1.08,-1.61,0.03,2.50,5.60,1.56,0.00,9.88,0.0000
146506456,-4.06,0.94,-0.50,10.00,-8.81,6.25,-1.11,-1.55,0.03,2.50,5.60,1.56,0.00,8.81,0.0000
146518991,-4.12,0.81,-0.44,8.06,-7.12,5.50,-1.10,-1.40,0.03,2.50,5.60,1.57,0.00,7.12,0.0000
146529878,-4.19,0.75,-0.44,5.75,-5.44,4.62,-0.92,-1.42,0.09,2.50,5.60,1.56,0.00,5.44,0.0000
146540626,-4.25,0.75,-0.38,3.88,-4.31,3.69,-0.92,-1.42,0.09,2.50,5.60,1.56,0.00,4.31,0.0000
146550628,-4.25,0.69,-0.38,1.69,-3.00,2.94,-0.77,-1.33,0.11,2.50,5.60,1.57,0.00,3.00,0.0000
146560632,-4.38,0.50,-0.31,-0.06,-1.50,2.50,-0.62,-1.05,0.10,2.50,5.60,1.57,0.00,1.50,0.0000
146571581,-4.38,0.50,-0.31,-1.88,-0.38,2.00,-0.61,-0.83,0.07,2.50,5.60,1.56,0.00,0.38,0.0000
146581584,-4.38,0.50,-0.31,-3.25,0.62,1.75,-0.43,-0.78,0.08,2.50,5.60,1.56,0.00,-0.62,0.0000
146591587,-4.38,0.56,-0.25,-4.38,1.56,0.94,-0.43,-0.78,0.08,2.50,5.60,1.56,0.00,-1.56,0.0000
146601590,-4.38,0.62,-0.25,-5.31,2.06,0.31,-0.40,-0.58,0.03,2.50,5.60,1.56,0.00,-2.06,0.0000
146611594,-4.31,0.69,-0.25,-6.12,2.69,0.00,-0.05,-0.49,0.06,2.50,5.60,1.57,0.00,-2.69,0.0000
146623718,-4.31,0.75,-0.25,-7.88,3.38,-0.44,-0.04,-0.38,0.06,2.50,5.60,1.56,0.00,-3.38,0.000
146633721,-4.25,0.81,-0.25,-8.75,3.50,-0.50,0.00,-0.38,0.01,2.50,5.60,1.56,0.00,-3.50,0.000
146643723,-4.25,0.94,-0.25,-9.25,3.25,-0.38,0.20,-0.38,0.01,2.50,5.60,1.56,0.00,-3.25,0.000
146653725,-4.19,1.00,-0.25,-9.88,3.19,-0.19,0.14,-0.06,-0.06,2.50,5.60,1.57,0.00,-3.19,0.000
146663728,-4.19,1.12,-0.25,-10.00,2.62,-0.31,0.12,-0.00,-0.11,2.50,5.60,1.56,0.00,-2.62,0.000
146673732,-4.12,1.19,-0.25,-9.81,2.62,-0.44,0.26,0.05,-0.14,2.50,5.60,1.56,0.00,-2.62,0.0000
146683735,-4.12,1.31,-0.25,-9.81,2.25,-0.69,0.31,0.15,-0.18,2.50,5.60,1.56,0.00,-2.25,0.0000
146697170,-4.06,1.50,-0.25,-9.38,2.06,-0.75,0.21,0.31,-0.22,2.50,5.60,1.57,0.00,-2.06,0.0000
146707173,-4.06,1.56,-0.25,-9.06,1.88,-0.88,0.36,0.40,-0.24,2.50,5.60,1.56,0.00,-1.88,0.0000
146717176,-4.06,1.62,-0.25,-8.62,1.69,-0.75,0.38,0.37,-0.27,2.50,5.60,1.57,0.00,-1.69,0.0000
146727179,-4.06,1.75,-0.25,-8.19,1.25,-0.62,0.24,0.41,-0.25,2.50,5.60,1.57,0.00,-1.25,0.0000
146737183,-4.00,1.81,-0.25,-7.62,1.31,-0.38,0.37,0.45,-0.28,2.50,5.60,1.56,0.00,-1.31,0.0000
146747187,-4.00,1.88,-0.25,-6.88,0.62,-0.12,0.33,0.46,-0.29,2.50,5.60,1.56,0.00,-0.62,0.0000
146757192,-4.00,1.94,-0.25,-6.12,0.44,0.12,0.21,0.53,-0.33,2.50,5.60,1.57,0.00,-0.44,0.0000
146767197,-4.00,2.00,-0.25,-5.31,0.25,0.31,0.20,0.42,-0.36,2.50,5.60,1.56,0.00,-0.25,0.0000
146777201,-4.00,2.12,-0.25,-4.44,0.31,0.50,0.17,0.42,-0.32,2.50,5.60,1.56,0.00,-0.31,0.0000
146787205,-3.94,2.19,-0.25,-3.88,0.19,0.88,0.06,0.32,-0.30,2.50,5.60,1.57,0.00,-0.19,0.0000
146797207,-3.94,2.25,-0.25,-3.50,0.12,1.44,0.13,0.23,-0.25,2.50,5.60,1.56,0.00,-0.12,0.0000
146807422,-3.94,2.31,-0.19,-3.12,0.25,1.75,0.17,0.28,-0.26,2.50,5.60,1.55,0.00,-0.25,0.0000
146817426,-3.94,2.31,-0.19,-2.88,0.25,2.31,0.02,0.26,-0.27,2.50,5.60,1.56,0.00,-0.25,0.0000
146830119,-3.94,2.38,-0.19,-2.44,0.06,2.44,0.11,0.30,-0.27,2.50,5.60,1.56,0.00,-0.06,0.0000
146841474,-3.94,2.44,-0.12,-2.12,0.31,2.88,0.14,0.24,-0.30,2.50,5.60,1.56,0.00,-0.31,0.0000
146851477,-3.94,2.44,-0.12,-1.94,0.31,2.81,0.03,0.07,-0.23,2.50,5.60,1.56,0.00,-0.31,0.0000
146861481,-3.94,2.44,-0.06,-1.75,0.25,2.81,0.03,-0.03,-0.24,2.50,5.60,1.56,0.00,-0.25,0.0000
146873730,-3.94,2.50,-0.06,-1.62,0.12,2.38,-0.12,-0.01,-0.24,2.50,5.60,1.56,0.00,-0.12,0.000
146883734,-3.94,2.50,-0.06,-1.56,0.38,1.81,-0.09,-0.02,-0.26,2.50,5.60,1.56,0.00,-0.38,0.000
146896027,-3.94,2.50,-0.00,-1.88,0.62,1.38,-0.04,-0.11,-0.24,2.50,5.60,1.56,0.00,-0.62,0.000
146906030,-3.94,2.56,-0.00,-1.94,0.69,1.00,-0.12,-0.14,-0.23,2.50,5.60,1.56,0.00,-0.69,0.000
146916406,-3.94,2.56,-0.00,-2.19,0.81,0.94,-0.11,-0.13,-0.26,2.50,5.60,1.56,0.00,-0.81,0.000
146926410,-3.94,2.56,-0.00,-2.31,0.94,0.69,0.00,-0.10,-0.26,2.50,5.60,1.56,0.00,-0.94,0.000
146936413,-3.88,2.56,-0.00,-2.56,1.19,0.38,0.01,-0.19,-0.19,2.50,5.60,1.57,0.00,-1.19,0.000
146946417,-3.88,2.62,-0.00,-2.94,1.38,0.19,0.06,-0.26,-0.15,2.50,5.60,1.56,0.00,-1.38,0.000
146956421,-3.88,2.62,-0.00,-3.31,1.38,0.12,0.05,-0.14,-0.17,2.50,5.60,1.56,0.00,-1.38,0.000
146966424,-3.88,2.69,0.06,-3.50,1.44,-0.38,0.07,-0.18,-0.21,2.50,5.60,1.56,0.00,-1.44,0.000
146976427,-3.88,2.69,0.06,-3.94,1.44,-0.56,0.13,-0.00,-0.22,2.50,5.60,1.56,0.00,-1.44,0.000
146986431,-3.81,2.75,-0.00,-4.06,1.62,-0.81,0.18,0.13,-0.27,2.50,5.60,1.56,0.00,-1.62,0.000
146996434,-3.81,2.81,-0.00,-3.94,1.25,-1.00,0.11,0.05,-0.27,2.50,5.60,1.56,0.00,-1.25,0.000
147006437,-3.81,2.81,-0.00,-3.75,1.31,-1.31,0.08,0.09,-0.29,2.50,5.60,1.55,0.00,-1.31,0.000
147016440,-3.81,2.88,-0.00,-3.69,1.19,-1.44,0.31,0.25,-0.36,2.50,5.60,1.55,0.00,-1.19,0.000
147026444,-3.75,2.88,-0.00,-3.44,1.00,-1.50,0.21,0.28,-0.31,2.50,5.60,1.57,0.00,-1.00,0.000
147036448,-3.75,2.94,-0.00,-2.88,0.94,-1.31,0.20,0.33,-0.31,2.50,5.60,1.56,0.00,-0.94,0.000
147046452,-3.75,2.94,-0.06,-2.31,1.06,-1.12,0.36,0.29,-0.33,2.50,5.60,1.56,0.00,-1.06,0.000
147056457,-3.75,2.94,-0.06,-1.69,0.62,-0.75,0.25,0.47,-0.32,2.50,5.60,1.56,0.00,-0.62,0.000
147066461,-3.75,3.00,-0.06,-0.94,0.31,-0.25,0.19,0.67,-0.37,2.50,5.60,1.56,0.00,-0.31,0.000
147076464,-3.75,3.00,-0.06,-0.12,0.12,-0.06,0.25,0.80,-0.35,2.50,5.60,1.56,0.00,-0.12,0.000
147086468,-3.75,2.94,-0.06,1.19,-0.00,0.06,0.17,0.94,-0.34,2.50,5.60,1.56,0.00,0.00,0.0000
147096472,-3.75,2.94,-0.06,2.31,-0.31,0.25,0.35,1.18,-0.24,2.50,5.60,1.55,0.00,0.31,0.0000
147106893,-3.75,2.88,-0.06,3.81,-0.50,0.62,0.35,1.49,-0.25,2.50,5.60,1.57,0.00,0.50,0.0000
147116898,-3.75,2.81,-0.06,5.62,-0.81,0.81,0.29,1.87,-0.26,2.50,5.60,1.57,0.00,0.81,0.0000
147126901,-3.75,2.75,-0.06,8.06,-1.06,0.62,0.24,2.13,-0.22,2.50,5.60,1.56,0.00,1.06,0.0000
147136903,-3.75,2.69,-0.06,10.88,-1.31,-0.06,0.34,3.18,-0.22,2.50,5.60,1.57,0.00,1.31,0.000
147147543,-3.81,2.50,-0.06,14.62,-2.12,-0.81,0.31,3.66,-0.21,2.50,5.60,1.56,0.00,2.12,0.000
147157546,-3.81,2.31,-0.06,19.25,-2.50,-1.81,0.40,4.00,-0.21,2.50,5.60,1.56,0.00,2.50,0.000
147168290,-3.88,2.12,-0.12,24.06,-3.00,-2.38,0.68,4.26,-0.22,2.50,5.60,1.57,0.00,3.00,0.000
147178295,-3.88,1.81,-0.12,29.50,-3.69,-1.94,0.59,4.76,-0.37,2.50,5.60,1.57,0.00,3.69,0.000
147188622,-3.94,1.50,-0.19,35.44,-4.06,-1.00,0.64,5.06,-0.48,2.50,5.60,1.57,0.00,4.06,0.000
147198626,-4.00,1.06,-0.19,41.50,-4.31,0.56,0.60,5.46,-0.59,2.50,5.60,1.57,0.00,4.31,0.000
147208629,-4.00,0.62,-0.19,48.19,-4.44,1.50,0.44,5.89,-0.70,2.50,5.60,1.58,0.00,4.44,0.000
147218632,-4.06,0.06,-0.19,55.44,-4.12,2.38,0.32,6.27,-0.94,2.50,5.60,1.58,0.00,4.12,0.000
147229065,-4.06,-0.50,-0.19,63.75,-4.06,3.06,0.42,6.34,-1.07,2.50,5.60,1.60,0.00,4.06,0.000
147239069,-4.12,-1.19,-0.12,71.94,-3.50,3.88,0.02,6.31,-1.22,2.50,5.60,1.60,0.00,3.50,0.000
147249374,-4.12,-2.00,-0.12,80.38,-2.62,5.62,0.08,6.04,-1.39,2.50,5.60,1.61,0.00,2.62,0.000
147259378,-4.19,-2.81,-0.06,88.56,-1.44,8.88,0.33,5.25,-1.94,2.50,5.60,1.61,0.00,1.44,0.000
147269774,-4.12,-3.75,-0.00,96.19,-0.12,12.94,-0.02,4.63,-2.20,2.50,5.60,1.63,0.00,0.12,0.000
147279873,-4.12,-4.81,0.12,103.31,1.69,17.38,-0.40,3.89,-2.34,2.50,5.60,1.64,0.00,-1.69,-0.000
147292562,-4.06,-5.88,0.31,109.31,3.88,21.44,-0.25,3.19,-2.35,2.50,5.60,1.65,0.00,-3.88,-0.000
147302564,-4.00,-7.00,0.50,114.19,5.69,24.44,-0.85,1.32,-2.24,2.50,5.60,1.66,0.00,-5.69,-0.000
147312566,-3.88,-8.12,0.75,117.69,7.75,26.31,-1.08,0.49,-2.15,2.50,5.60,1.67,0.00,-7.75,-0.000
147323217,-3.75,-9.31,0.94,119.62,9.94,26.94,-0.77,-0.80,-2.13,2.50,5.60,1.69,0.00,-9.94,-0.000
147333706,-3.56,-10.50,1.19,120.06,11.56,27.19,-0.70,-2.26,-2.08,2.50,5.60,1.71,0.00,-11.56,-0.00
147344222,-3.44,-11.69,1.38,119.31,13.44,26.69,-0.70,-2.26,-2.08,2.50,5.60,1.74,0.00,-13.44,-0.00
147354225,-3.19,-12.81,1.56,117.12,15.50,25.75,-0.57,-3.01,-1.98,2.50,5.60,1.74,0.00,-15.50,-0.00
147364228,-3.00,-13.94,1.75,113.94,17.06,24.38,-0.72,-3.79,-1.70,2.50,5.60,1.76,0.00,-17.06,-0.00
147374233,-2.75,-15.00,1.94,109.75,18.31,23.06,-0.02,-4.16,-1.45,2.50,5.60,1.78,0.00,-18.31,-0.00
147384276,-2.50,-16.00,2.06,105.06,19.50,20.25,0.00,-4.08,-1.42,2.50,5.60,1.81,0.00,-19.50,-0.00
147394967,-2.31,-17.00,2.19,99.94,19.75,16.38,0.00,-4.08,-1.42,2.50,5.60,1.81,0.00,-19.75,-0.00
147404971,-2.06,-17.88,2.25,94.44,19.75,12.00,-0.09,-4.03,-1.46,2.50,5.60,1.82,0.00,-19.75,-0.00
147414975,-1.88,-18.75,2.25,89.31,19.62,7.06,0.25,-4.51,-1.34,2.50,5.60,1.84,0.00,-19.62,-0.000
147424977,-1.69,-19.56,2.25,83.44,19.25,2.56,0.14,-4.62,-1.23,2.50,5.60,1.85,0.00,-19.25,-0.000
147434982,-1.56,-20.31,2.19,77.19,18.44,-1.00,0.28,-4.75,-1.11,2.50,5.60,1.86,0.00,-18.44,0.000
147445374,-1.38,-21.00,2.12,70.44,17.75,-3.69,0.28,-4.75,-1.11,2.50,5.60,1.87,0.00,-17.75,0.000
147455377,-1.25,-21.62,2.06,63.50,16.75,-5.75,0.53,-4.29,-1.07,2.50,5.60,1.87,0.00,-16.75,0.000
147465380,-1.12,-22.12,1.94,56.38,15.69,-7.44,0.81,-3.26,-1.10,2.50,5.60,1.88,0.00,-15.69,0.000
147475395,-1.06,-22.62,1.81,50.19,14.50,-8.50,1.02,-2.67,-1.16,2.50,5.60,1.89,0.00,-14.50,0.000
147485399,-0.94,-23.06,1.69,44.62,13.00,-9.19,1.05,-2.22,-1.21,2.50,5.60,1.89,0.00,-13.00,0.000
147497412,-0.88,-23.44,1.56,36.94,8.94,-9.62,1.27,-2.23,-1.13,2.50,5.60,1.90,0.00,-8.94,0.0000
147507415,-0.88,-23.81,1.44,33.50,7.44,-8.69,1.20,-2.18,-1.08,2.50,5.60,1.90,0.00,-7.44,0.0000
147518546,-0.81,-24.44,1.25,30.25,5.44,-7.38,1.11,-2.39,-0.99,2.50,5.60,1.91,0.00,-5.44,0.0000
147528550,-0.81,-24.69,1.19,26.50,3.44,-5.31,0.92,-2.37,-0.92,2.50,5.60,1.91,0.00,-3.44,0.0000
147538555,-0.81,-24.88,1.19,22.56,1.81,-3.50,0.98,-2.32,-0.83,2.50,5.60,1.91,0.00,-1.81,0.0000
147548557,-0.62,-25.50,1.19,18.69,-0.12,-1.81,0.81,-2.02,-0.79,2.50,5.60,1.91,0.00,0.12,0.0000
147558560,-0.69,-25.62,1.19,15.25,-1.81,0.00,0.75,-1.92,-0.74,2.50,5.60,1.91,0.00,1.81,0.0000
147568562,-0.69,-25.75,1.19,12.00,-3.69,1.25,0.86,-2.08,-0.50,2.50,5.60,1.91,0.00,3.69,-0.0000
147578567,-0.75,-25.81,1.25,8.94,-5.56,2.00,0.72,-2.24,-0.45,2.50,5.60,1.91,0.00,5.56,-0.0000
147588571,-0.75,-25.88,1.31,5.75,-6.94,3.00,0.67,-2.37,-0.32,2.50,5.60,1.91,0.00,6.94,-0.0000
147598573,-0.81,-25.94,1.31,2.31,-8.50,3.62,0.73,-2.41,-0.24,2.50,5.60,1.91,0.00,8.50,-0.0000
147608577,-0.88,-25.88,1.38,-1.44,-9.94,3.94,0.51,-2.30,-0.19,2.50,5.60,1.91,0.00,9.94,-0.0000
147618581,-1.00,-25.88,1.44,-4.81,-11.00,3.69,0.51,-2.05,-0.21,2.50,5.60,1.91,0.00,11.00,-0.000
147628584,-1.06,-25.75,1.50,-8.19,-12.06,3.31,0.59,-1.86,-0.20,2.50,5.60,1.90,0.00,12.06,-0.000
147638588,-1.19,-25.69,1.56,-10.88,-13.12,2.44,0.57,-1.78,-0.17,2.50,5.60,1.90,0.00,13.12,-0.00
147648590,-1.19,-25.69,1.56,-13.12,-13.88,1.75,0.39,-1.46,-0.18,2.50,5.60,1.89,0.00,13.88,-0.00
147658594,-1.44,-25.38,1.69,-15.19,-14.38,1.12,0.30,-1.40,-0.19,2.50,5.60,1.88,0.00,14.38,-0.00
147668836,-1.56,-25.25,1.69,-16.62,-15.00,0.81,0.12,-1.56,-0.18,2.50,5.60,1.88,0.00,15.00,-0.00
147678840,-1.69,-25.06,1.75,-18.00,-15.25,0.62,-0.15,-1.70,-0.10,2.50,5.60,1.88,0.00,15.25,-0.00
147688842,-1.81,-24.88,1.81,-19.81,-14.75,0.38,-0.51,-1.90,-0.06,2.50,5.60,1.88,0.00,14.75,-0.00
147698845,-1.81,-24.88,1.81,-22.00,-14.44,-0.19,-0.89,-1.81,-0.07,2.50,5.60,1.87,0.00,14.44,0.00
147708848,-2.06,-24.44,1.88,-24.38,-14.06,-0.75,-0.82,-1.76,-0.11,2.50,5.60,1.86,0.00,14.06,0.00
147718853,-2.19,-24.19,1.88,-26.69,-13.12,-1.62,-0.78,-1.52,-0.20,2.50,5.60,1.85,0.00,13.12,0.00
147729394,-2.31,-23.88,1.88,-28.81,-12.38,-1.88,-1.01,-1.21,-0.16,2.50,5.60,1.85,0.00,12.38,0.00
147739396,-2.44,-23.62,1.88,-30.50,-11.44,-2.00,-0.92,-1.20,-0.19,2.50,5.60,1.86,0.00,11.44,0.00
147750238,-2.50,-23.31,1.88,-32.12,-10.25,-1.94,-0.83,-1.29,-0.24,2.50,5.60,1.84,0.00,10.25,0.00
147760241,-2.56,-22.94,1.94,-33.62,-8.81,-1.06,-1.03,-1.37,-0.29,2.50,5.60,1.84,0.00,8.81,0.000
147770248,-2.62,-22.62,1.94,-35.25,-7.38,-0.31,-1.26,-1.49,-0.26,2.50,5.60,1.83,0.00,7.38,0.000
147780251,-2.69,-22.25,1.94,-37.31,-5.94,0.25,-1.06,-1.34,-0.34,2.50,5.60,1.81,0.00,5.94,-0.000
147791638,-2.75,-21.88,2.00,-39.50,-4.50,0.69,-1.14,-1.54,-0.31,2.50,5.60,1.81,0.00,4.50,-0.000
147801642,-2.75,-21.50,2.00,-41.25,-3.19,0.81,-1.26,-1.44,-0.33,2.50,5.60,1.81,0.00,3.19,-0.000
147812298,-2.81,-21.06,2.00,-43.44,-1.75,0.44,-0.59,-0.82,-0.40,2.50,5.60,1.78,0.00,1.75,-0.000
147822590,-2.81,-20.62,2.06,-45.12,-0.69,-0.38,-0.54,-0.69,-0.47,2.50,5.60,1.77,0.00,0.69,0.000
