Time,sensPitch,sensRoll,sensYaw,xGyro,yGyro,ZGyro,xAcc,yAcc,zAcc,latitude,longitude,alt,cP,cR,cYI
232250613,-9.56,7.62,2.62,6.06,2.94,2.69,-1.14,0.81,-0.64,2.50,5.60,1.08,0.00,0.00,-2.62
232260616,-9.50,7.56,2.62,6.56,5.50,2.62,-1.05,-0.20,-0.28,2.50,5.60,1.09,0.00,0.00,-2.62
232270620,-9.44,7.50,2.69,6.88,7.69,2.50,-1.52,1.25,-0.36,2.50,5.60,1.10,0.00,0.00,-2.69
232281018,-9.38,7.44,2.69,7.62,10.06,1.81,-0.83,0.18,-0.15,2.50,5.60,1.10,0.00,0.00,-2.69
232291020,-9.31,7.38,2.69,8.69,12.31,1.62,-0.78,0.31,-0.12,2.50,5.60,1.11,0.00,0.00,-2.69
232301333,-9.19,7.25,2.75,9.19,14.19,1.81,-1.11,0.95,-0.24,2.50,5.60,1.11,0.00,0.00,-2.75
232311337,-9.06,7.19,2.75,10.12,15.94,0.69,-0.61,0.07,-0.08,2.50,5.60,1.10,0.00,0.00,-2.75
232321920,-8.75,6.94,2.75,10.94,17.00,-1.44,-0.37,0.39,0.00,2.50,5.60,1.11,0.00,0.00,-2.75
232331924,-8.75,6.94,2.75,11.50,17.56,-3.44,-0.39,0.13,0.19,2.50,5.60,1.12,0.00,0.00,-2.75
232341928,-8.56,6.88,2.69,11.81,18.06,-5.00,0.01,-0.22,0.27,2.50,5.60,1.13,0.00,0.00,-2.69
232351931,-8.38,6.75,2.69,12.06,18.19,-6.31,0.63,-0.47,0.46,2.50,5.60,1.12,0.00,0.00,-2.69
232361935,-8.19,6.62,2.62,11.31,18.06,-7.06,0.29,-0.34,0.42,2.50,5.60,1.12,0.00,0.00,-2.62
232371937,-8.00,6.50,2.50,10.50,18.19,-6.81,0.62,0.08,0.31,2.50,5.60,1.13,0.00,0.00,-2.50
232382404,-7.81,6.44,2.44,10.25,18.38,-6.75,0.87,-0.08,0.32,2.50,5.60,1.14,0.00,0.00,-2.44
232392407,-7.62,6.31,2.38,9.56,18.12,-6.75,0.35,-0.04,0.24,2.50,5.60,1.15,0.00,0.00,-2.38
232403239,-7.31,6.19,2.31,8.56,17.94,-6.19,0.89,0.12,0.19,2.50,5.60,1.15,0.00,0.00,-2.31
232413242,-7.12,6.12,2.25,7.94,18.19,-4.50,1.07,-0.37,0.34,2.50,5.60,1.20,0.00,0.00,-2.25
232423248,-6.94,6.06,2.25,7.06,18.06,-2.44,0.74,0.00,0.38,2.50,5.60,1.20,0.00,0.00,-2.25
232433252,-6.75,6.00,2.25,6.31,17.75,-0.56,1.01,0.42,0.55,2.50,5.60,1.20,0.00,0.00,-2.25
232443254,-6.56,5.94,2.25,6.00,17.81,1.25,0.89,0.24,0.58,2.50,5.60,1.21,0.00,0.00,-2.25
232453257,-6.44,5.88,2.25,5.62,17.12,2.56,0.18,0.33,0.61,2.50,5.60,1.21,0.00,0.00,-2.25
232463260,-6.25,5.81,2.31,5.12,16.62,1.75,-0.07,0.36,0.54,2.50,5.60,1.21,0.00,0.00,-2.31
232473265,-6.12,5.75,2.31,4.75,16.19,-0.62,0.95,0.19,0.43,2.50,5.60,1.22,0.00,0.00,-2.31
232483268,-5.94,5.69,2.25,4.44,15.44,-3.38,0.08,0.04,0.37,2.50,5.60,1.23,0.00,0.00,-2.25
232493271,-5.81,5.69,2.19,4.19,14.38,-6.31,0.21,0.05,0.27,2.50,5.60,1.23,0.00,0.00,-2.19
232503274,-5.69,5.62,2.12,3.50,14.00,-8.81,1.01,0.12,0.13,2.50,5.60,1.24,0.00,0.00,-2.12
232513278,-5.56,5.62,2.06,3.12,13.06,-9.56,0.30,0.82,0.04,2.50,5.60,1.27,0.00,0.00,-2.06
232523281,-5.38,5.62,1.94,2.56,12.38,-9.25,-0.34,0.85,-0.11,2.50,5.60,1.28,0.00,0.00,-1.94
232533294,-5.38,5.62,1.94,2.81,12.12,-8.88,0.34,0.55,-0.12,2.50,5.60,1.29,0.00,0.00,-1.94
232543296,-5.12,5.56,1.81,2.81,12.12,-8.88,0.43,0.31,-0.29,2.50,5.60,1.29,0.00,0.00,-1.81
232553299,-5.00,5.50,1.75,3.75,11.88,-7.69,0.19,0.55,-0.50,2.50,5.60,1.29,0.00,0.00,-1.75
232563302,-4.94,5.50,1.69,4.19,11.88,-7.56,0.37,0.51,-0.60,2.50,5.60,1.29,0.00,0.00,-1.69
232573304,-4.81,5.44,1.62,4.88,11.31,-6.81,1.17,0.62,-0.63,2.50,5.60,1.31,0.00,0.00,-1.62
232583307,-4.81,5.44,1.62,5.94,10.94,-5.88,0.50,0.81,-1.00,2.50,5.60,1.31,0.00,0.00,-1.62
232593309,-4.69,5.38,1.56,7.06,10.88,-5.25,0.13,0.42,-0.92,2.50,5.60,1.32,0.00,0.00,-1.56
232603312,-4.44,5.25,1.44,7.88,10.50,-4.56,0.22,0.83,-1.02,2.50,5.60,1.33,0.00,0.00,-1.44
232613315,-4.38,5.19,1.44,9.44,10.12,-4.06,0.10,1.17,-1.11,2.50,5.60,1.31,0.00,0.00,-1.44
232623318,-4.25,5.06,1.38,11.50,9.81,-3.88,-0.08,0.56,-1.12,2.50,5.60,1.32,0.00,0.00,-1.38
232633322,-4.25,5.06,1.38,12.88,9.81,-3.88,-0.31,0.64,-1.28,2.50,5.60,1.33,0.00,0.00,-1.38
232643325,-4.19,4.94,1.31,14.25,9.94,-4.00,0.02,0.67,-1.41,2.50,5.60,1.34,0.00,0.00,-1.31
232653852,-4.00,4.62,1.25,15.81,9.69,-4.00,0.27,0.50,-1.41,2.50,5.60,1.35,0.00,0.00,-1.25
232663857,-3.88,4.50,1.19,16.75,9.38,-4.31,0.13,0.79,-1.71,2.50,5.60,1.35,0.00,0.00,-1.19
232674102,-3.81,4.31,1.19,18.06,9.31,-4.94,0.34,0.70,-1.73,2.50,5.60,1.35,0.00,0.00,-1.19
232684106,-3.81,4.31,1.19,19.12,8.75,-5.06,0.46,0.29,-1.63,2.50,5.60,1.35,0.00,0.00,-1.19
232695500,-3.62,3.94,1.06,19.94,8.00,-5.00,0.16,0.31,-1.52,2.50,5.60,1.36,0.00,0.00,-1.06
232705503,-3.56,3.75,1.00,20.69,7.38,-4.94,0.41,0.40,-1.52,2.50,5.60,1.35,0.00,0.00,-1.00
232717370,-3.50,3.56,0.94,21.62,6.50,-5.00,0.58,-0.03,-1.50,2.50,5.60,1.36,0.00,0.00,-0.94
232727825,-3.44,3.31,0.88,21.81,5.56,-5.75,0.43,-0.19,-1.55,2.50,5.60,1.37,0.00,0.00,-0.88
232737828,-3.38,3.12,0.81,21.38,4.62,-8.06,0.71,-0.47,-1.65,2.50,5.60,1.38,0.00,0.00,-0.81
232747832,-3.31,2.94,0.69,20.38,2.88,-10.00,1.00,-1.12,-1.57,2.50,5.60,1.38,0.00,0.00,-0.69
232758671,-3.31,2.75,0.56,18.94,1.38,-11.69,0.77,-1.28,-1.51,2.50,5.60,1.39,0.00,0.00,-0.56
232769932,-3.31,2.62,0.44,17.00,0.31,-12.06,0.75,-1.43,-1.44,2.50,5.60,1.39,0.00,0.00,-0.44
232780902,-3.31,2.44,0.38,15.06,-0.69,-11.38,1.18,-1.10,-1.35,2.50,5.60,1.40,0.00,0.00,-0.38
232790905,-3.31,2.31,0.25,13.62,-1.88,-9.38,0.99,-0.73,-1.05,2.50,5.60,1.40,0.00,0.00,-0.25
232800909,-3.38,2.25,0.19,12.50,-3.06,-7.81,1.30,-0.15,-1.19,2.50,5.60,1.40,0.00,0.00,-0.19
232811129,-3.38,2.12,0.12,12.00,-4.12,-7.19,1.31,-0.18,-1.16,2.50,5.60,1.41,0.00,0.00,-0.12
232821132,-3.44,2.00,0.00,11.69,-5.69,-7.12,0.59,-0.71,-1.13,2.50,5.60,1.41,0.00,0.00,0.00
232831470,-3.50,1.88,-0.06,11.06,-6.75,-7.06,0.59,-0.71,-1.13,2.50,5.60,1.41,0.00,0.00,0.06
232841475,-3.56,1.81,-0.12,10.12,-7.62,-8.06,0.82,-0.83,-1.25,2.50,5.60,1.41,0.00,0.00,0.12
232851477,-3.62,1.75,-0.25,8.88,-8.44,-9.75,0.31,-0.92,-1.37,2.50,5.60,1.42,0.00,0.00,0.25
232861658,-3.75,1.69,-0.38,7.44,-9.31,-11.69,-0.11,-0.31,-1.26,2.50,5.60,1.42,0.00,0.00,0.38
232871727,-3.81,1.62,-0.50,6.31,-9.31,-13.81,-0.27,-0.36,-1.17,2.50,5.60,1.43,0.00,0.00,0.50
232882911,-3.94,1.56,-0.62,5.75,-9.19,-16.69,-0.31,-0.04,-1.18,2.50,5.60,1.43,0.00,0.00,0.62
232892913,-4.00,1.50,-0.81,5.06,-8.69,-19.00,-0.55,-0.32,-1.09,2.50,5.60,1.43,0.00,0.00,0.81
232902917,-4.06,1.50,-1.00,3.19,-6.50,-19.81,-0.63,-1.56,-0.80,2.50,5.60,1.43,0.00,0.00,1.00
232912920,-4.12,1.50,-1.25,0.88,-5.00,-18.94,-0.20,-1.55,-0.86,2.50,5.60,1.44,0.00,0.00,1.25
232922923,-4.19,1.50,-1.44,-1.62,-3.06,-17.81,-0.31,-1.55,-0.86,2.50,5.60,1.44,0.00,0.00,1.44
232933861,-4.19,1.50,-1.56,-3.62,-1.00,-16.19,-0.88,-1.16,-0.86,2.50,5.60,1.44,0.00,0.00,1.56
232943865,-4.19,1.56,-1.75,-5.06,1.44,-14.94,-1.06,-0.42,-0.91,2.50,5.60,1.45,0.00,0.00,1.75
232953868,-4.19,1.62,-1.88,-6.12,3.62,-14.00,-0.95,-0.49,-0.83,2.50,5.60,1.45,0.00,0.00,1.88
232963870,-4.12,1.69,-2.00,-7.12,5.56,-12.75,-1.15,-0.79,-0.76,2.50,5.60,1.44,0.00,0.00,2.00
232974453,-4.06,1.75,-2.12,-8.38,7.94,-11.50,-1.03,-0.77,-0.73,2.50,5.60,1.44,0.00,0.00,2.12
232984458,-4.00,1.88,-2.25,-9.38,9.62,-10.69,-0.27,-0.57,-0.79,2.50,5.60,1.44,0.00,0.00,2.25
232995985,-3.81,2.06,-2.44,-10.38,11.19,-9.00,-0.46,-0.56,-0.77,2.50,5.60,1.45,0.00,0.00,2.44
233005989,-3.69,2.19,-2.50,-11.25,12.88,-6.56,-0.68,-0.03,-0.83,2.50,5.60,1.45,0.00,0.00,2.50
233016018,-3.50,2.31,-2.50,-11.25,14.19,-4.50,-0.68,0.18,-0.70,2.50,5.60,1.44,0.00,0.00,2.50
233026021,-3.38,2.38,-2.56,-11.31,15.25,-2.50,-0.76,-0.09,-0.24,2.50,5.60,1.44,0.00,0.00,2.56
233036025,-3.25,2.50,-2.50,-11.50,15.94,-0.56,-0.72,0.22,-0.18,2.50,5.60,1.45,0.00,0.00,2.50
233046030,-3.06,2.62,-2.50,-11.38,17.00,1.25,-0.38,0.53,0.01,2.50,5.60,1.45,0.00,0.00,2.500
233056034,-2.88,2.69,-2.50,-10.69,17.00,2.69,-0.11,0.36,0.15,2.50,5.60,1.45,0.00,0.00,2.500
233066037,-2.75,2.81,-2.44,-9.75,16.81,3.62,-0.01,0.82,-0.05,2.50,5.60,1.45,0.00,0.00,2.440
233076049,-2.56,2.88,-2.38,-8.56,16.25,3.75,0.11,1.51,-0.35,2.50,5.60,1.45,0.00,0.00,2.380
233086053,-2.44,2.94,-2.38,-6.19,15.50,3.31,0.01,0.68,-0.17,2.50,5.60,1.45,0.00,0.00,2.380
233096056,-2.31,3.00,-2.31,-5.06,14.69,3.69,0.32,-0.52,0.43,2.50,5.60,1.46,0.00,0.00,2.310
233106058,-2.19,3.06,-2.25,-4.62,13.62,4.81,0.42,0.72,0.19,2.50,5.60,1.46,0.00,0.00,2.250
233116063,-2.06,3.06,-2.19,-3.06,12.56,5.31,0.29,0.04,0.35,2.50,5.60,1.46,0.00,0.00,2.190
233126066,-1.94,3.06,-2.12,-2.12,11.56,5.75,0.09,0.44,0.18,2.50,5.60,1.47,0.00,0.00,2.120
233136087,-1.81,3.06,-2.06,-0.19,11.00,5.19,0.24,0.97,-0.07,2.50,5.60,1.47,0.00,0.00,2.060
233146091,-1.75,3.06,-2.06,1.81,10.12,4.38,-0.03,-0.16,0.03,2.50,5.60,1.48,0.00,0.00,2.060
233156095,-1.62,3.06,-2.00,2.62,9.56,3.75,-0.39,0.01,-0.09,2.50,5.60,1.48,0.00,0.00,2.000
233166100,-1.56,3.00,-2.00,3.50,9.31,2.88,-0.45,0.33,-0.16,2.50,5.60,1.47,0.00,0.00,2.000
233177066,-1.44,2.94,-1.94,4.44,9.25,1.94,-0.69,0.07,-0.06,2.50,5.60,1.47,0.00,0.00,1.940
233187070,-1.38,2.94,-1.94,4.88,9.25,0.81,-0.80,-0.22,0.08,2.50,5.60,1.48,0.00,0.00,1.940
233197201,-1.31,2.88,-1.94,5.00,9.75,-0.62,-0.48,-0.31,0.10,2.50,5.60,1.48,0.00,0.00,1.940
233207205,-1.19,2.81,-1.94,5.00,10.06,-1.38,-0.39,-0.82,0.23,2.50,5.60,1.48,0.00,0.00,1.940
233217208,-1.06,2.75,-2.00,4.06,10.06,-1.44,-0.23,-0.82,0.20,2.50,5.60,1.48,0.00,0.00,2.000
233227212,-1.00,2.75,-2.00,3.25,9.94,-1.62,0.17,-0.57,-0.06,2.50,5.60,1.49,0.00,0.00,2.000
233238469,-0.88,2.69,-2.00,2.69,9.38,-2.25,0.15,-0.70,-0.13,2.50,5.60,1.49,0.00,0.00,2.000
233248472,-0.81,2.69,-2.06,1.62,9.06,-2.75,0.35,-0.78,-0.24,2.50,5.60,1.50,0.00,0.00,2.060
233258476,-0.75,2.69,-2.06,0.62,8.00,-2.75,0.70,-0.29,-0.29,2.50,5.60,1.50,0.00,0.00,2.060
233268480,-0.69,2.69,-2.06,0.50,6.44,-1.94,0.83,-0.26,-0.22,2.50,5.60,1.50,0.00,0.00,2.060
233278484,-0.62,2.69,-2.06,0.62,5.38,-1.00,1.10,-0.13,-0.31,2.50,5.60,1.50,0.00,0.00,2.060
233288487,-0.56,2.69,-2.06,0.38,3.88,0.88,1.20,0.21,-0.55,2.50,5.60,1.51,0.00,0.00,2.0660
233298490,-0.56,2.69,-2.06,1.00,2.25,2.31,1.04,0.13,-0.70,2.50,5.60,1.50,0.00,0.00,2.0660
233308494,-0.56,2.69,-2.00,1.38,0.56,3.19,1.11,0.03,-0.90,2.50,5.60,1.51,0.00,0.00,2.0060
233318498,-0.56,2.62,-2.00,1.56,-1.12,4.62,1.00,0.34,-0.99,2.50,5.60,1.51,0.00,0.00,2.000
233328501,-0.62,2.62,-1.94,1.94,-2.62,5.69,0.38,0.26,-1.03,2.50,5.60,1.52,0.00,0.00,1.940
233338505,-0.62,2.62,-1.88,2.06,-4.12,5.69,0.04,-0.12,-0.97,2.50,5.60,1.53,0.00,0.00,1.880
233348509,-0.69,2.56,-1.81,1.75,-4.88,5.25,-0.01,-0.35,-0.90,2.50,5.60,1.51,0.00,0.00,1.810
233358513,-0.75,2.56,-1.75,1.44,-5.56,4.44,-0.24,-0.46,-0.88,2.50,5.60,1.51,0.00,0.00,1.750
233368515,-0.81,2.56,-1.75,0.75,-5.88,3.06,-0.20,-0.68,-0.85,2.50,5.60,1.51,0.00,0.00,1.750
233378517,-0.88,2.56,-1.75,-0.12,-5.94,2.06,0.05,-0.43,-0.91,2.50,5.60,1.51,0.00,0.00,1.750
233388520,-0.94,2.56,-1.69,-0.31,-6.25,1.50,-0.16,-0.35,-0.97,2.50,5.60,1.51,0.00,0.00,1.69
233398526,-1.00,2.56,-1.69,-0.31,-5.94,1.38,-0.17,-0.32,-1.05,2.50,5.60,1.51,0.00,0.00,1.69
233408532,-1.06,2.56,-1.69,-0.56,-6.12,1.19,-0.14,-0.11,-1.17,2.50,5.60,1.52,0.00,0.00,1.69
233418535,-1.12,2.56,-1.69,-0.62,-6.00,0.94,-0.61,-0.18,-1.22,2.50,5.60,1.52,0.00,0.00,1.69
233428538,-1.19,2.56,-1.69,-0.69,-6.06,-0.12,-0.69,-0.26,-1.11,2.50,5.60,1.52,0.00,0.00,1.69
233438541,-1.25,2.56,-1.69,-1.00,-6.06,-1.75,-0.64,-0.06,-1.12,2.50,5.60,1.52,0.00,0.00,1.69
233450224,-1.25,2.62,-1.75,-1.19,-6.12,-3.50,-0.67,0.07,-1.09,2.50,5.60,1.52,0.00,0.00,1.75
233460604,-1.31,2.62,-1.81,-0.94,-6.12,-5.38,-0.74,0.01,-1.02,2.50,5.60,1.53,0.00,0.00,1.81
233474056,-1.38,2.62,-1.88,-1.06,-6.00,-6.38,-0.46,0.18,-1.09,2.50,5.60,1.52,0.00,0.00,1.88
233484415,-1.44,2.62,-1.94,-1.12,-5.62,-6.00,-0.46,0.18,-1.09,2.50,5.60,1.53,0.00,0.00,1.94
233494419,-1.50,2.62,-2.00,-0.69,-5.19,-5.44,-0.36,0.16,-1.03,2.50,5.60,1.53,0.00,0.00,2.00
233504423,-1.56,2.62,-2.00,-0.75,-4.44,-4.62,-0.59,-0.11,-0.82,2.50,5.60,1.51,0.00,0.00,2.00
233515680,-1.56,2.69,-2.06,-0.75,-3.19,-4.00,-0.50,-0.13,-0.72,2.50,5.60,1.53,0.00,0.00,2.06
233525684,-1.62,2.69,-2.12,-1.50,-2.69,-4.44,-0.19,-0.08,-0.63,2.50,5.60,1.53,0.00,0.00,2.12
233535688,-1.62,2.69,-2.12,-1.50,-2.69,-4.44,-0.19,-0.08,-0.63,2.50,5.60,1.52,0.00,0.00,2.12
233545690,-1.62,2.69,-2.19,-1.88,-2.19,-4.56,-0.37,-0.24,-0.59,2.50,5.60,1.53,0.00,0.00,2.19
233555694,-1.69,2.75,-2.25,-2.50,-1.12,-3.69,0.10,-0.03,-0.60,2.50,5.60,1.52,0.00,0.00,2.25
233565697,-1.69,2.75,-2.25,-2.75,-0.69,-3.00,-0.01,-0.12,-0.51,2.50,5.60,1.52,0.00,0.00,2.25
233575700,-1.69,2.81,-2.31,-2.94,-0.50,-2.19,0.15,-0.12,-0.31,2.50,5.60,1.53,0.00,0.00,2.31
233585703,-1.69,2.81,-2.31,-2.94,-0.50,-2.19,0.15,-0.12,-0.31,2.50,5.60,1.53,0.00,0.00,2.31
233595706,-1.69,2.81,-2.31,-3.00,-0.31,-1.31,0.16,-0.23,-0.23,2.50,5.60,1.52,0.00,0.00,2.31
233605710,-1.69,2.88,-2.31,-3.75,-0.56,-0.50,-0.07,-0.23,-0.11,2.50,5.60,1.52,0.00,0.00,2.31
233615712,-1.69,2.94,-2.31,-3.75,-0.56,-0.50,-0.04,-0.41,-0.03,2.50,5.60,1.53,0.00,0.00,2.31
233626052,-1.69,2.94,-2.31,-4.50,-0.31,-0.31,-0.13,-0.25,-0.07,2.50,5.60,1.52,0.00,0.00,2.31
233636055,-1.69,3.00,-2.31,-4.50,-0.31,-0.31,-0.13,-0.25,-0.07,2.50,5.60,1.53,0.00,0.00,2.31
233646059,-1.69,3.06,-2.31,-5.00,-0.38,-0.44,-0.10,-0.10,-0.09,2.50,5.60,1.53,0.00,0.00,2.31
233656063,-1.69,3.06,-2.31,-5.31,-0.12,-0.25,-0.23,-0.29,0.03,2.50,5.60,1.52,0.00,0.00,2.31
233668104,-1.69,3.19,-2.31,-5.69,-0.06,-0.50,-0.27,-0.31,0.08,2.50,5.60,1.53,0.00,0.00,2.31
233678108,-1.69,3.19,-2.31,-5.94,-0.12,-1.44,-0.23,-0.39,0.08,2.50,5.60,1.52,0.00,0.00,2.31
233688346,-1.75,3.25,-2.38,-6.06,-0.31,-2.25,-0.33,-0.26,0.09,2.50,5.60,1.52,0.00,0.00,2.38
233698350,-1.75,3.31,-2.38,-6.19,-0.44,-3.88,-0.56,-0.15,0.02,2.50,5.60,1.52,0.00,0.00,2.38
233708598,-1.75,3.38,-2.44,-6.31,-0.19,-5.12,-0.42,-0.14,-0.03,2.50,5.60,1.53,0.00,0.00,2.44
233718601,-1.75,3.44,-2.50,-6.44,-0.19,-6.25,-0.53,-0.13,-0.07,2.50,5.60,1.53,0.00,0.00,2.50
233728605,-1.69,3.50,-2.56,-6.38,0.06,-6.62,-0.61,-0.13,-0.12,2.50,5.60,1.52,0.00,0.00,2.56
233738608,-1.69,3.56,-2.62,-6.50,0.88,-7.12,-0.28,0.14,-0.25,2.50,5.60,1.53,0.00,0.00,2.62
233748610,-1.69,3.62,-2.69,-6.19,1.25,-7.12,-0.34,0.23,-0.29,2.50,5.60,1.53,0.00,0.00,2.69
233758613,-1.69,3.69,-2.75,-5.69,1.69,-7.12,-0.32,0.33,-0.39,2.50,5.60,1.53,0.00,0.00,2.75
233768616,-1.62,3.69,-2.81,-5.00,1.69,-7.31,-0.09,0.54,-0.40,2.50,5.60,1.52,0.00,0.00,2.81
233778620,-1.62,3.75,-2.94,-4.00,2.06,-6.75,-0.06,0.70,-0.41,2.50,5.60,1.52,0.00,0.00,2.94
233788624,-1.56,3.81,-2.94,-2.88,2.38,-6.19,0.02,0.61,-0.39,2.50,5.60,1.52,0.00,0.00,2.94
233798628,-1.56,3.81,-3.00,-1.88,2.31,-5.19,0.32,0.42,-0.31,2.50,5.60,1.53,0.00,0.00,3.00
233808632,-1.56,3.81,-3.06,-1.44,1.88,-4.00,0.25,0.37,-0.34,2.50,5.60,1.52,0.00,0.00,3.06
233818635,-1.50,3.81,-3.06,-1.06,2.06,-2.50,0.23,0.47,-0.41,2.50,5.60,1.52,0.00,0.00,3.06
233828637,-1.50,3.81,-3.06,-0.62,1.81,-1.00,0.35,0.59,-0.56,2.50,5.60,1.53,0.00,0.00,3.06
233838641,-1.50,3.81,-3.06,0.06,1.81,0.38,0.42,0.56,-0.58,2.50,5.60,1.53,0.00,0.00,3.066
233848646,-1.50,3.81,-3.06,0.69,1.62,1.94,0.29,0.83,-0.63,2.50,5.60,1.53,0.00,0.00,3.066
233858651,-1.50,3.81,-3.06,1.88,1.38,3.44,0.45,0.60,-0.54,2.50,5.60,1.52,0.00,0.00,3.066
233868654,-1.38,3.94,-3.06,2.81,1.06,4.94,0.39,0.61,-0.57,2.50,5.60,1.53,0.00,0.00,3.066
233878833,-1.31,4.00,-3.00,3.62,0.75,6.00,0.28,0.56,-0.53,2.50,5.60,1.52,0.00,0.00,3.006
233888837,-1.25,4.06,-2.94,4.31,0.25,6.62,0.27,0.43,-0.46,2.50,5.60,1.53,0.00,0.00,2.946
233899463,-1.25,4.06,-2.81,5.00,0.12,6.75,0.02,0.16,-0.44,2.50,5.60,1.53,0.00,0.00,2.816
233909468,-1.25,4.06,-2.75,5.44,-0.25,6.44,0.03,0.07,-0.48,2.50,5.60,1.53,0.00,0.00,2.75
233919472,-1.25,4.00,-2.69,5.38,-0.50,5.75,0.19,0.12,-0.49,2.50,5.60,1.53,0.00,0.00,2.69
233929475,-1.25,3.94,-2.62,5.75,-1.00,5.44,0.20,0.21,-0.48,2.50,5.60,1.52,0.00,0.00,2.62
233939765,-1.25,3.88,-2.56,6.31,-1.12,5.31,0.19,0.04,-0.36,2.50,5.60,1.53,0.00,0.00,2.56
233949769,-1.31,3.81,-2.56,6.62,-1.50,5.31,0.31,-0.09,-0.35,2.50,5.60,1.53,0.00,0.00,2.56
233960478,-1.31,3.75,-2.50,6.88,-1.94,5.06,0.25,-0.26,-0.27,2.50,5.60,1.53,0.00,0.00,2.50
233970480,-1.31,3.69,-2.44,6.69,-2.25,5.06,0.17,-0.50,-0.23,2.50,5.60,1.53,0.00,0.00,2.44
233980485,-1.38,3.62,-2.38,6.38,-2.50,5.25,0.18,-0.75,-0.08,2.50,5.60,1.53,0.00,0.00,2.38
233992385,-1.38,3.56,-2.31,5.50,-3.19,5.31,0.28,-0.87,-0.02,2.50,5.60,1.53,0.00,0.00,2.31
234002388,-1.44,3.50,-2.31,4.31,-3.38,5.00,0.03,-0.84,-0.05,2.50,5.60,1.52,0.00,0.00,2.31
234013577,-1.44,3.50,-2.25,3.31,-3.56,4.19,0.18,-0.73,-0.07,2.50,5.60,1.53,0.00,0.00,2.25
234024598,-1.50,3.44,-2.25,2.31,-4.00,3.00,0.06,-0.68,-0.01,2.50,5.60,1.53,0.00,0.00,2.25
234036391,-1.56,3.44,-2.19,1.62,-4.38,2.19,0.18,-0.61,0.00,2.50,5.60,1.53,0.00,0.00,2.19
234046394,-1.56,3.31,-2.19,0.94,-4.88,1.31,0.26,-0.57,0.03,2.50,5.60,1.53,0.00,0.00,2.19
234056956,-1.56,3.25,-2.19,0.25,-5.25,0.75,0.15,-0.74,0.22,2.50,5.60,1.53,0.00,0.00,2.19
234066959,-1.62,3.19,-2.19,-0.31,-5.69,0.81,0.22,-0.64,0.21,2.50,5.60,1.52,0.00,0.00,2.19
234077064,-1.62,3.12,-2.19,-0.94,-6.25,0.69,0.22,-0.46,0.17,2.50,5.60,1.53,0.00,0.00,2.19
234090590,-1.69,3.06,-2.19,-2.25,-6.56,0.44,0.19,-0.27,0.19,2.50,5.60,1.53,0.00,0.00,2.19
234100594,-1.69,3.00,-2.19,-2.25,-6.69,0.50,0.28,-0.03,0.12,2.50,5.60,1.52,0.00,0.00,2.19
234110702,-1.88,3.06,-2.19,-2.31,-6.75,0.62,0.19,-0.01,0.16,2.50,5.60,1.52,0.00,0.00,2.19
234120704,-1.94,3.12,-2.19,-2.00,-6.94,0.69,0.07,-0.09,0.26,2.50,5.60,1.53,0.00,0.00,2.19
234130708,-2.00,3.12,-2.19,-2.00,-7.25,0.94,0.05,-0.34,0.36,2.50,5.60,1.53,0.00,0.00,2.19
234140711,-2.00,3.12,-2.19,-2.25,-7.31,1.62,-0.09,-0.43,0.50,2.50,5.60,1.53,0.00,0.00,2.19
234150716,-2.12,3.19,-2.12,-2.69,-7.56,2.19,-0.33,-0.35,0.50,2.50,5.60,1.53,0.00,0.00,2.12
234160721,-2.19,3.19,-2.12,-3.12,-7.44,2.81,-0.44,-0.27,0.44,2.50,5.60,1.53,0.00,0.00,2.12
234170723,-2.25,3.25,-2.06,-3.62,-7.44,3.00,-0.49,-0.22,0.42,2.50,5.60,1.53,0.00,0.00,2.06
234180727,-2.38,3.25,-2.06,-3.88,-7.19,3.00,-0.88,0.03,0.35,2.50,5.60,1.53,0.00,0.00,2.06
234190730,-2.38,3.25,-2.06,-3.88,-6.88,3.00,-0.65,-0.02,0.39,2.50,5.60,1.53,0.00,0.00,2.06
234200732,-2.44,3.31,-2.00,-3.88,-6.56,2.31,-0.66,-0.12,0.46,2.50,5.60,1.53,0.00,0.00,2.00
234210734,-2.56,3.38,-2.00,-3.75,-6.12,2.31,-0.62,-0.13,0.46,2.50,5.60,1.53,0.00,0.00,2.00
234220738,-2.62,3.44,-1.94,-3.81,-5.69,2.19,-0.85,-0.06,0.49,2.50,5.60,1.53,0.00,0.00,1.94
234230742,-2.62,3.44,-1.94,-3.75,-5.44,1.56,-0.74,-0.08,0.46,2.50,5.60,1.53,0.00,0.00,1.94
234240746,-2.62,3.44,-1.94,-3.88,-4.62,1.38,-1.02,0.19,0.40,2.50,5.60,1.54,0.00,0.00,1.94
234250749,-2.75,3.50,-1.94,-4.06,-3.75,1.12,-1.00,0.33,0.34,2.50,5.60,1.54,0.00,0.00,1.94
234260752,-2.75,3.56,-1.94,-3.69,-2.56,1.06,-0.98,0.32,0.23,2.50,5.60,1.53,0.00,0.00,1.94
234270757,-2.75,3.56,-1.88,-3.38,-1.50,1.12,-0.96,0.48,0.17,2.50,5.60,1.53,0.00,0.00,1.88
234280762,-2.75,3.62,-1.88,-2.88,-0.56,1.44,-0.80,0.40,0.18,2.50,5.60,1.54,0.00,0.00,1.88
234290765,-2.75,3.62,-1.88,-2.31,0.62,1.75,-0.65,0.23,0.23,2.50,5.60,1.53,0.00,0.00,1.88
234300768,-2.75,3.62,-1.88,-1.94,1.38,2.19,-0.75,0.26,0.22,2.50,5.60,1.54,0.00,0.00,1.88
234310772,-2.75,3.62,-1.81,-1.75,2.00,2.56,-0.82,0.08,0.24,2.50,5.60,1.54,0.00,0.00,1.81
234321780,-2.94,3.75,-1.81,-1.62,2.81,2.75,-0.96,0.00,0.26,2.50,5.60,1.54,0.00,0.00,1.81
234331783,-3.00,3.75,-1.75,-1.69,3.75,2.75,-0.95,0.13,0.18,2.50,5.60,1.54,0.00,0.00,1.75
234343600,-3.06,3.75,-1.75,-1.88,4.62,2.50,-0.76,0.00,0.05,2.50,5.60,1.53,0.00,0.00,1.75
234353604,-3.12,3.81,-1.69,-2.00,5.56,2.00,-0.72,-0.01,0.03,2.50,5.60,1.55,0.00,0.00,1.69
234363827,-3.12,3.81,-1.69,-2.06,6.06,1.69,-0.62,0.05,0.00,2.50,5.60,1.54,0.00,0.00,1.69
234373830,-3.06,3.81,-1.69,-2.00,6.44,0.81,-0.45,-0.10,0.04,2.50,5.60,1.54,0.00,0.00,1.69
234383834,-3.00,3.88,-1.69,-1.94,7.00,-0.25,-0.25,0.03,0.00,2.50,5.60,1.54,0.00,0.00,1.69
234393837,-2.94,3.88,-1.69,-2.06,7.62,-1.12,-0.49,0.00,-0.06,2.50,5.60,1.54,0.00,0.00,1.69
234403840,-2.88,3.88,-1.69,-1.94,7.69,-2.38,-0.54,-0.22,-0.06,2.50,5.60,1.55,0.00,0.00,1.69
234413844,-2.81,3.94,-1.75,-2.00,7.69,-3.88,-0.29,-0.08,-0.18,2.50,5.60,1.55,0.00,0.00,1.75
234423847,-2.75,3.94,-1.75,-2.06,8.12,-4.69,-0.22,-0.16,-0.17,2.50,5.60,1.55,0.00,0.00,1.75
234434878,-2.62,3.94,-1.81,-1.81,8.44,-6.06,-0.03,0.00,-0.25,2.50,5.60,1.55,0.00,0.00,1.81
234444882,-2.56,3.94,-1.88,-1.75,8.38,-7.25,0.33,0.09,-0.33,2.50,5.60,1.55,0.00,0.00,1.881
234454886,-2.50,4.00,-1.94,-1.62,8.06,-8.19,0.76,-0.09,-0.17,2.50,5.60,1.56,0.00,0.00,1.94
234466242,-2.38,4.00,-2.06,-1.31,7.50,-8.75,0.58,-0.40,-0.09,2.50,5.60,1.55,0.00,0.00,2.06
234477540,-2.31,4.00,-2.12,-1.25,6.56,-8.94,0.91,-0.16,-0.22,2.50,5.60,1.56,0.00,0.00,2.12
234492833,-2.19,4.06,-2.31,-1.75,4.62,-8.06,0.78,0.07,-0.46,2.50,5.60,1.56,0.00,0.00,2.31
234502835,-2.19,4.06,-2.38,-1.81,3.75,-7.56,0.96,0.33,-0.63,2.50,5.60,1.56,0.00,0.00,2.38
234512837,-2.12,4.12,-2.44,-1.56,2.56,-6.50,0.91,0.06,-0.63,2.50,5.60,1.57,0.00,0.00,2.44
234522840,-2.12,4.12,-2.50,-1.44,1.62,-5.75,0.85,0.04,-0.62,2.50,5.60,1.56,0.00,0.00,2.50
234532844,-2.12,4.12,-2.50,-1.25,0.56,-4.88,0.67,0.31,-0.78,2.50,5.60,1.56,0.00,0.00,2.50
234543435,-2.12,4.12,-2.56,-0.81,0.12,-4.19,0.55,0.15,-0.75,2.50,5.60,1.56,0.00,0.00,2.56
234553438,-2.12,4.12,-2.62,-0.19,-0.88,-3.94,0.45,0.28,-0.79,2.50,5.60,1.57,0.00,0.00,2.62
234566072,-2.12,4.12,-2.62,0.19,-1.44,-3.94,0.30,0.41,-0.87,2.50,5.60,1.57,0.00,0.00,2.62
234577579,-2.12,4.12,-2.69,0.81,-2.00,-4.44,-0.10,0.04,-0.82,2.50,5.60,1.57,0.00,0.00,2.69
234588675,-2.19,4.12,-2.75,1.44,-2.38,-5.31,-0.24,0.13,-0.84,2.50,5.60,1.57,0.00,0.00,2.75
234598679,-2.19,4.12,-2.81,1.50,-2.31,-6.19,-0.35,0.22,-0.87,2.50,5.60,1.57,0.00,0.00,2.81
234608682,-2.19,4.12,-2.88,1.94,-2.25,-7.62,-0.27,0.10,-0.87,2.50,5.60,1.57,0.00,0.00,2.88
234622034,-2.19,4.06,-3.00,2.56,-1.75,-10.69,-0.63,0.15,-0.91,2.50,5.60,1.57,0.00,0.00,3.00
234632038,-2.25,4.06,-3.06,2.88,-1.31,-12.12,-0.16,-0.08,-0.86,2.50,5.60,1.57,0.00,0.00,3.06
234644197,-2.25,4.00,-3.31,3.19,-0.88,-13.81,-0.35,-0.02,-0.86,2.50,5.60,1.57,0.00,0.00,3.31
234654201,-2.25,4.00,-3.50,3.25,-0.50,-15.31,-0.43,-0.08,-0.82,2.50,5.60,1.57,0.00,0.00,3.50
234664204,-2.25,3.94,-3.62,3.38,0.00,-16.31,-0.33,-0.21,-0.75,2.50,5.60,1.57,0.00,0.00,3.62
234674207,-2.25,3.94,-3.81,3.06,0.50,-17.12,-0.09,-0.30,-0.69,2.50,5.60,1.57,0.00,0.00,3.81
234684211,-2.19,3.94,-4.00,2.50,1.12,-17.62,-0.25,-0.26,-0.64,2.50,5.60,1.58,0.00,0.00,4.00
234694215,-2.19,3.88,-4.12,1.94,1.50,-17.44,-0.18,-0.15,-0.63,2.50,5.60,1.56,0.00,0.00,4.12
234704219,-2.12,3.88,-4.31,1.44,2.06,-17.62,-0.03,-0.06,-0.65,2.50,5.60,1.58,0.00,0.00,4.31
234714223,-2.12,3.88,-4.50,1.00,2.12,-17.69,-0.17,0.08,-0.70,2.50,5.60,1.57,0.00,0.00,4.50
234724227,-2.06,3.88,-4.69,0.62,2.50,-18.12,-0.16,0.13,-0.65,2.50,5.60,1.57,0.00,0.00,4.69
234734230,-2.06,3.88,-4.81,0.56,3.06,-18.88,0.00,0.00,-0.54,2.50,5.60,1.57,0.00,0.00,4.81
234744233,-2.00,3.88,-5.00,0.50,3.19,-19.50,0.12,-0.02,-0.48,2.50,5.60,1.57,0.00,0.00,5.00
234754236,-1.94,3.94,-5.25,0.06,3.00,-20.06,0.11,-0.24,-0.42,2.50,5.60,1.57,0.00,0.00,5.25
234764240,-1.94,3.94,-5.44,-0.19,3.31,-20.69,0.27,-0.30,-0.35,2.50,5.60,1.57,0.00,0.00,5.44
234774243,-1.88,3.94,-5.62,-0.94,3.31,-20.88,0.52,-0.34,-0.29,2.50,5.60,1.56,0.00,0.00,5.62
234784245,-1.81,3.94,-5.81,-1.44,2.81,-21.06,0.35,-0.33,-0.30,2.50,5.60,1.57,0.00,0.00,5.81
234794247,-1.75,4.00,-6.00,-2.81,2.38,-21.38,0.44,-0.16,-0.32,2.50,5.60,1.57,0.00,0.00,6.00
234804252,-1.75,4.00,-6.25,-2.81,2.38,-21.38,0.46,0.00,-0.38,2.50,5.60,1.57,0.00,0.00,6.25
234814255,-1.69,4.06,-6.44,-3.00,1.69,-21.75,0.37,0.12,-0.44,2.50,5.60,1.57,0.00,0.00,6.44
234824258,-1.69,4.06,-6.69,-2.81,0.75,-22.44,0.42,0.03,-0.40,2.50,5.60,1.57,0.00,0.00,6.69
234834260,-1.69,4.12,-6.88,-2.81,0.12,-22.69,0.57,-0.05,-0.35,2.50,5.60,1.57,0.00,0.00,6.88
234844265,-1.69,4.19,-7.12,-2.94,-0.38,-22.69,0.53,-0.02,-0.37,2.50,5.60,1.57,0.00,0.00,7.12
234854269,-1.62,4.19,-7.31,-3.12,-1.25,-22.75,0.56,-0.06,-0.33,2.50,5.60,1.57,0.00,0.00,7.31
234864274,-1.56,4.25,-7.56,-3.12,-2.19,-22.94,0.46,-0.07,-0.30,2.50,5.60,1.57,0.00,0.00,7.56
234874278,-1.56,4.25,-7.75,-3.12,-3.12,-23.25,0.49,0.00,-0.29,2.50,5.60,1.56,0.00,0.00,7.75
234884759,-1.56,4.31,-8.00,-3.19,-3.81,-23.62,0.41,0.01,-0.29,2.50,5.60,1.57,0.00,0.00,8.00
234894764,-1.50,4.31,-8.25,-3.19,-4.56,-24.00,0.38,0.07,-0.37,2.50,5.60,1.56,0.00,0.00,8.25
234905792,-1.50,4.38,-8.50,-3.00,-5.06,-24.06,0.51,0.14,-0.36,2.50,5.60,1.57,0.00,0.00,8.50
234915794,-1.50,4.44,-8.69,-2.56,-5.88,-24.12,0.36,0.28,-0.35,2.50,5.60,1.57,0.00,0.00,8.69
234926044,-1.56,4.44,-8.94,-2.06,-6.50,-24.50,0.19,0.37,-0.35,2.50,5.60,1.57,0.00,0.00,8.94
234936048,-1.62,4.50,-9.19,-1.50,-7.12,-24.94,0.37,0.08,-0.23,2.50,5.60,1.56,0.00,0.00,9.19
234946052,-1.69,4.50,-9.44,-1.12,-7.88,-25.00,-0.01,-0.07,-0.17,2.50,5.60,1.56,0.00,0.00,9.44
234956057,-1.75,4.50,-9.69,-1.12,-8.12,-25.12,0.11,-0.22,-0.12,2.50,5.60,1.56,0.00,0.00,9.69
234966059,-1.81,4.56,-9.94,-1.25,-8.38,-25.06,0.08,-0.25,-0.15,2.50,5.60,1.55,0.00,0.00,9.94
234976061,-1.88,4.56,-10.19,-1.00,-8.75,-25.44,-0.43,0.05,-0.23,2.50,5.60,1.56,0.00,0.00,10.19
234986066,-1.94,4.56,-10.44,-0.69,-8.62,-25.88,-0.18,-0.14,-0.10,2.50,5.60,1.56,0.00,0.00,10.44
234996070,-2.00,4.56,-10.69,-0.44,-8.75,-25.88,-0.01,0.14,-0.14,2.50,5.60,1.57,0.00,0.00,10.69
235006074,-2.06,4.56,-10.94,0.25,-8.75,-26.56,-0.36,0.09,-0.23,2.50,5.60,1.56,0.00,0.00,10.94
235016076,-2.12,4.62,-11.25,0.38,-8.25,-28.50,0.56,-0.60,-0.15,2.50,5.60,1.57,0.00,0.00,11.25
235026081,-2.19,4.62,-11.50,0.56,-8.25,-27.44,0.09,-0.05,-0.26,2.50,5.60,1.56,0.00,0.00,11.50
235036084,-2.25,4.62,-11.75,0.56,-7.69,-27.06,-0.64,-0.29,-0.15,2.50,5.60,1.56,0.00,0.00,11.75
235046106,-2.25,4.62,-12.06,0.25,-7.19,-26.94,-0.38,-0.61,-0.06,2.50,5.60,1.56,0.00,0.00,12.06
235056111,-2.31,4.62,-12.31,-0.31,-6.62,-26.19,-0.17,0.04,-0.17,2.50,5.60,1.56,0.00,0.00,12.31
235066335,-2.38,4.62,-12.56,-0.38,-6.31,-26.00,-0.74,-0.28,-0.16,2.50,5.60,1.56,0.00,0.00,12.56
235076339,-2.38,4.62,-12.81,-0.50,-5.50,-26.38,-0.85,-0.29,-0.16,2.50,5.60,1.57,0.00,0.00,12.81
235087794,-2.44,4.69,-13.06,-0.50,-4.75,-26.25,-0.41,0.00,-0.22,2.50,5.60,1.56,0.00,0.00,13.06
235097797,-2.44,4.69,-13.31,-0.25,-4.38,-25.50,-0.82,-0.26,-0.13,2.50,5.60,1.56,0.00,0.00,13.31
235110405,-2.44,4.69,-13.56,-0.25,-3.31,-25.31,-1.02,-0.13,-0.17,2.50,5.60,1.56,0.00,0.00,13.56
235122708,-2.44,4.69,-13.81,-0.12,-2.00,-26.38,-0.68,-0.43,-0.09,2.50,5.60,1.55,0.00,0.00,13.81
235132712,-2.44,4.69,-14.06,-0.38,-1.12,-26.56,-0.90,-0.16,-0.06,2.50,5.60,1.55,0.00,0.00,14.06
235144723,-2.56,4.69,-14.31,-0.56,-0.06,-26.75,-0.61,-0.13,-0.09,2.50,5.60,1.55,0.00,0.00,14.31
235154727,-2.69,4.69,-14.56,-0.56,0.19,-27.56,-0.64,-0.04,-0.13,2.50,5.60,1.56,0.00,0.00,14.56
235165546,-2.69,4.69,-15.12,-0.44,0.75,-28.00,-0.94,0.06,-0.14,2.50,5.60,1.56,0.00,0.00,15.12
235175550,-2.69,4.69,-15.38,-0.12,1.50,-28.56,-0.37,0.00,-0.07,2.50,5.60,1.56,0.00,0.00,15.38
235185554,-2.62,4.69,-15.69,0.00,1.62,-29.38,-0.44,0.01,-0.08,2.50,5.60,1.56,0.00,0.00,15.698
235195558,-2.62,4.69,-15.94,0.44,1.56,-29.94,-0.50,-0.02,-0.08,2.50,5.60,1.56,0.00,0.00,15.94
235205563,-2.62,4.75,-16.25,0.62,1.50,-30.44,-0.22,0.00,-0.10,2.50,5.60,1.55,0.00,0.00,16.25
235215565,-2.56,4.75,-16.56,0.75,1.31,-30.94,-0.25,0.01,-0.02,2.50,5.60,1.55,0.00,0.00,16.56
235226869,-2.50,4.75,-16.88,0.94,1.06,-31.06,-0.19,0.02,-0.03,2.50,5.60,1.55,0.00,0.00,16.88
235236872,-2.50,4.75,-17.12,0.94,1.25,-30.81,0.10,0.06,-0.07,2.50,5.60,1.56,0.00,0.00,17.12
235249344,-2.44,4.75,-17.44,1.00,0.69,-30.25,0.16,0.06,-0.09,2.50,5.60,1.56,0.00,0.00,17.44
235259348,-2.44,4.75,-17.69,1.06,0.38,-29.19,0.04,0.29,-0.19,2.50,5.60,1.56,0.00,0.00,17.69
235270294,-2.44,4.75,-18.00,1.38,0.31,-28.44,0.12,0.23,-0.22,2.50,5.60,1.56,0.00,0.00,18.00
235281682,-2.38,4.75,-18.25,1.62,-0.19,-28.00,0.27,0.30,-0.17,2.50,5.60,1.56,0.00,0.00,18.25
235292169,-2.38,4.75,-18.50,2.00,-0.31,-26.94,0.27,0.30,-0.17,2.50,5.60,1.55,0.00,0.00,18.50
235302173,-2.38,4.69,-18.75,2.50,-0.69,-26.00,0.06,0.19,-0.10,2.50,5.60,1.55,0.00,0.00,18.75
235312178,-2.31,4.69,-19.00,2.81,-0.88,-25.31,0.12,0.26,-0.15,2.50,5.60,1.55,0.00,0.00,19.00
235325690,-2.31,4.69,-19.50,3.75,-1.62,-23.81,0.03,0.15,-0.16,2.50,5.60,1.56,0.00,0.00,19.50
235335693,-2.31,4.62,-19.75,4.12,-1.62,-23.56,0.08,0.04,-0.16,2.50,5.60,1.55,0.00,0.00,19.75
235347142,-2.31,4.62,-19.94,4.25,-1.88,-23.25,0.11,-0.03,-0.17,2.50,5.60,1.55,0.00,0.00,19.94
235357154,-2.31,4.56,-20.19,4.25,-2.44,-22.56,0.12,-0.05,-0.14,2.50,5.60,1.55,0.00,0.00,20.19
235367160,-2.31,4.56,-20.38,4.06,-2.62,-22.38,-0.29,-0.12,-0.18,2.50,5.60,1.56,0.00,0.00,20.38
235377163,-2.31,4.50,-20.62,3.88,-2.38,-22.19,-0.19,0.04,-0.14,2.50,5.60,1.55,0.00,0.00,20.62
235387167,-2.31,4.50,-20.81,3.75,-2.50,-22.31,-0.18,0.06,-0.14,2.50,5.60,1.55,0.00,0.00,20.81
235397171,-2.38,4.50,-21.06,3.75,-2.62,-22.75,-0.40,0.06,-0.19,2.50,5.60,1.55,0.00,0.00,21.06
235407173,-2.38,4.44,-21.25,3.88,-2.31,-23.19,-0.30,0.10,-0.24,2.50,5.60,1.55,0.00,0.00,21.25
235417178,-2.38,4.44,-21.50,4.12,-2.19,-23.81,-0.27,0.01,-0.24,2.50,5.60,1.54,0.00,0.00,21.50
235427181,-2.38,4.38,-21.75,4.31,-2.06,-23.69,-0.43,-0.07,-0.21,2.50,5.60,1.55,0.00,0.00,21.75
235437186,-2.44,4.31,-22.00,4.31,-1.94,-23.81,-0.41,-0.21,-0.11,2.50,5.60,1.55,0.00,0.00,22.00
235447191,-2.44,4.31,-22.19,3.88,-1.88,-23.56,-0.21,-0.44,-0.04,2.50,5.60,1.55,0.00,0.00,22.19
235457193,-2.44,4.31,-22.44,3.31,-2.00,-23.12,-0.33,-0.39,-0.08,2.50,5.60,1.55,0.00,0.00,22.44
235467195,-2.44,4.25,-22.62,2.88,-1.75,-22.94,-0.38,-0.28,-0.13,2.50,5.60,1.55,0.00,0.00,22.62
235477210,-2.44,4.25,-22.88,2.38,-1.56,-22.75,-0.39,-0.19,-0.11,2.50,5.60,1.55,0.00,0.00,22.88
235487212,-2.44,4.25,-23.06,2.00,-1.44,-22.56,-0.55,-0.07,-0.12,2.50,5.60,1.55,0.00,0.00,23.06
235497216,-2.44,4.25,-23.31,1.88,-1.12,-22.75,-0.57,-0.09,-0.13,2.50,5.60,1.55,0.00,0.00,23.31
235507221,-2.50,4.19,-23.56,1.88,-0.81,-23.25,-0.48,-0.06,-0.19,2.50,5.60,1.55,0.00,0.00,23.56
235517224,-2.56,4.19,-23.75,1.81,-0.31,-23.44,-0.47,-0.07,-0.20,2.50,5.60,1.56,0.00,0.00,23.75
235527228,-2.56,4.19,-24.00,1.75,0.06,-23.62,-0.53,-0.13,-0.18,2.50,5.60,1.56,0.00,0.00,24.00
235537233,-2.62,4.12,-24.19,1.75,0.31,-23.94,-0.44,-0.13,-0.21,2.50,5.60,1.55,0.00,0.00,24.19
235547237,-2.62,4.12,-24.19,1.69,0.56,-24.19,-0.50,-0.16,-0.23,2.50,5.60,1.55,0.00,0.00,24.19
235557240,-2.62,4.12,-24.44,1.75,0.69,-24.31,-0.62,0.00,-0.26,2.50,5.60,1.55,0.00,0.00,24.44
235567243,-2.69,4.12,-24.94,1.69,1.00,-24.69,-0.43,-0.08,-0.23,2.50,5.60,1.55,0.00,0.00,24.94
235577247,-2.75,4.12,-25.12,1.62,1.19,-24.75,-0.45,-0.01,-0.25,2.50,5.60,1.55,0.00,0.00,25.12
235587250,-2.75,4.12,-25.38,1.50,1.44,-24.69,-0.35,0.06,-0.23,2.50,5.60,1.55,0.00,0.00,25.38
235597252,-2.75,4.12,-25.38,1.38,1.69,-24.56,-0.28,-0.08,-0.22,2.50,5.60,1.55,0.00,0.00,25.38
235607257,-2.75,4.12,-25.62,1.31,1.75,-24.69,-0.33,-0.07,-0.22,2.50,5.60,1.55,0.00,0.00,25.62
235617259,-2.69,4.12,-26.12,1.19,1.75,-25.06,-0.22,-0.03,-0.22,2.50,5.60,1.55,0.00,0.00,26.12
235627263,-2.69,4.06,-26.38,1.31,1.25,-25.50,-0.19,0.00,-0.17,2.50,5.60,1.55,0.00,0.00,26.38
235637268,-2.69,4.06,-26.62,1.44,1.19,-26.00,-0.27,-0.15,-0.16,2.50,5.60,1.54,0.00,0.00,26.62
235647272,-2.69,4.06,-26.62,1.44,0.94,-26.44,-0.08,-0.26,-0.18,2.50,5.60,1.56,0.00,0.00,26.62
235657275,-2.69,4.06,-26.88,1.31,0.62,-26.50,0.02,-0.25,-0.15,2.50,5.60,1.55,0.00,0.00,26.88
235667277,-2.62,4.06,-27.38,1.31,0.19,-26.25,-0.07,-0.35,-0.12,2.50,5.60,1.54,0.00,0.00,27.38
235677549,-2.62,4.06,-27.62,0.75,0.00,-25.56,-0.10,-0.35,-0.05,2.50,5.60,1.54,0.00,0.00,27.62
235687563,-2.56,4.06,-27.88,0.38,-0.12,-24.81,0.03,-0.22,-0.05,2.50,5.60,1.55,0.00,0.00,27.88
235699186,-2.56,4.06,-28.12,-0.06,-0.31,-24.00,-0.11,-0.19,-0.03,2.50,5.60,1.55,0.00,0.00,28.12
235709188,-2.56,4.06,-28.31,-0.44,-0.56,-23.94,-0.18,-0.20,-0.04,2.50,5.60,1.55,0.00,0.00,28.31
235719192,-2.56,4.12,-28.56,-0.88,-0.81,-24.06,-0.10,-0.15,-0.03,2.50,5.60,1.55,0.00,0.00,28.56
235729196,-2.56,4.12,-28.81,-0.94,-1.06,-24.38,-0.23,-0.04,-0.07,2.50,5.60,1.55,0.00,0.00,28.81
235739198,-2.56,4.12,-29.06,-1.12,-1.12,-24.44,-0.22,-0.12,-0.08,2.50,5.60,1.54,0.00,0.00,29.06
235749602,-2.56,4.12,-29.25,-1.25,-1.38,-24.25,-0.24,-0.01,-0.14,2.50,5.60,1.54,0.00,0.00,29.25
235759604,-2.56,4.19,-29.50,-1.25,-1.38,-23.88,-0.35,0.01,-0.18,2.50,5.60,1.55,0.00,0.00,29.50
235769608,-2.62,4.19,-29.75,-1.44,-1.31,-23.69,-0.41,0.10,-0.24,2.50,5.60,1.54,0.00,0.00,29.75
235779611,-2.62,4.25,-29.94,-1.25,-1.12,-23.69,-0.39,0.12,-0.24,2.50,5.60,1.54,0.00,0.00,29.94
235790234,-2.62,4.25,-30.19,-1.12,-0.81,-23.31,-0.35,0.23,-0.21,2.50,5.60,1.55,0.00,0.00,30.19
235800238,-2.69,4.31,-30.38,-0.81,-0.62,-23.25,-0.38,0.20,-0.17,2.50,5.60,1.55,0.00,0.00,30.38
235810242,-2.69,4.31,-30.62,-0.44,-0.62,-23.44,-0.27,0.13,-0.09,2.50,5.60,1.55,0.00,0.00,30.62
235820246,-2.69,4.31,-30.88,-0.31,-0.38,-23.12,-0.30,0.10,-0.07,2.50,5.60,1.54,0.00,0.00,30.88
235830250,-2.69,4.38,-31.06,-0.19,-0.38,-22.75,-0.30,0.06,-0.05,2.50,5.60,1.55,0.00,0.00,31.06
235840254,-2.69,4.38,-31.31,0.00,-0.12,-22.00,-0.34,0.10,-0.08,2.50,5.60,1.54,0.00,0.00,31.31
235850257,-2.69,4.38,-31.50,0.19,0.12,-21.06,-0.27,0.18,-0.11,2.50,5.60,1.54,0.00,0.00,31.50
235860261,-2.69,4.38,-31.69,0.38,0.25,-20.00,-0.32,0.27,-0.16,2.50,5.60,1.55,0.00,0.00,31.69
235870264,-2.69,4.44,-31.88,0.81,0.56,-19.25,-0.41,0.29,-0.18,2.50,5.60,1.54,0.00,0.00,31.88
235880267,-2.69,4.44,-32.06,1.31,1.19,-18.50,-0.39,0.17,-0.13,2.50,5.60,1.54,0.00,0.00,32.06
235890269,-2.69,4.44,-32.25,1.38,1.44,-17.81,-0.27,0.17,-0.05,2.50,5.60,1.54,0.00,0.00,32.25
235900273,-2.69,4.44,-32.38,1.69,1.62,-17.50,-0.36,0.12,-0.03,2.50,5.60,1.54,0.00,0.00,32.38
235910277,-2.69,4.44,-32.56,1.88,2.06,-17.12,-0.47,0.20,-0.11,2.50,5.60,1.55,0.00,0.00,32.56
235920280,-2.69,4.44,-32.75,2.25,2.38,-17.19,-0.44,0.23,-0.20,2.50,5.60,1.55,0.00,0.00,32.75
235930282,-2.69,4.44,-32.88,2.56,2.56,-17.38,-0.47,0.13,-0.18,2.50,5.60,1.55,0.00,0.00,32.88
235940285,-2.69,4.44,-33.06,3.00,2.88,-17.38,-0.44,0.11,-0.20,2.50,5.60,1.54,0.00,0.00,33.06
235950288,-2.69,4.44,-33.19,2.94,3.12,-17.06,-0.40,-0.01,-0.15,2.50,5.60,1.54,0.00,0.00,33.19
235960292,-2.62,4.38,-33.38,3.19,3.44,-17.00,-0.32,-0.06,-0.11,2.50,5.60,1.55,0.00,0.00,33.38
235970385,-2.62,4.38,-33.56,2.81,3.75,-16.62,-0.12,-0.14,-0.08,2.50,5.60,1.54,0.00,0.00,33.56
235980387,-2.56,4.38,-33.69,2.56,3.81,-16.19,-0.19,-0.11,-0.10,2.50,5.60,1.55,0.00,0.00,33.69
235991867,-2.56,4.31,-33.88,2.19,3.94,-15.44,-0.18,0.00,-0.17,2.50,5.60,1.54,0.00,0.00,33.88
236001870,-2.50,4.31,-34.00,1.94,4.25,-14.44,-0.04,-0.02,-0.23,2.50,5.60,1.54,0.00,0.00,34.00
236014302,-2.44,4.31,-34.12,1.75,4.12,-13.31,-0.03,0.02,-0.28,2.50,5.60,1.55,0.00,0.00,34.12
236025025,-2.38,4.31,-34.25,1.62,4.19,-11.94,0.08,-0.10,-0.27,2.50,5.60,1.55,0.00,0.00,34.25
236035323,-2.31,4.31,-34.31,1.62,4.19,-10.50,0.16,-0.12,-0.24,2.50,5.60,1.54,0.00,0.00,34.31
236045883,-2.31,4.25,-34.44,1.50,4.19,-9.06,0.16,-0.12,-0.24,2.50,5.60,1.55,0.00,0.00,34.44
236055887,-2.25,4.25,-34.50,1.56,4.38,-7.81,0.16,-0.02,-0.27,2.50,5.60,1.54,0.00,0.00,34.50
236065891,-2.19,4.25,-34.56,1.69,4.25,-6.62,0.30,-0.14,-0.24,2.50,5.60,1.54,0.00,0.00,34.56
236078383,-2.12,4.25,-34.62,1.81,3.88,-6.00,0.34,-0.16,-0.18,2.50,5.60,1.55,0.00,0.00,34.62
236088388,-2.12,4.25,-34.69,1.69,3.56,-5.38,0.50,-0.10,-0.19,2.50,5.60,1.54,0.00,0.00,34.69
236098551,-2.06,4.19,-34.75,1.69,3.56,-5.38,0.56,-0.04,-0.18,2.50,5.60,1.55,0.00,0.00,34.75
236108555,-2.06,4.19,-34.75,1.56,2.81,-3.19,0.60,0.02,-0.17,2.50,5.60,1.55,0.00,0.00,34.75
236119466,-2.00,4.19,-34.81,1.56,2.38,-1.94,0.66,-0.06,-0.19,2.50,5.60,1.54,0.00,0.00,34.81
236129468,-1.94,4.12,-34.81,1.62,1.88,-0.69,0.63,-0.31,-0.14,2.50,5.60,1.55,0.00,0.00,34.81
236139472,-1.94,4.12,-34.81,1.56,1.12,0.44,0.59,-0.38,-0.13,2.50,5.60,1.54,0.00,0.00,34.81
236149476,-1.94,4.12,-34.81,1.25,0.12,1.62,0.52,-0.40,-0.12,2.50,5.60,1.55,0.00,0.00,34.81
236159754,-1.94,4.12,-34.75,0.69,-0.38,3.06,0.45,-0.40,-0.16,2.50,5.60,1.55,0.00,0.00,34.75
236169758,-2.00,4.12,-34.75,0.19,-1.06,4.31,0.30,-0.21,-0.20,2.50,5.60,1.54,0.00,0.00,34.75
236179761,-2.00,4.12,-34.69,-0.12,-1.31,5.44,0.34,-0.20,-0.16,2.50,5.60,1.54,0.00,0.00,34.69
236189765,-2.00,4.12,-34.62,-0.50,-1.81,6.25,0.32,-0.18,-0.14,2.50,5.60,1.55,0.00,0.00,34.62
236199767,-2.00,4.12,-34.62,-0.75,-2.12,7.56,0.16,-0.26,-0.13,2.50,5.60,1.55,0.00,0.00,34.62
236209772,-2.00,4.06,-34.56,-1.06,-2.69,8.69,0.10,-0.26,-0.12,2.50,5.60,1.54,0.00,0.00,34.56
236219776,-2.06,4.06,-34.38,-1.62,-3.00,9.88,0.03,-0.36,-0.19,2.50,5.60,1.55,0.00,0.00,34.38
236229779,-2.06,4.12,-34.25,-2.00,-3.12,11.12,-0.13,-0.36,-0.20,2.50,5.60,1.54,0.00,0.00,34.25
236242153,-2.12,4.12,-34.12,-2.44,-3.12,12.62,-0.19,-0.22,-0.20,2.50,5.60,1.54,0.00,0.00,34.12
236252156,-2.19,4.12,-34.00,-2.88,-3.00,13.38,-0.15,-0.10,-0.14,2.50,5.60,1.55,0.00,0.00,34.00
236262159,-2.19,4.19,-33.88,-3.12,-2.75,14.44,-0.22,-0.04,-0.18,2.50,5.60,1.53,0.00,0.00,33.88
236272162,-2.25,4.19,-33.75,-3.06,-2.44,15.19,-0.28,-0.01,-0.20,2.50,5.60,1.55,0.00,0.00,33.75
236284583,-2.25,4.25,-33.56,-2.94,-2.00,15.50,-0.16,-0.06,-0.12,2.50,5.60,1.55,0.00,0.00,33.56
236296270,-2.31,4.25,-33.44,-2.62,-1.81,15.81,-0.19,-0.11,-0.13,2.50,5.60,1.54,0.00,0.00,33.44
236307360,-2.31,4.25,-33.25,-2.62,-1.50,16.38,-0.12,-0.15,-0.14,2.50,5.60,1.55,0.00,0.00,33.25
236317364,-2.38,4.25,-33.06,-2.69,-1.38,17.38,-0.29,-0.01,-0.17,2.50,5.60,1.55,0.00,0.00,33.06
236329845,-2.38,4.31,-32.94,-3.06,-1.00,19.88,-0.32,0.07,-0.22,2.50,5.60,1.54,0.00,0.00,32.94
236339860,-2.44,4.31,-32.69,-3.12,-0.69,21.00,-0.52,0.22,-0.32,2.50,5.60,1.53,0.00,0.00,32.69
236351853,-2.50,4.38,-32.31,-2.75,-0.38,21.44,-0.67,0.40,-0.38,2.50,5.60,1.54,0.00,0.00,32.31
236361856,-2.50,4.38,-32.12,-2.19,0.19,21.44,-0.46,0.51,-0.36,2.50,5.60,1.53,0.00,0.00,32.12
236372501,-2.56,4.38,-31.88,-1.62,0.81,21.50,-0.26,0.58,-0.29,2.50,5.60,1.54,0.00,0.00,31.88
236382504,-2.56,4.38,-31.69,-0.69,1.25,21.31,-0.15,0.56,-0.15,2.50,5.60,1.54,0.00,0.00,31.69
236392506,-2.56,4.38,-31.50,-0.06,1.50,21.25,0.10,0.58,-0.10,2.50,5.60,1.54,0.00,0.00,31.50
236402511,-2.56,4.38,-31.25,0.81,1.25,20.88,0.10,0.53,-0.11,2.50,5.60,1.54,0.00,0.00,31.25
236412516,-2.56,4.31,-31.06,1.94,0.81,20.88,0.16,0.53,-0.18,2.50,5.60,1.55,0.00,0.00,31.06
236422723,-2.56,4.31,-30.88,2.44,0.50,21.06,0.15,0.41,-0.17,2.50,5.60,1.54,0.00,0.00,30.88
236432727,-2.56,4.25,-30.69,3.06,0.12,21.25,0.14,0.31,-0.15,2.50,5.60,1.55,0.00,0.00,30.69
236443516,-2.62,4.19,-30.44,3.38,-0.19,21.62,0.26,0.04,-0.08,2.50,5.60,1.55,0.00,0.00,30.44
236453520,-2.62,4.19,-30.25,3.56,-0.50,22.19,0.39,-0.13,0.02,2.50,5.60,1.54,0.00,0.00,30.25
236466101,-2.62,4.12,-30.00,3.31,-0.62,23.25,0.39,-0.21,0.07,2.50,5.60,1.54,0.00,0.00,30.00
236481373,-2.69,4.06,-29.56,2.44,-1.62,24.25,0.43,-0.12,0.04,2.50,5.60,1.54,0.00,0.00,29.56
236491376,-2.75,4.00,-29.31,2.12,-1.94,24.62,0.31,-0.05,-0.02,2.50,5.60,1.54,0.00,0.00,29.31
236501710,-2.75,4.00,-29.06,2.06,-2.56,24.88,0.15,-0.09,-0.09,2.50,5.60,1.54,0.00,0.00,29.06
236511713,-2.81,3.94,-28.81,1.69,-2.88,25.25,0.06,-0.14,-0.13,2.50,5.60,1.55,0.00,0.00,28.81
236522355,-2.88,3.94,-28.56,1.50,-2.88,25.56,0.02,-0.24,-0.08,2.50,5.60,1.55,0.00,0.00,28.56
236532359,-2.88,3.88,-28.31,1.12,-3.12,25.81,0.01,-0.16,-0.07,2.50,5.60,1.54,0.00,0.00,28.31
236544778,-2.94,3.88,-28.06,0.88,-3.25,26.06,0.05,-0.16,-0.07,2.50,5.60,1.55,0.00,0.00,28.06
236554781,-3.00,3.88,-27.81,0.50,-3.38,26.19,-0.32,0.08,-0.10,2.50,5.60,1.55,0.00,0.00,27.81
236564783,-3.06,3.88,-27.56,0.56,-3.12,25.25,-0.37,0.38,-0.19,2.50,5.60,1.54,0.00,0.00,27.56
236577445,-3.12,3.81,-27.31,0.56,-3.50,25.75,-0.44,0.08,-0.33,2.50,5.60,1.54,0.00,0.00,27.31
236587981,-3.12,3.81,-27.06,0.56,-3.31,26.69,0.09,0.04,-0.30,2.50,5.60,1.54,0.00,0.00,27.06
236599971,-3.19,3.81,-26.81,0.50,-2.94,26.75,0.09,0.04,-0.30,2.50,5.60,1.54,0.00,0.00,26.81
236609974,-3.25,3.81,-26.56,0.50,-2.69,27.19,-0.66,0.23,-0.30,2.50,5.60,1.54,0.00,0.00,26.56
236619977,-3.31,3.81,-26.31,0.88,-1.56,27.00,-0.30,0.04,-0.27,2.50,5.60,1.54,0.00,0.00,26.31
236633615,-3.38,3.75,-25.75,1.25,-1.12,26.75,-0.10,0.14,-0.34,2.50,5.60,1.54,0.00,0.00,25.75
236644722,-3.44,3.75,-25.50,1.56,-0.44,27.31,-0.45,0.07,-0.34,2.50,5.60,1.54,0.00,0.00,25.50
236654725,-3.50,3.69,-25.25,1.75,-0.06,27.81,-0.70,0.08,-0.39,2.50,5.60,1.54,0.00,0.00,25.25
236664780,-3.50,3.69,-24.94,2.00,0.56,27.50,-1.00,0.16,-0.39,2.50,5.60,1.55,0.00,0.00,24.94
236674782,-3.50,3.62,-24.69,1.88,1.12,27.12,-0.85,0.03,-0.39,2.50,5.60,1.54,0.00,0.00,24.69
236687202,-3.50,3.62,-24.44,1.62,1.94,26.31,-0.68,0.12,-0.35,2.50,5.60,1.54,0.00,0.00,24.44
236698510,-3.50,3.56,-24.19,1.50,2.62,24.81,-0.65,0.07,-0.31,2.50,5.60,1.54,0.00,0.00,24.19
236709833,-3.50,3.56,-24.00,1.44,3.38,23.44,-0.40,0.06,-0.22,2.50,5.60,1.54,0.00,0.00,24.00
236719841,-3.44,3.50,-23.75,1.38,4.38,22.19,0.33,-0.09,-0.06,2.50,5.60,1.54,0.00,0.00,23.75
236732472,-3.38,3.44,-23.31,1.25,4.19,22.50,0.54,0.04,-0.02,2.50,5.60,1.54,0.00,0.00,23.31
236742476,-3.38,3.44,-23.12,1.12,4.12,23.62,0.82,0.06,-0.04,2.50,5.60,1.54,0.00,0.00,23.12
236752481,-3.38,3.44,-22.88,0.81,3.38,24.81,0.82,0.01,-0.07,2.50,5.60,1.54,0.00,0.00,22.88
236762484,-3.38,3.38,-22.62,0.50,2.69,26.38,0.88,0.04,-0.09,2.50,5.60,1.55,0.00,0.00,22.62
236772488,-3.38,3.38,-22.31,0.44,2.00,27.88,0.85,-0.13,-0.04,2.50,5.60,1.54,0.00,0.00,22.31
236782491,-3.38,3.38,-22.06,0.31,1.00,29.50,0.81,-0.15,-0.03,2.50,5.60,1.54,0.00,0.00,22.06
236792495,-3.38,3.38,-21.75,0.19,0.25,30.94,0.68,-0.04,-0.07,2.50,5.60,1.54,0.00,0.00,21.75
236802499,-3.38,3.38,-21.75,0.06,-0.56,31.88,0.51,-0.20,-0.11,2.50,5.60,1.54,0.00,0.00,21.75
236812502,-3.38,3.31,-21.44,0.00,-1.56,32.31,0.43,-0.11,-0.13,2.50,5.60,1.54,0.00,0.00,21.44
236822506,-3.44,3.31,-20.81,-0.12,-2.44,32.19,0.51,-0.10,-0.16,2.50,5.60,1.54,0.00,0.00,20.81
236832510,-3.44,3.25,-20.50,-0.19,-3.25,31.88,0.55,-0.29,-0.09,2.50,5.60,1.54,0.00,0.00,20.50
236842513,-3.50,3.25,-20.19,-0.38,-4.25,31.94,0.17,-0.43,-0.11,2.50,5.60,1.55,0.00,0.00,20.19
236853713,-3.56,3.25,-19.88,-0.62,-5.06,31.50,0.23,-0.32,-0.15,2.50,5.60,1.55,0.00,0.00,19.88
236863716,-3.69,3.25,-19.56,-1.00,-5.81,31.25,0.07,-0.19,-0.16,2.50,5.60,1.54,0.00,0.00,19.56
236873720,-3.75,3.25,-19.31,-1.25,-6.69,30.75,-0.03,-0.11,-0.17,2.50,5.60,1.55,0.00,0.00,19.31
236883723,-3.81,3.19,-19.00,-1.31,-7.25,29.94,0.00,-0.18,-0.16,2.50,5.60,1.54,0.00,0.00,19.00
236894384,-3.94,3.19,-18.75,-1.12,-7.62,28.88,-0.07,-0.13,-0.12,2.50,5.60,1.54,0.00,0.00,18.75
236904388,-4.00,3.19,-18.44,-1.12,-8.06,28.19,-0.11,-0.19,-0.10,2.50,5.60,1.54,0.00,0.00,18.44
236916809,-4.12,3.19,-18.19,-1.06,-8.06,27.31,-0.22,-0.41,-0.08,2.50,5.60,1.54,0.00,0.00,18.19
236929319,-4.19,3.19,-17.94,-1.44,-8.00,26.69,-0.43,-0.60,-0.11,2.50,5.60,1.55,0.00,0.00,17.94
236939610,-4.31,3.19,-17.69,-1.62,-7.94,26.25,-0.43,-0.60,-0.13,2.50,5.60,1.54,0.00,0.00,17.69
236951741,-4.38,3.19,-17.44,-1.75,-7.56,25.81,-0.46,-0.45,-0.17,2.50,5.60,1.54,0.00,0.00,17.44
236961746,-4.44,3.19,-17.19,-2.62,-6.81,25.62,-0.65,-0.37,-0.22,2.50,5.60,1.54,0.00,0.00,17.19
236972373,-4.56,3.19,-16.94,-3.50,-5.06,25.75,-0.60,-0.30,-0.21,2.50,5.60,1.54,0.00,0.00,16.94
236982376,-4.62,3.19,-16.69,-3.62,-4.00,25.81,-0.72,-0.15,-0.21,2.50,5.60,1.54,0.00,0.00,16.69
236994416,-4.69,3.25,-16.19,-3.88,-2.81,25.75,-0.76,-0.25,-0.17,2.50,5.60,1.54,0.00,0.00,16.19
237004419,-4.75,3.25,-15.94,-4.06,-1.75,25.56,-0.47,-0.26,-0.15,2.50,5.60,1.54,0.00,0.00,15.94
237014638,-4.75,3.31,-15.69,-4.12,-0.69,25.31,-0.51,-0.15,-0.17,2.50,5.60,1.54,0.00,0.00,15.69
237024641,-4.81,3.31,-15.44,-4.31,0.31,25.25,-0.57,-0.09,-0.22,2.50,5.60,1.54,0.00,0.00,15.44
237034644,-4.88,3.31,-15.19,-4.31,1.31,25.50,-0.27,-0.13,-0.23,2.50,5.60,1.54,0.00,0.00,15.19
237044649,-4.94,3.31,-14.94,-4.31,1.69,25.44,-0.54,0.07,-0.22,2.50,5.60,1.54,0.00,0.00,14.94
237054713,-4.94,3.31,-14.69,-4.25,2.44,25.38,-0.32,0.01,-0.20,2.50,5.60,1.54,0.00,0.00,14.69
237064717,-4.94,3.38,-14.44,-4.06,3.31,25.06,-0.18,-0.08,-0.22,2.50,5.60,1.54,0.00,0.00,14.44
237076484,-4.94,3.38,-14.19,-3.94,3.62,24.62,-0.24,-0.13,-0.18,2.50,5.60,1.54,0.00,0.00,14.19
237086486,-4.94,3.38,-13.94,-3.75,4.12,24.06,-0.03,-0.17,-0.19,2.50,5.60,1.53,0.00,0.00,13.94
237098382,-4.88,3.38,-13.75,-3.94,4.38,23.69,0.12,-0.12,-0.19,2.50,5.60,1.54,0.00,0.00,13.75
237108385,-4.88,3.44,-13.50,-3.94,4.50,23.38,0.09,-0.06,-0.17,2.50,5.60,1.53,0.00,0.00,13.50
237118389,-4.81,3.44,-13.25,-3.94,4.50,23.38,0.12,-0.03,-0.23,2.50,5.60,1.53,0.00,0.00,13.25
237129755,-4.81,3.44,-13.06,-4.00,4.12,23.25,0.31,0.09,-0.28,2.50,5.60,1.54,0.00,0.00,13.06
237140084,-4.75,3.50,-12.81,-3.56,3.44,23.06,0.35,0.10,-0.27,2.50,5.60,1.54,0.00,0.00,12.81
237150563,-4.75,3.50,-12.62,-3.19,2.81,22.81,0.35,0.10,-0.27,2.50,5.60,1.54,0.00,0.00,12.62
237160567,-4.75,3.50,-12.38,-3.06,2.56,22.31,0.57,0.05,-0.22,2.50,5.60,1.53,0.00,0.00,12.38
237170570,-4.75,3.50,-12.19,-3.00,1.94,22.19,0.69,0.06,-0.17,2.50,5.60,1.53,0.00,0.00,12.19
237182730,-4.75,3.50,-11.94,-2.56,0.31,22.38,0.80,0.11,-0.18,2.50,5.60,1.54,0.00,0.00,11.94
237192739,-4.75,3.50,-11.75,-2.31,-0.62,22.69,0.85,0.11,-0.15,2.50,5.60,1.54,0.00,0.00,11.75
237204955,-4.81,3.50,-11.31,-2.12,-1.38,23.19,0.64,0.12,-0.20,2.50,5.60,1.53,0.00,0.00,11.31
237214958,-4.81,3.50,-11.06,-1.75,-2.25,23.56,0.58,0.08,-0.23,2.50,5.60,1.54,0.00,0.00,11.06
237224962,-4.81,3.50,-10.81,-1.62,-3.06,24.12,0.50,-0.04,-0.21,2.50,5.60,1.54,0.00,0.00,10.81
237234965,-4.88,3.50,-10.56,-1.62,-3.31,24.62,0.42,-0.19,-0.06,2.50,5.60,1.53,0.00,0.00,10.56
237244969,-4.94,3.50,-10.38,-1.75,-3.75,24.88,0.44,-0.22,-0.02,2.50,5.60,1.53,0.00,0.00,10.38
237254972,-5.00,3.50,-10.12,-2.06,-3.88,24.88,0.23,-0.22,0.03,2.50,5.60,1.53,0.00,0.00,10.12
237265083,-5.00,3.50,-9.88,-2.56,-4.06,25.12,0.15,-0.22,0.04,2.50,5.60,1.53,0.00,0.00,9.882
237275090,-5.06,3.50,-9.62,-2.88,-3.94,25.00,0.18,-0.08,-0.05,2.50,5.60,1.53,0.00,0.00,9.62
237285095,-5.12,3.56,-9.38,-2.88,-3.81,25.12,-0.11,0.01,-0.11,2.50,5.60,1.54,0.00,0.00,9.38
237295099,-5.19,3.56,-9.12,-3.06,-3.44,25.06,-0.22,0.00,-0.12,2.50,5.60,1.53,0.00,0.00,9.12
237305101,-5.25,3.56,-8.88,-2.69,-3.00,24.88,-0.09,0.00,-0.17,2.50,5.60,1.53,0.00,0.00,8.88
237315104,-5.25,3.56,-8.62,-2.44,-2.44,24.44,-0.37,0.15,-0.22,2.50,5.60,1.53,0.00,0.00,8.62
237325107,-5.31,3.56,-8.44,-2.06,-1.81,23.50,-0.36,0.13,-0.23,2.50,5.60,1.53,0.00,0.00,8.44
237335109,-5.31,3.56,-8.19,-1.62,-1.00,22.75,-0.23,0.21,-0.23,2.50,5.60,1.53,0.00,0.00,8.19
237345112,-5.31,3.56,-8.00,-0.88,-0.50,22.31,-0.15,0.25,-0.20,2.50,5.60,1.53,0.00,0.00,8.00
237355116,-5.38,3.50,-7.75,-0.75,0.06,22.44,-0.05,0.12,-0.16,2.50,5.60,1.54,0.00,0.00,7.75
237365119,-5.38,3.50,-7.56,-0.38,0.25,22.62,0.05,0.04,-0.18,2.50,5.60,1.53,0.00,0.00,7.56
237375121,-5.38,3.50,-7.31,-0.12,1.12,23.56,-0.10,0.03,-0.22,2.50,5.60,1.54,0.00,0.00,7.31
237385123,-5.38,3.50,-7.06,-0.31,1.56,24.00,-0.11,-0.03,-0.19,2.50,5.60,1.54,0.00,0.00,7.06
237395126,-5.38,3.44,-6.88,-0.38,1.75,24.19,-0.15,0.00,-0.18,2.50,5.60,1.53,0.00,0.00,6.88
237405128,-5.38,3.44,-6.62,-0.31,2.25,24.31,-0.19,0.01,-0.23,2.50,5.60,1.53,0.00,0.00,6.62
237415132,-5.38,3.44,-6.38,-0.31,2.75,24.19,-0.25,0.04,-0.17,2.50,5.60,1.54,0.00,0.00,6.38
237425134,-5.38,3.38,-6.12,-0.25,3.38,23.81,-0.07,-0.03,-0.18,2.50,5.60,1.54,0.00,0.00,6.12
237435136,-5.31,3.38,-5.94,-0.06,3.56,23.56,0.09,0.08,-0.18,2.50,5.60,1.53,0.00,0.00,5.942
237445652,-5.31,3.38,-5.69,0.25,3.81,23.25,0.13,0.07,-0.17,2.50,5.60,1.53,0.00,0.00,5.692
237455665,-5.31,3.31,-5.50,0.50,3.62,22.75,0.17,0.01,-0.12,2.50,5.60,1.53,0.00,0.00,5.502
237467465,-5.25,3.31,-5.25,0.56,3.69,22.75,0.24,-0.08,-0.12,2.50,5.60,1.53,0.00,0.00,5.252
237477469,-5.25,3.31,-5.00,0.38,3.44,22.88,0.28,-0.36,-0.04,2.50,5.60,1.53,0.00,0.00,5.002
237488717,-5.25,3.25,-4.81,-0.25,3.56,23.06,0.35,-0.42,0.00,2.50,5.60,1.53,0.00,0.00,4.812
237499198,-5.19,3.25,-4.56,-0.81,3.38,23.19,0.24,-0.33,-0.01,2.50,5.60,1.53,0.00,0.00,4.56
237511659,-5.19,3.25,-4.38,-1.31,3.06,23.12,0.30,-0.29,-0.02,2.50,5.60,1.54,0.00,0.00,4.38
237521661,-5.19,3.25,-4.12,-1.56,3.06,23.06,0.47,0.13,-0.18,2.50,5.60,1.53,0.00,0.00,4.12
237532079,-5.19,3.25,-3.94,-1.31,2.75,22.69,0.48,0.14,-0.14,2.50,5.60,1.54,0.00,0.00,3.94
237542528,-5.12,3.25,-3.69,-1.44,2.38,22.56,0.55,0.09,-0.13,2.50,5.60,1.53,0.00,0.00,3.69
237552794,-5.12,3.19,-3.50,-1.06,2.00,22.31,0.55,0.09,-0.13,2.50,5.60,1.53,0.00,0.00,3.50
237562797,-5.12,3.19,-3.25,-0.94,1.75,22.19,0.58,0.00,-0.15,2.50,5.60,1.53,0.00,0.00,3.25
237572800,-5.12,3.19,-3.06,-0.94,1.38,22.56,0.46,-0.06,-0.17,2.50,5.60,1.53,0.00,0.00,3.06
237583519,-5.12,3.19,-2.81,-0.88,0.94,22.88,0.43,-0.06,-0.15,2.50,5.60,1.53,0.00,0.00,2.81
237593522,-5.06,3.19,-2.56,-1.00,0.62,23.00,0.47,-0.22,-0.12,2.50,5.60,1.53,0.00,0.00,2.56
237603526,-5.06,3.12,-2.38,-1.12,0.25,23.25,0.47,-0.22,-0.12,2.50,5.60,1.53,0.00,0.00,2.38
237613528,-5.00,3.12,-2.12,-1.38,-0.19,23.50,0.42,-0.09,-0.11,2.50,5.60,1.54,0.00,0.00,2.12
237623531,-5.00,3.12,-1.94,-1.62,-0.06,23.75,0.28,-0.15,-0.16,2.50,5.60,1.53,0.00,0.00,1.94
237633535,-5.00,3.12,-1.69,-1.88,-0.31,23.88,0.31,0.01,-0.17,2.50,5.60,1.53,0.00,0.00,1.69
237643539,-5.00,3.12,-1.44,-1.88,-0.50,24.00,0.26,-0.01,-0.16,2.50,5.60,1.54,0.00,0.00,1.44
237653599,-5.00,3.12,-1.19,-1.94,-0.81,23.94,0.26,-0.01,-0.16,2.50,5.60,1.53,0.00,0.00,1.19
237663603,-5.00,3.12,-1.00,-1.94,-1.06,23.62,0.12,-0.01,-0.16,2.50,5.60,1.53,0.00,0.00,1.00
237673607,-5.06,3.12,-0.75,-1.94,-1.12,23.44,0.07,0.05,-0.17,2.50,5.60,1.53,0.00,0.00,0.75
237684144,-5.06,3.12,-0.50,-2.06,-0.94,23.69,-0.09,0.02,-0.18,2.50,5.60,1.53,0.00,0.00,0.50
237694147,-5.06,3.12,-0.31,-2.12,-0.38,24.12,-0.13,0.03,-0.19,2.50,5.60,1.53,0.00,0.00,0.31
237704386,-5.06,3.12,-0.06,-2.12,-0.38,24.12,-0.05,0.11,-0.22,2.50,5.60,1.54,0.00,0.00,0.06
237714391,-5.12,3.12,0.19,-2.19,-0.19,24.44,-0.05,0.11,-0.22,2.50,5.60,1.53,0.00,0.00,-0.19
237724852,-5.12,3.12,0.44,-2.06,0.88,25.00,-0.12,0.06,-0.24,2.50,5.60,1.53,0.00,0.00,-0.44
237734855,-5.12,3.12,0.69,-2.00,1.50,24.62,-0.07,0.08,-0.25,2.50,5.60,1.53,0.00,0.00,-0.69
237744860,-5.12,3.12,0.88,-1.88,1.56,24.38,-0.05,-0.01,-0.19,2.50,5.60,1.53,0.00,0.00,-0.88
237754864,-5.12,3.06,1.12,-1.88,1.56,24.38,-0.05,-0.01,-0.19,2.50,5.60,1.53,0.00,0.00,-1.12
237764868,-5.12,3.06,1.38,-1.88,2.06,24.25,0.20,0.03,-0.13,2.50,5.60,1.53,0.00,0.00,-1.382
237774870,-5.12,3.06,1.62,-2.00,2.44,23.94,0.22,0.15,-0.18,2.50,5.60,1.53,0.00,0.00,-1.622
237785760,-5.12,3.06,1.81,-1.75,2.50,23.88,0.20,0.20,-0.24,2.50,5.60,1.53,0.00,0.00,-1.812
237795765,-5.06,3.06,2.06,-1.38,2.62,23.81,0.24,0.32,-0.28,2.50,5.60,1.53,0.00,0.00,-2.062
237807593,-5.06,3.06,2.56,-0.88,2.25,23.56,0.20,0.27,-0.27,2.50,5.60,1.53,0.00,0.00,-2.562
237817597,-5.06,3.06,2.75,-0.50,2.44,23.25,0.36,0.21,-0.22,2.50,5.60,1.53,0.00,0.00,-2.752
237828030,-5.00,3.06,3.00,-0.25,2.56,23.00,0.51,0.15,-0.20,2.50,5.60,1.53,0.00,0.00,-3.002
237838033,-5.00,3.06,3.19,-0.12,2.44,23.38,0.58,0.03,-0.11,2.50,5.60,1.53,0.00,0.00,-3.192
237848469,-5.00,3.00,3.44,-0.19,2.19,23.50,0.54,0.07,-0.10,2.50,5.60,1.53,0.00,0.00,-3.442
237858473,-4.94,3.00,3.69,-0.19,1.94,23.38,0.53,0.11,-0.11,2.50,5.60,1.53,0.00,0.00,-3.692
237868477,-4.94,3.00,3.88,-0.19,1.50,23.06,0.48,0.09,-0.11,2.50,5.60,1.53,0.00,0.00,-3.882
237878479,-4.94,2.94,4.12,-0.19,1.19,22.81,0.54,0.09,-0.18,2.50,5.60,1.53,0.00,0.00,-4.122
237888481,-4.94,2.94,4.31,-0.12,0.56,22.50,0.52,0.08,-0.21,2.50,5.60,1.53,0.00,0.00,-4.312
237901132,-4.88,2.94,4.56,0.06,0.25,22.19,0.50,0.22,-0.22,2.50,5.60,1.53,0.00,0.00,-4.562
237911136,-4.88,2.94,4.75,0.25,0.06,21.69,0.56,0.26,-0.19,2.50,5.60,1.53,0.00,0.00,-4.752
237921140,-4.81,3.00,4.94,0.50,-0.50,21.50,0.60,0.29,-0.21,2.50,5.60,1.52,0.00,0.00,-4.942
237931144,-4.75,3.00,5.12,0.75,-0.94,21.06,0.58,0.19,-0.24,2.50,5.60,1.53,0.00,0.00,-5.122
237941149,-4.69,2.94,5.38,0.75,-1.25,21.19,0.56,0.08,-0.19,2.50,5.60,1.54,0.00,0.00,-5.382
237951254,-4.69,2.94,5.56,0.62,-1.81,21.31,0.53,-0.04,-0.14,2.50,5.60,1.54,0.00,0.00,-5.56
237961257,-4.69,2.94,5.75,0.50,-2.12,21.44,0.26,0.01,-0.15,2.50,5.60,1.53,0.00,0.00,-5.75
237971262,-4.69,2.94,5.94,0.06,-2.12,20.75,0.25,0.00,-0.14,2.50,5.60,1.54,0.00,0.00,-5.94
237981266,-4.75,2.88,6.19,-0.06,-2.38,20.44,0.26,0.05,-0.19,2.50,5.60,1.54,0.00,0.00,-6.19
237992342,-4.75,2.88,6.38,0.00,-2.38,19.94,0.28,0.13,-0.19,2.50,5.60,1.53,0.00,0.00,-6.38
238006251,-4.81,2.88,6.56,-0.19,-2.38,19.75,0.44,0.17,-0.13,2.50,5.60,1.53,0.00,0.00,-6.56
238016257,-4.88,2.88,6.75,0.12,-2.31,19.62,0.34,0.18,-0.13,2.50,5.60,1.53,0.00,0.00,-6.75
238028686,-4.88,2.88,7.12,0.12,-2.06,20.62,0.33,0.15,-0.15,2.50,5.60,1.53,0.00,0.00,-7.12
238038690,-4.88,2.88,7.31,0.19,-2.06,21.06,0.28,0.18,-0.16,2.50,5.60,1.54,0.00,0.00,-7.31
238049309,-4.88,2.81,7.56,0.12,-1.81,21.44,0.10,0.19,-0.16,2.50,5.60,1.53,0.00,0.00,-7.56
238059312,-4.88,2.81,7.75,0.25,-1.62,21.69,0.13,0.27,-0.18,2.50,5.60,1.53,0.00,0.00,-7.75
238069316,-4.88,2.81,7.94,0.31,-1.31,21.62,0.15,0.22,-0.17,2.50,5.60,1.53,0.00,0.00,-7.94
238079320,-4.94,2.81,8.12,0.62,-1.19,21.12,-0.04,0.13,-0.17,2.50,5.60,1.53,0.00,0.00,-8.12
238089324,-4.94,2.75,8.38,1.00,-0.69,20.31,0.03,0.27,-0.23,2.50,5.60,1.53,0.00,0.00,-8.38
238099327,-4.94,2.75,8.56,1.12,-0.19,19.81,0.10,0.21,-0.19,2.50,5.60,1.54,0.00,0.00,-8.56
238109330,-4.94,2.75,8.75,1.12,0.06,19.38,0.08,0.16,-0.18,2.50,5.60,1.54,0.00,0.00,-8.75
238119333,-4.94,2.69,8.94,1.19,0.19,18.94,0.21,0.20,-0.20,2.50,5.60,1.53,0.00,0.00,-8.94
238129338,-4.94,2.69,9.12,1.06,0.19,19.00,0.39,0.02,-0.16,2.50,5.60,1.53,0.00,0.00,-9.12
238139524,-4.94,2.69,9.25,1.19,0.31,18.75,0.23,0.04,-0.17,2.50,5.60,1.54,0.00,0.00,-9.25
238149527,-4.94,2.62,9.44,0.88,0.31,18.75,0.12,0.13,-0.20,2.50,5.60,1.53,0.00,0.00,-9.44
238160900,-4.94,2.62,9.62,0.81,0.38,18.25,0.30,0.04,-0.23,2.50,5.60,1.53,0.00,0.00,-9.62
238170904,-4.94,2.62,9.81,0.81,0.38,17.94,0.28,0.00,-0.21,2.50,5.60,1.54,0.00,0.00,-9.81
238181804,-4.94,2.62,10.00,0.62,0.38,17.88,0.30,-0.02,-0.22,2.50,5.60,1.53,0.00,0.00,-10.00
238191807,-4.94,2.56,10.12,0.56,0.62,17.69,0.37,0.00,-0.10,2.50,5.60,1.53,0.00,0.00,-10.12
238203493,-4.94,2.56,10.31,0.44,0.44,18.06,0.23,0.01,-0.10,2.50,5.60,1.54,0.00,0.00,-10.31
238213497,-4.94,2.56,10.50,0.19,0.69,18.31,0.29,0.05,-0.14,2.50,5.60,1.54,0.00,0.00,-10.50
238225128,-4.94,2.56,10.69,0.00,0.56,18.25,0.19,0.12,-0.22,2.50,5.60,1.54,0.00,0.00,-10.69
238235157,-4.94,2.50,10.88,-0.12,0.69,18.06,0.37,0.16,-0.21,2.50,5.60,1.54,0.00,0.00,-10.88
238248151,-4.88,2.50,11.00,-0.12,0.94,17.50,0.42,0.05,-0.17,2.50,5.60,1.53,0.00,0.00,-11.00
238258155,-4.88,2.50,11.19,-0.25,0.69,17.50,0.36,0.03,-0.16,2.50,5.60,1.54,0.00,0.00,-11.19
238268159,-4.88,2.50,11.38,-0.31,0.62,17.38,0.53,-0.03,-0.08,2.50,5.60,1.53,0.00,0.00,-11.38
238278161,-4.81,2.50,11.56,-0.31,0.56,17.19,0.56,-0.07,-0.07,2.50,5.60,1.52,0.00,0.00,-11.56
238288625,-4.81,2.50,11.69,-0.38,0.25,17.00,0.46,-0.05,-0.04,2.50,5.60,1.53,0.00,0.00,-11.69
238298629,-4.75,2.44,11.88,-0.62,-0.19,17.00,0.51,-0.04,-0.05,2.50,5.60,1.53,0.00,0.00,-11.88
238309869,-4.69,2.44,12.19,-0.81,-0.44,16.69,0.37,0.01,-0.03,2.50,5.60,1.53,0.00,0.00,-12.19
238319879,-4.69,2.44,12.38,-0.88,-0.69,16.94,0.29,0.05,-0.08,2.50,5.60,1.53,0.00,0.00,-12.38
238329884,-4.69,2.44,12.50,-1.06,-0.81,16.88,0.30,0.08,-0.13,2.50,5.60,1.53,0.00,0.00,-12.50
238339910,-4.69,2.44,12.69,-0.94,-0.88,16.62,0.17,0.13,-0.17,2.50,5.60,1.53,0.00,0.00,-12.69
238350154,-4.69,2.44,12.81,-0.94,-0.94,16.25,0.06,0.01,-0.07,2.50,5.60,1.53,0.00,0.00,-12.81
238360158,-4.69,2.44,13.00,-1.00,-0.62,15.38,0.14,0.14,-0.06,2.50,5.60,1.53,0.00,0.00,-13.00
238370796,-4.69,2.44,13.12,-0.94,-0.50,14.75,0.12,0.01,-0.04,2.50,5.60,1.53,0.00,0.00,-13.12
238380800,-4.69,2.44,13.25,-1.06,-0.38,14.50,0.05,-0.02,-0.03,2.50,5.60,1.54,0.00,0.00,-13.25
238391208,-4.75,2.44,13.38,-1.38,-0.19,14.06,0.14,0.07,-0.04,2.50,5.60,1.53,0.00,0.00,-13.38
238401212,-4.75,2.44,13.56,-1.50,0.38,14.12,0.13,0.06,-0.07,2.50,5.60,1.53,0.00,0.00,-13.56
238412609,-4.75,2.44,13.69,-1.75,0.62,14.31,0.10,0.12,-0.13,2.50,5.60,1.52,0.00,0.00,-13.69
238422612,-4.69,2.44,13.81,-1.69,1.00,14.38,0.05,0.18,-0.13,2.50,5.60,1.53,0.00,0.00,-13.81
238434499,-4.69,2.44,13.94,-1.69,1.31,14.06,0.18,0.09,-0.19,2.50,5.60,1.53,0.00,0.00,-13.94
238445770,-4.69,2.50,14.12,-1.69,1.50,14.38,0.23,-0.01,-0.10,2.50,5.60,1.53,0.00,0.00,-14.12
238459497,-4.69,2.50,14.25,-1.75,2.00,15.00,0.22,-0.05,-0.11,2.50,5.60,1.53,0.00,0.00,-14.25
238469499,-4.62,2.50,14.38,-1.81,2.31,15.12,0.31,0.04,-0.14,2.50,5.60,1.53,0.00,0.00,-14.38
238480408,-4.62,2.50,14.69,-2.06,2.56,15.75,0.28,0.00,-0.16,2.50,5.60,1.53,0.00,0.00,-14.69
238490412,-4.56,2.50,14.81,-1.88,2.50,15.75,0.26,0.10,-0.16,2.50,5.60,1.54,0.00,0.00,-14.81
238500417,-4.56,2.50,15.00,-2.19,2.62,15.56,0.26,0.20,-0.20,2.50,5.60,1.53,0.00,0.00,-15.00
238510421,-4.56,2.50,15.00,-1.94,2.75,15.12,0.28,0.20,-0.23,2.50,5.60,1.53,0.00,0.00,-15.00
238520425,-4.50,2.56,15.12,-1.88,2.38,14.62,0.28,0.22,-0.21,2.50,5.60,1.53,0.00,0.00,-15.12
238530429,-4.44,2.56,15.44,-1.69,2.25,14.06,0.39,0.12,-0.20,2.50,5.60,1.53,0.00,0.00,-15.44
238540432,-4.38,2.56,15.56,-1.56,1.94,13.69,0.46,0.03,-0.15,2.50,5.60,1.53,0.00,0.00,-15.56
238550436,-4.38,2.62,15.69,-1.50,1.56,13.56,0.38,0.02,-0.13,2.50,5.60,1.53,0.00,0.00,-15.69
238562136,-4.31,2.62,15.81,-1.50,1.31,13.88,0.45,0.13,-0.17,2.50,5.60,1.54,0.00,0.00,-15.81
238572140,-4.31,2.62,15.94,-1.62,1.31,13.88,0.51,0.18,-0.18,2.50,5.60,1.53,0.00,0.00,-15.94
238582815,-4.25,2.62,16.06,-1.50,1.00,14.25,0.45,0.15,-0.19,2.50,5.60,1.53,0.00,0.00,-16.06
238592818,-4.25,2.69,16.25,-1.56,0.81,14.38,0.53,0.15,-0.23,2.50,5.60,1.53,0.00,0.00,-16.25
238602823,-4.19,2.69,16.38,-1.38,0.69,14.50,0.62,0.17,-0.23,2.50,5.60,1.54,0.00,0.00,-16.38
238612825,-4.12,2.69,16.50,-1.38,0.50,14.88,0.53,0.15,-0.19,2.50,5.60,1.53,0.00,0.00,-16.50
238622829,-4.12,2.69,16.62,-1.31,-0.12,14.88,0.48,0.20,-0.26,2.50,5.60,1.53,0.00,0.00,-16.62
238632831,-4.06,2.75,16.81,-1.06,-0.31,14.50,0.50,0.07,-0.24,2.50,5.60,1.53,0.00,0.00,-16.81
238642835,-4.06,2.75,16.94,-0.94,-0.81,14.12,0.33,0.14,-0.26,2.50,5.60,1.53,0.00,0.00,-16.94
238652840,-4.06,2.75,17.06,-0.88,-1.12,13.81,0.35,0.12,-0.28,2.50,5.60,1.53,0.00,0.00,-17.06
238662843,-4.06,2.75,17.19,-0.69,-1.12,13.38,0.37,0.05,-0.28,2.50,5.60,1.53,0.00,0.00,-17.19
238672845,-4.06,2.75,17.31,-0.69,-1.56,13.06,0.28,0.02,-0.28,2.50,5.60,1.52,0.00,0.00,-17.31
238682849,-4.06,2.75,17.44,-0.75,-1.56,13.06,0.38,0.02,-0.27,2.50,5.60,1.53,0.00,0.00,-17.44
238692854,-4.06,2.75,17.56,-0.88,-1.62,13.25,0.41,-0.10,-0.21,2.50,5.60,1.52,0.00,0.00,-17.56
238702869,-4.00,2.75,17.69,-1.12,-1.56,13.25,0.36,-0.10,-0.15,2.50,5.60,1.53,0.00,0.00,-17.69
238712871,-4.00,2.75,17.81,-1.25,-1.62,12.88,0.41,-0.01,-0.14,2.50,5.60,1.53,0.00,0.00,-17.81
238724820,-4.00,2.75,17.94,-1.50,-1.56,12.19,0.39,0.02,-0.13,2.50,5.60,1.53,0.00,0.00,-17.94
238734824,-4.00,2.75,18.06,-1.62,-1.75,11.62,0.28,0.07,-0.19,2.50,5.60,1.53,0.00,0.00,-18.06
238747843,-4.00,2.75,18.19,-1.62,-1.88,11.00,0.30,0.08,-0.23,2.50,5.60,1.54,0.00,0.00,-18.19
238757964,-4.00,2.81,18.25,-1.62,-1.81,10.44,0.30,0.08,-0.23,2.50,5.60,1.53,0.00,0.00,-18.25
238769858,-4.06,2.81,18.38,-1.56,-2.00,10.38,0.40,0.07,-0.21,2.50,5.60,1.53,0.00,0.00,-18.38
238779862,-4.06,2.81,18.44,-1.50,-2.00,10.38,0.45,0.16,-0.24,2.50,5.60,1.53,0.00,0.00,-18.44
238790688,-4.06,2.81,18.56,-1.19,-2.00,10.88,0.18,0.16,-0.25,2.50,5.60,1.52,0.00,0.00,-18.56
238800690,-4.06,2.88,18.69,-1.12,-1.94,11.31,0.17,0.14,-0.26,2.50,5.60,1.53,0.00,0.00,-18.69
238810693,-4.06,2.88,18.75,-0.88,-1.81,11.19,0.15,0.15,-0.27,2.50,5.60,1.52,0.00,0.00,-18.75
238820697,-4.06,2.88,18.88,-0.81,-1.88,11.06,0.05,0.11,-0.26,2.50,5.60,1.53,0.00,0.00,-18.88
238830702,-4.06,2.88,19.00,-0.81,-1.69,10.81,0.16,0.07,-0.24,2.50,5.60,1.53,0.00,0.00,-19.00
238840706,-4.12,2.88,19.06,-0.62,-1.19,10.81,0.19,0.07,-0.22,2.50,5.60,1.53,0.00,0.00,-19.06
238850714,-4.12,2.88,19.19,-0.69,-1.00,11.06,0.03,0.11,-0.21,2.50,5.60,1.53,0.00,0.00,-19.19
238860720,-4.12,2.88,19.31,-0.62,-0.94,11.50,0.10,0.12,-0.22,2.50,5.60,1.53,0.00,0.00,-19.31
238870723,-4.12,2.88,19.44,-0.50,-0.56,11.62,0.16,0.17,-0.20,2.50,5.60,1.53,0.00,0.00,-19.44
238880727,-4.19,2.88,19.50,-0.25,-0.56,11.62,0.13,0.13,-0.20,2.50,5.60,1.53,0.00,0.00,-19.50
238890729,-4.19,2.88,19.62,0.00,-0.19,11.75,0.18,0.11,-0.18,2.50,5.60,1.53,0.00,0.00,-19.62
