Time,sensPitch,sensRoll,sensYaw,xGyro,yGyro,ZGyro,xAcc,yAcc,zAcc,latitude,longitude,alt,cP,cR,cYI
94772248,-3.06,6.94,0.00,0.19,0.75,0.12,-0.10,0.00,-0.11,2.50,5.60,0.62,0.00,0.00,-0.12
94782980,-3.06,6.94,0.00,0.44,0.62,0.00,0.41,-0.19,-0.07,2.50,5.60,0.59,0.00,0.00,0.002
94795993,-3.06,6.94,0.00,-0.19,0.38,0.06,0.51,-0.17,-0.09,2.50,5.60,0.63,0.00,0.00,-0.06
94805996,-3.06,6.94,0.00,-0.19,-0.06,-0.06,0.52,-0.07,-0.09,2.50,5.60,0.59,0.00,0.00,0.06
94818308,-3.06,6.94,0.00,-0.31,-0.62,0.06,0.30,0.04,-0.14,2.50,5.60,0.60,0.00,0.00,-0.06
94828313,-3.06,6.94,0.00,-0.06,-0.81,-0.12,-0.19,0.14,-0.15,2.50,5.60,0.62,0.00,0.00,0.12
94840986,-3.06,6.94,0.00,0.19,-0.75,0.06,-0.42,0.08,-0.13,2.50,5.60,0.61,0.00,0.00,-0.06
94850990,-3.06,6.94,0.00,0.12,-0.31,-0.06,-0.52,0.00,-0.11,2.50,5.60,0.56,0.00,0.00,0.06
94863923,-3.06,6.94,0.00,0.19,0.25,0.00,0.10,-0.09,-0.10,2.50,5.60,0.55,0.00,0.00,0.0006
94874017,-3.06,6.94,0.00,-0.06,0.62,-0.06,0.32,-0.04,-0.12,2.50,5.60,0.54,0.00,0.00,0.06
94885763,-3.06,6.94,0.00,-0.25,0.50,0.00,0.52,0.03,-0.13,2.50,5.60,0.57,0.00,0.00,0.006
94895767,-3.06,6.94,0.00,0.00,-0.06,0.12,0.50,0.05,-0.14,2.50,5.60,0.55,0.00,0.00,-0.12
94905772,-3.06,6.94,0.00,0.19,-0.75,0.06,0.14,-0.05,-0.12,2.50,5.60,0.54,0.00,0.00,-0.06
94919268,-3.06,6.94,0.00,0.19,-0.81,-0.06,-0.16,-0.06,-0.10,2.50,5.60,0.53,0.00,0.00,0.06
94931745,-3.06,6.94,0.00,0.00,-0.88,0.06,-0.36,-0.10,-0.11,2.50,5.60,0.57,0.00,0.00,-0.06
94943270,-3.06,6.94,0.00,-0.12,-0.19,0.06,-0.25,0.06,-0.15,2.50,5.60,0.57,0.00,0.00,-0.06
94956762,-3.06,6.94,0.00,0.00,0.69,0.00,0.00,0.10,-0.17,2.50,5.60,0.56,0.00,0.00,0.00.06
94966765,-3.06,6.94,0.00,0.12,0.69,-0.06,0.24,0.05,-0.15,2.50,5.60,0.55,0.00,0.00,0.0606
94978983,-3.06,6.94,0.00,0.38,0.25,-0.12,0.51,-0.07,-0.12,2.50,5.60,0.54,0.00,0.00,0.126
94988987,-3.06,6.94,0.00,0.25,-0.06,0.12,0.41,-0.14,-0.08,2.50,5.60,0.55,0.00,0.00,-0.12
94998992,-3.06,6.94,0.00,-0.19,-0.56,-0.06,0.17,-0.17,-0.07,2.50,5.60,0.56,0.00,0.00,0.06
95008995,-3.06,6.94,0.00,-0.19,-0.81,-0.06,0.00,-0.04,-0.08,2.50,5.60,0.55,0.00,0.00,0.06
95020503,-3.06,6.94,0.00,-0.31,-0.69,0.06,-0.37,0.16,-0.17,2.50,5.60,0.56,0.00,0.00,-0.06
95032331,-3.06,6.94,0.00,-0.06,-0.31,0.00,-0.47,0.21,-0.18,2.50,5.60,0.55,0.00,0.00,0.00
95044227,-3.06,6.94,0.00,0.06,0.31,0.06,-0.11,0.03,-0.13,2.50,5.60,0.54,0.00,0.00,-0.06
95054369,-3.06,6.94,0.00,0.25,0.62,0.00,0.37,-0.17,-0.11,2.50,5.60,0.57,0.00,0.00,0.00
95064666,-3.06,6.94,0.00,0.38,0.75,-0.06,0.46,-0.18,-0.10,2.50,5.60,0.54,0.00,0.00,0.06
95074670,-3.06,6.94,0.00,-0.06,0.50,0.00,0.39,-0.11,-0.09,2.50,5.60,0.55,0.00,0.00,0.00
95086480,-3.06,6.94,0.00,-0.12,-0.56,0.06,0.33,0.00,-0.12,2.50,5.60,0.57,0.00,0.00,-0.06
95096482,-3.06,6.94,0.00,-0.12,-0.88,-0.06,-0.16,0.15,-0.14,2.50,5.60,0.55,0.00,0.00,0.06
95108920,-3.06,6.94,0.00,-0.06,-0.75,-0.12,-0.37,0.09,-0.13,2.50,5.60,0.55,0.00,0.00,0.12
95118923,-3.06,6.94,0.00,0.19,-0.31,0.06,-0.43,0.06,-0.14,2.50,5.60,0.53,0.00,0.00,-0.06
95129336,-3.06,6.94,0.00,0.25,0.06,0.12,-0.35,0.00,-0.12,2.50,5.60,0.57,0.00,0.00,-0.12
95139339,-3.06,6.94,0.00,0.12,0.56,-0.06,0.03,-0.02,-0.12,2.50,5.60,0.57,0.00,0.00,0.06
95151171,-3.06,6.94,0.00,-0.06,0.81,0.00,0.33,-0.09,-0.09,2.50,5.60,0.55,0.00,0.00,0.00
95162861,-3.06,6.94,0.00,-0.06,0.38,-0.12,0.48,-0.02,-0.12,2.50,5.60,0.53,0.00,0.00,0.12
95176978,-3.06,6.94,0.00,0.19,-0.50,0.00,0.06,-0.03,-0.14,2.50,5.60,0.57,0.00,0.00,0.00
95186981,-3.06,6.94,0.00,0.06,-0.81,-0.12,-0.13,-0.04,-0.10,2.50,5.60,0.54,0.00,0.00,0.12
95196984,-3.06,6.94,0.00,-0.06,-0.69,0.12,-0.30,-0.01,-0.11,2.50,5.60,0.56,0.00,0.00,-0.12
95206988,-3.06,6.94,0.00,-0.12,-0.38,-0.19,-0.47,0.00,-0.09,2.50,5.60,0.57,0.00,0.00,0.19
95218214,-3.06,6.94,0.00,-0.06,0.06,0.00,-0.19,0.09,-0.18,2.50,5.60,0.57,0.00,0.00,0.0019
95228216,-3.06,6.94,0.00,-0.06,0.75,-0.06,-0.02,0.14,-0.14,2.50,5.60,0.56,0.00,0.00,0.069
95239918,-3.06,6.94,0.00,-0.06,0.81,0.00,0.28,0.05,-0.14,2.50,5.60,0.56,0.00,0.00,0.0069
95249921,-3.06,6.94,0.00,0.06,0.56,0.00,0.42,-0.01,-0.09,2.50,5.60,0.58,0.00,0.00,0.0069
95261127,-3.06,6.94,0.00,0.31,0.12,0.06,0.39,-0.13,-0.09,2.50,5.60,0.57,0.00,0.00,-0.069
95271968,-3.06,6.94,0.00,0.12,-0.44,0.06,0.14,-0.12,-0.11,2.50,5.60,0.55,0.00,0.00,-0.069
95284311,-3.06,6.94,0.00,-0.06,-0.75,0.06,-0.28,0.02,-0.11,2.50,5.60,0.58,0.00,0.00,-0.06
95295340,-3.06,6.94,0.00,-0.25,-0.88,0.00,-0.32,0.18,-0.16,2.50,5.60,0.55,0.00,0.00,0.00
95306129,-3.06,6.94,0.00,-0.06,0.12,-0.06,-0.27,0.07,-0.13,2.50,5.60,0.55,0.00,0.00,0.06
95316132,-3.06,6.94,0.00,0.12,0.50,0.00,-0.07,0.01,-0.15,2.50,5.60,0.56,0.00,0.00,0.006
95326136,-3.06,6.94,0.00,0.12,0.44,0.00,0.11,-0.05,-0.09,2.50,5.60,0.55,0.00,0.00,0.006
95336139,-3.06,6.94,0.00,0.12,0.81,0.06,0.45,-0.11,-0.08,2.50,5.60,0.54,0.00,0.00,-0.06
95347151,-3.06,6.94,0.00,-0.06,0.06,-0.06,0.39,-0.09,-0.09,2.50,5.60,0.55,0.00,0.00,0.06
95357154,-3.06,6.94,0.00,-0.25,-0.31,0.00,0.28,-0.01,-0.12,2.50,5.60,0.55,0.00,0.00,0.00
95367157,-3.06,6.94,0.00,-0.25,-0.75,0.00,-0.01,0.06,-0.14,2.50,5.60,0.55,0.00,0.00,0.00
95377160,-3.06,6.94,0.00,0.00,-0.88,-0.12,-0.32,0.11,-0.18,2.50,5.60,0.55,0.00,0.00,0.12
95387164,-3.06,6.94,0.00,0.12,-0.56,0.00,-0.33,0.00,-0.10,2.50,5.60,0.55,0.00,0.00,0.00
95397169,-3.06,6.94,0.00,0.06,0.19,0.06,-0.27,-0.05,-0.10,2.50,5.60,0.55,0.00,0.00,-0.06
95408470,-3.06,6.94,0.00,0.06,0.56,0.00,-0.14,-0.05,-0.09,2.50,5.60,0.55,0.00,0.00,0.00
95418475,-3.06,6.94,0.00,-0.06,0.56,0.12,0.27,-0.04,-0.12,2.50,5.60,0.55,0.00,0.00,-0.12
95430108,-3.06,6.94,0.00,-0.12,0.44,0.00,0.42,-0.01,-0.11,2.50,5.60,0.55,0.00,0.00,0.00
95440111,-3.06,6.94,0.00,-0.06,0.00,-0.06,0.45,0.06,-0.10,2.50,5.60,0.55,0.00,0.00,0.06
95451316,-3.06,6.94,0.00,0.00,-0.19,0.06,0.32,0.02,-0.12,2.50,5.60,0.54,0.00,0.00,-0.06
95461490,-3.12,6.94,0.00,0.06,-0.69,0.06,-0.15,0.03,-0.12,2.50,5.60,0.56,0.00,0.00,-0.06
95474548,-3.12,6.94,0.00,0.25,-0.62,0.00,-0.28,-0.05,-0.09,2.50,5.60,0.55,0.00,0.00,0.00
95485678,-3.12,6.94,0.00,0.06,-0.31,0.06,-0.33,0.06,-0.12,2.50,5.60,0.54,0.00,0.00,-0.06
95497353,-3.12,6.94,0.00,-0.12,0.44,0.06,0.01,0.06,-0.13,2.50,5.60,0.58,0.00,0.00,-0.06
95507356,-3.12,6.94,0.00,0.00,0.56,0.06,0.22,0.07,-0.13,2.50,5.60,0.59,0.00,0.00,-0.06
95517393,-3.12,6.94,0.00,0.19,0.38,0.00,0.44,0.00,-0.15,2.50,5.60,0.56,0.00,0.00,0.00
95527398,-3.12,6.94,0.00,0.12,0.12,0.00,0.37,-0.11,-0.10,2.50,5.60,0.55,0.00,0.00,0.00
95537401,-3.12,6.94,0.00,0.12,-0.25,0.12,0.16,-0.10,-0.09,2.50,5.60,0.57,0.00,0.00,-0.12
95549159,-3.12,6.94,0.00,-0.12,-0.69,-0.06,-0.04,-0.04,-0.07,2.50,5.60,0.56,0.00,0.00,0.06
95559164,-3.12,6.94,0.00,-0.19,-0.50,0.19,-0.21,0.01,-0.15,2.50,5.60,0.56,0.00,0.00,-0.19
95569564,-3.12,6.94,0.00,-0.19,-0.44,0.00,-0.37,0.07,-0.15,2.50,5.60,0.56,0.00,0.00,0.00
95579567,-3.12,6.94,0.00,-0.06,0.12,0.06,-0.28,0.14,-0.16,2.50,5.60,0.58,0.00,0.00,-0.06
95589571,-3.12,6.94,0.00,0.31,0.56,0.00,-0.03,0.03,-0.15,2.50,5.60,0.56,0.00,0.00,0.006
95600385,-3.12,6.94,0.00,0.25,0.69,0.06,0.12,-0.06,-0.10,2.50,5.60,0.56,0.00,0.00,-0.06
95610389,-3.12,6.94,0.00,0.06,0.44,-0.25,0.28,-0.18,-0.08,2.50,5.60,0.57,0.00,0.00,0.25
95620394,-3.12,6.94,0.00,0.06,0.12,0.06,0.37,-0.05,-0.12,2.50,5.60,0.58,0.00,0.00,-0.06
95630397,-3.12,6.94,0.00,-0.12,-0.38,-0.06,0.22,0.00,-0.13,2.50,5.60,0.57,0.00,0.00,0.06
95640399,-3.12,6.94,0.00,-0.19,-0.75,-0.06,0.03,0.03,-0.15,2.50,5.60,0.57,0.00,0.00,0.06
95650402,-3.12,6.94,0.00,-0.19,-0.81,-0.06,-0.21,0.09,-0.15,2.50,5.60,0.58,0.00,0.00,0.06
95660405,-3.12,6.94,0.00,0.06,-0.50,0.00,-0.27,0.05,-0.11,2.50,5.60,0.57,0.00,0.00,0.006
95670409,-3.12,6.94,0.00,0.31,0.00,0.06,-0.29,0.00,-0.12,2.50,5.60,0.56,0.00,0.00,-0.06
95681151,-3.12,6.94,0.00,0.12,0.44,0.06,-0.14,-0.07,-0.08,2.50,5.60,0.59,0.00,0.00,-0.06
95691153,-3.12,6.94,0.00,0.06,0.75,0.12,0.14,-0.07,-0.10,2.50,5.60,0.56,0.00,0.00,-0.12
95703140,-3.12,6.94,0.00,-0.06,0.50,-0.06,0.36,-0.02,-0.13,2.50,5.60,0.55,0.00,0.00,0.06
95714378,-3.12,6.94,0.00,-0.12,0.06,0.00,0.36,-0.02,-0.13,2.50,5.60,0.58,0.00,0.00,0.00
95730677,-3.12,6.94,0.00,0.12,-0.62,0.00,0.05,0.03,-0.16,2.50,5.60,0.53,0.00,0.00,0.00
95740680,-3.12,6.94,0.00,-0.06,-0.62,0.00,-0.28,0.00,-0.11,2.50,5.60,0.57,0.00,0.00,0.00
95750684,-3.12,6.94,0.00,0.00,-0.56,-0.12,-0.37,-0.07,-0.08,2.50,5.60,0.56,0.00,0.00,0.12
95760688,-3.12,6.94,0.00,0.00,-0.19,0.00,-0.30,-0.04,-0.11,2.50,5.60,0.56,0.00,0.00,0.00
95770692,-3.12,6.94,0.00,-0.19,0.19,0.06,-0.12,0.07,-0.15,2.50,5.60,0.57,0.00,0.00,-0.06
95780697,-3.12,6.94,0.00,-0.06,0.69,-0.06,0.25,0.00,-0.15,2.50,5.60,0.58,0.00,0.00,0.06
95790701,-3.12,6.94,0.00,0.06,0.50,0.00,0.34,0.04,-0.12,2.50,5.60,0.56,0.00,0.00,0.0006
95800705,-3.12,6.94,0.00,0.12,0.12,0.06,0.39,0.01,-0.12,2.50,5.60,0.55,0.00,0.00,-0.066
95810709,-3.12,6.94,0.00,0.12,-0.38,-0.06,0.39,-0.13,-0.07,2.50,5.60,0.56,0.00,0.00,0.06
95820713,-3.12,6.94,0.00,0.06,-0.62,0.00,-0.03,-0.04,-0.11,2.50,5.60,0.59,0.00,0.00,0.00
95830716,-3.12,6.94,0.00,-0.12,-0.69,-0.06,-0.21,0.00,-0.09,2.50,5.60,0.58,0.00,0.00,0.06
95840720,-3.12,6.94,0.00,-0.25,-0.38,0.06,-0.29,0.15,-0.15,2.50,5.60,0.56,0.00,0.00,-0.06
95850725,-3.12,6.94,0.00,-0.12,-0.06,0.00,-0.33,0.22,-0.15,2.50,5.60,0.56,0.00,0.00,0.00
95860730,-3.12,6.94,0.00,0.19,0.38,-0.06,-0.06,0.04,-0.14,2.50,5.60,0.57,0.00,0.00,0.06
95870734,-3.12,6.94,0.00,0.19,0.50,0.12,0.21,-0.03,-0.11,2.50,5.60,0.57,0.00,0.00,-0.12
95880737,-3.12,6.94,0.00,0.12,0.62,-0.12,0.32,-0.15,-0.07,2.50,5.60,0.58,0.00,0.00,0.12
95890741,-3.12,6.94,0.00,0.00,0.31,0.12,0.42,-0.18,-0.07,2.50,5.60,0.57,0.00,0.00,-0.12
95900745,-3.12,6.94,0.00,-0.06,0.00,0.06,0.25,-0.03,-0.11,2.50,5.60,0.55,0.00,0.00,-0.06
95910748,-3.12,6.94,0.00,-0.06,-0.62,0.06,0.02,0.10,-0.14,2.50,5.60,0.56,0.00,0.00,-0.06
95920750,-3.12,6.94,0.00,-0.19,-0.69,0.19,-0.09,0.15,-0.16,2.50,5.60,0.59,0.00,0.00,-0.19
95930753,-3.12,6.94,0.00,0.06,-0.62,0.00,-0.26,0.05,-0.11,2.50,5.60,0.56,0.00,0.00,0.009
95940757,-3.12,6.94,0.00,0.06,-0.25,0.06,-0.27,-0.04,-0.12,2.50,5.60,0.56,0.00,0.00,-0.06
95950760,-3.12,6.94,0.00,0.19,-0.06,-0.12,-0.05,-0.08,-0.08,2.50,5.60,0.54,0.00,0.00,0.12
95960764,-3.12,6.94,0.00,0.06,0.50,-0.06,0.07,-0.05,-0.10,2.50,5.60,0.58,0.00,0.00,0.062
95970767,-3.12,6.94,0.00,-0.12,0.44,-0.06,0.35,-0.07,-0.16,2.50,5.60,0.55,0.00,0.00,0.06
95980769,-3.12,6.94,0.00,-0.06,0.25,-0.06,0.32,0.09,-0.13,2.50,5.60,0.56,0.00,0.00,0.06
95990772,-3.12,6.94,0.00,0.00,-0.06,0.00,0.29,0.08,-0.13,2.50,5.60,0.59,0.00,0.00,0.00
96000775,-3.12,6.94,0.00,0.06,-0.25,0.06,0.08,0.00,-0.12,2.50,5.60,0.57,0.00,0.00,-0.06
96010780,-3.12,6.94,0.00,0.19,-0.75,-0.06,-0.24,-0.02,-0.11,2.50,5.60,0.55,0.00,0.00,0.06
96020783,-3.12,6.94,0.00,0.06,-0.50,-0.06,-0.26,-0.05,-0.12,2.50,5.60,0.58,0.00,0.00,0.06
96030788,-3.12,6.94,0.00,0.00,-0.25,0.06,-0.26,0.01,-0.10,2.50,5.60,0.56,0.00,0.00,-0.06
96041437,-3.12,6.94,0.00,0.00,0.38,-0.06,-0.14,0.03,-0.10,2.50,5.60,0.56,0.00,0.00,0.06
96051440,-3.12,6.94,0.00,-0.06,0.31,-0.12,0.20,0.02,-0.12,2.50,5.60,0.56,0.00,0.00,0.12
96062156,-3.12,6.94,0.00,0.06,0.50,-0.06,0.35,-0.02,-0.13,2.50,5.60,0.56,0.00,0.00,0.06
96072158,-3.12,6.94,0.00,0.12,0.19,0.00,0.35,-0.07,-0.12,2.50,5.60,0.57,0.00,0.00,0.00
96082840,-3.12,6.94,0.00,0.06,-0.19,0.06,0.25,-0.09,-0.09,2.50,5.60,0.57,0.00,0.00,-0.06
96092844,-3.12,6.94,0.00,0.19,-0.38,0.06,-0.02,-0.04,-0.11,2.50,5.60,0.56,0.00,0.00,-0.06
96102847,-3.12,6.94,0.00,-0.06,-0.56,0.06,-0.17,0.10,-0.14,2.50,5.60,0.54,0.00,0.00,-0.06
96112850,-3.12,6.94,0.00,-0.12,-0.50,0.12,-0.28,0.10,-0.15,2.50,5.60,0.57,0.00,0.00,-0.12
96122855,-3.12,6.94,0.00,0.00,0.00,-0.06,-0.26,0.12,-0.16,2.50,5.60,0.57,0.00,0.00,0.06
96132859,-3.12,6.94,0.00,-0.06,0.06,0.06,0.01,0.02,-0.13,2.50,5.60,0.57,0.00,0.00,-0.06
96142862,-3.12,6.94,0.00,0.12,0.31,0.06,0.16,-0.05,-0.11,2.50,5.60,0.58,0.00,0.00,-0.06
96152865,-3.12,6.94,0.00,0.31,0.56,-0.12,0.27,-0.12,-0.10,2.50,5.60,0.56,0.00,0.00,0.12
96162868,-3.12,6.94,0.00,0.06,-0.06,0.06,0.35,-0.13,-0.08,2.50,5.60,0.58,0.00,0.00,-0.06
96173463,-3.12,6.94,0.00,0.00,-0.19,-0.12,0.21,-0.01,-0.13,2.50,5.60,0.57,0.00,0.00,0.12
96183468,-3.12,6.94,0.00,-0.06,-0.50,-0.06,0.02,0.03,-0.11,2.50,5.60,0.57,0.00,0.00,0.06
96193471,-3.12,6.94,0.00,-0.06,-0.56,0.00,-0.10,0.07,-0.15,2.50,5.60,0.56,0.00,0.00,0.00
96203473,-3.12,6.94,0.00,-0.06,-0.56,0.00,-0.25,0.11,-0.17,2.50,5.60,0.56,0.00,0.00,0.00
96213476,-3.12,6.94,0.00,0.06,0.06,0.00,-0.21,0.00,-0.12,2.50,5.60,0.59,0.00,0.00,0.00
96223480,-3.12,6.94,0.00,0.06,0.31,0.06,-0.06,-0.01,-0.13,2.50,5.60,0.56,0.00,0.00,-0.06
96233484,-3.12,6.94,0.00,0.25,0.31,0.06,0.08,-0.01,-0.11,2.50,5.60,0.58,0.00,0.00,-0.06
96243487,-3.12,6.94,0.00,0.06,0.38,-0.12,0.26,0.00,-0.10,2.50,5.60,0.56,0.00,0.00,0.12
96253490,-3.12,6.94,0.00,-0.19,0.06,-0.19,0.30,0.02,-0.13,2.50,5.60,0.55,0.00,0.00,0.19
96263492,-3.12,6.94,0.00,-0.19,-0.12,0.00,0.24,0.02,-0.13,2.50,5.60,0.57,0.00,0.00,0.00
96273496,-3.12,6.94,0.00,-0.12,-0.19,0.12,0.06,0.02,-0.14,2.50,5.60,0.55,0.00,0.00,-0.12
96283501,-3.12,6.94,0.00,0.06,-0.56,-0.06,-0.10,0.00,-0.14,2.50,5.60,0.54,0.00,0.00,0.06
96293504,-3.12,6.94,0.00,-0.06,-0.81,-0.06,-0.26,-0.05,-0.09,2.50,5.60,0.56,0.00,0.00,0.06
96303507,-3.12,6.94,0.00,0.06,-0.31,-0.06,-0.21,-0.01,-0.10,2.50,5.60,0.53,0.00,0.00,0.06
96313511,-3.12,6.94,0.00,0.12,0.19,-0.06,-0.08,0.03,-0.09,2.50,5.60,0.56,0.00,0.00,0.066
96323516,-3.12,6.94,0.00,-0.06,0.44,-0.12,0.09,0.07,-0.17,2.50,5.60,0.53,0.00,0.00,0.126
96333520,-3.12,6.94,0.00,-0.06,0.50,0.06,0.32,0.03,-0.11,2.50,5.60,0.54,0.00,0.00,-0.066
96344281,-3.12,6.94,0.00,0.00,0.19,-0.06,0.34,-0.01,-0.13,2.50,5.60,0.56,0.00,0.00,0.066
96354285,-3.12,6.94,0.00,0.00,-0.06,0.12,0.27,-0.08,-0.07,2.50,5.60,0.55,0.00,0.00,-0.12
96364287,-3.12,6.94,0.00,0.06,-0.31,-0.06,0.10,-0.07,-0.08,2.50,5.60,0.56,0.00,0.00,0.06
96374291,-3.12,6.94,0.00,-0.12,-0.56,-0.06,-0.17,0.00,-0.12,2.50,5.60,0.55,0.00,0.00,0.06
96384293,-3.12,6.94,0.00,-0.12,-0.38,0.06,-0.24,0.04,-0.16,2.50,5.60,0.56,0.00,0.00,-0.06
96394296,-3.12,6.94,0.00,-0.19,-0.12,0.06,-0.21,0.10,-0.13,2.50,5.60,0.57,0.00,0.00,-0.06
96404300,-3.12,6.94,0.00,0.00,0.25,-0.06,-0.13,0.08,-0.11,2.50,5.60,0.56,0.00,0.00,0.066
96414304,-3.12,6.94,0.00,0.00,0.06,-0.06,0.13,0.00,-0.13,2.50,5.60,0.55,0.00,0.00,0.066
96424306,-3.12,6.94,0.00,0.31,0.44,-0.06,0.30,-0.05,-0.11,2.50,5.60,0.57,0.00,0.00,0.066
96434308,-3.12,6.94,0.00,0.06,0.50,0.19,0.29,-0.11,-0.10,2.50,5.60,0.55,0.00,0.00,-0.196
96444311,-3.12,6.94,0.00,0.00,-0.06,0.06,0.25,-0.07,-0.11,2.50,5.60,0.55,0.00,0.00,-0.06
96454314,-3.12,6.94,0.00,-0.12,-0.44,-0.19,0.02,0.04,-0.11,2.50,5.60,0.56,0.00,0.00,0.19
96464317,-3.19,6.94,0.00,-0.06,-0.62,0.12,-0.13,0.11,-0.13,2.50,5.60,0.55,0.00,0.00,-0.12
96474331,-3.19,6.94,0.00,-0.06,-0.62,0.06,-0.20,0.09,-0.14,2.50,5.60,0.56,0.00,0.00,-0.06
96484940,-3.19,6.94,0.00,0.25,-0.31,-0.06,-0.22,0.05,-0.14,2.50,5.60,0.54,0.00,0.00,0.06
96494943,-3.19,6.94,0.00,0.12,0.00,0.00,-0.01,-0.01,-0.11,2.50,5.60,0.55,0.00,0.00,0.00
96506958,-3.19,6.94,0.00,0.25,0.25,-0.06,0.08,-0.09,-0.09,2.50,5.60,0.56,0.00,0.00,0.06
96517421,-3.19,6.94,0.00,0.06,0.38,-0.12,0.22,-0.02,-0.08,2.50,5.60,0.55,0.00,0.00,0.12
96531992,-3.19,6.94,0.00,-0.19,0.06,0.00,0.22,0.04,-0.13,2.50,5.60,0.57,0.00,0.00,0.00
96541995,-3.19,6.94,0.00,-0.06,-0.50,0.06,0.06,0.05,-0.11,2.50,5.60,0.57,0.00,0.00,-0.06
96551999,-3.19,6.94,0.00,0.06,-0.31,0.00,-0.07,0.00,-0.12,2.50,5.60,0.56,0.00,0.00,0.00
96562001,-3.19,6.94,0.00,0.06,-0.31,0.00,-0.20,-0.04,-0.11,2.50,5.60,0.57,0.00,0.00,0.00
96572006,-3.19,6.94,0.00,0.06,-0.12,-0.06,-0.19,-0.03,-0.13,2.50,5.60,0.55,0.00,0.00,0.06
96582010,-3.19,6.94,0.00,0.00,0.25,0.06,-0.08,0.01,-0.11,2.50,5.60,0.57,0.00,0.00,-0.066
96592013,-3.19,6.94,0.00,-0.12,0.19,-0.06,0.06,0.01,-0.14,2.50,5.60,0.56,0.00,0.00,0.066
96602854,-3.19,6.94,0.00,0.00,0.31,0.00,0.21,0.05,-0.14,2.50,5.60,0.57,0.00,0.00,0.0066
96612856,-3.19,6.94,0.00,0.06,0.00,-0.06,0.31,-0.03,-0.12,2.50,5.60,0.55,0.00,0.00,0.06
96623998,-3.19,6.94,0.00,0.06,-0.56,-0.19,0.23,-0.03,-0.13,2.50,5.60,0.56,0.00,0.00,0.19
96634001,-3.19,6.94,0.00,0.06,-0.44,-0.06,0.09,-0.06,-0.13,2.50,5.60,0.56,0.00,0.00,0.06
96644974,-3.19,6.94,0.00,0.00,-0.44,0.06,-0.02,-0.03,-0.14,2.50,5.60,0.55,0.00,0.00,-0.06
96654978,-3.19,6.94,0.00,-0.12,-0.19,-0.12,-0.21,0.05,-0.13,2.50,5.60,0.56,0.00,0.00,0.12
96665687,-3.19,6.94,0.00,0.00,-0.12,0.06,-0.18,0.10,-0.13,2.50,5.60,0.58,0.00,0.00,-0.06
96675701,-3.19,6.94,0.00,0.12,0.25,0.00,-0.09,0.07,-0.14,2.50,5.60,0.57,0.00,0.00,0.006
96686501,-3.19,6.94,0.00,0.12,0.19,-0.06,0.02,0.05,-0.13,2.50,5.60,0.55,0.00,0.00,0.066
96696504,-3.19,6.94,0.00,0.00,0.25,0.12,0.26,-0.07,-0.10,2.50,5.60,0.55,0.00,0.00,-0.12
96707095,-3.19,6.94,0.00,-0.06,0.12,0.19,0.26,-0.08,-0.09,2.50,5.60,0.57,0.00,0.00,-0.19
96717661,-3.19,6.94,0.00,0.00,-0.31,-0.06,0.23,-0.07,-0.09,2.50,5.60,0.55,0.00,0.00,0.06
96731552,-3.19,6.94,0.00,-0.19,-0.44,-0.06,-0.11,0.08,-0.13,2.50,5.60,0.54,0.00,0.00,0.06
96741863,-3.19,6.94,0.00,-0.06,-0.50,0.00,-0.19,0.08,-0.14,2.50,5.60,0.57,0.00,0.00,0.00
96755939,-3.19,6.94,0.00,0.12,-0.06,0.00,-0.19,0.04,-0.09,2.50,5.60,0.58,0.00,0.00,0.00
96765941,-3.19,6.94,0.00,0.12,0.25,0.00,-0.12,0.00,-0.10,2.50,5.60,0.55,0.00,0.00,0.00
96775943,-3.19,6.94,0.00,0.06,0.25,0.00,0.13,-0.06,-0.11,2.50,5.60,0.57,0.00,0.00,0.00
96785947,-3.19,6.94,0.00,-0.12,0.19,-0.06,0.22,-0.04,-0.11,2.50,5.60,0.55,0.00,0.00,0.06
96795951,-3.19,6.94,0.00,-0.19,0.12,-0.06,0.29,-0.01,-0.12,2.50,5.60,0.56,0.00,0.00,0.06
96805956,-3.19,6.94,0.00,-0.19,-0.25,0.00,0.26,0.02,-0.13,2.50,5.60,0.55,0.00,0.00,0.00
96815961,-3.19,6.94,0.00,0.00,-0.44,-0.06,0.04,0.03,-0.13,2.50,5.60,0.56,0.00,0.00,0.06
96827571,-3.19,6.94,0.00,0.00,-0.44,-0.06,-0.06,0.02,-0.15,2.50,5.60,0.55,0.00,0.00,0.06
96837574,-3.19,6.94,0.00,0.06,-0.50,-0.06,-0.15,0.00,-0.11,2.50,5.60,0.55,0.00,0.00,0.06
96848979,-3.19,6.94,0.00,-0.06,-0.06,0.00,-0.20,-0.02,-0.10,2.50,5.60,0.55,0.00,0.00,0.00
96858984,-3.19,6.94,0.00,-0.06,0.19,0.00,-0.05,0.00,-0.10,2.50,5.60,0.54,0.00,0.00,0.00
96870801,-3.19,6.94,0.00,-0.06,0.50,-0.06,0.19,0.04,-0.15,2.50,5.60,0.57,0.00,0.00,0.06
96881566,-3.19,6.94,0.00,-0.06,0.12,-0.06,0.27,0.03,-0.13,2.50,5.60,0.55,0.00,0.00,0.06
96893830,-3.19,6.94,0.00,0.00,-0.25,-0.12,0.19,-0.03,-0.11,2.50,5.60,0.60,0.00,0.00,0.12
96903834,-3.19,6.94,0.00,0.06,-0.50,0.06,0.07,-0.04,-0.10,2.50,5.60,0.56,0.00,0.00,-0.06
96915449,-3.19,6.94,0.00,0.06,-0.56,-0.06,-0.03,-0.03,-0.15,2.50,5.60,0.55,0.00,0.00,0.06
96925453,-3.19,6.94,0.00,-0.19,-0.44,0.06,-0.14,0.00,-0.12,2.50,5.60,0.55,0.00,0.00,-0.06
96935456,-3.19,6.94,0.00,-0.12,0.00,-0.06,-0.16,0.07,-0.15,2.50,5.60,0.55,0.00,0.00,0.06
96945459,-3.19,6.94,0.00,0.06,0.19,-0.06,-0.08,0.07,-0.13,2.50,5.60,0.52,0.00,0.00,0.066
96955462,-3.19,6.94,0.00,0.06,0.44,0.00,0.03,0.04,-0.14,2.50,5.60,0.56,0.00,0.00,0.0066
96965466,-3.19,6.94,0.00,0.19,0.25,0.00,0.24,-0.03,-0.11,2.50,5.60,0.55,0.00,0.00,0.006
96975470,-3.19,6.94,0.00,0.00,0.00,0.12,0.25,-0.07,-0.12,2.50,5.60,0.58,0.00,0.00,-0.12
96985474,-3.19,6.94,0.00,-0.06,-0.19,0.00,0.23,-0.06,-0.10,2.50,5.60,0.55,0.00,0.00,0.00
96995479,-3.19,6.94,0.00,-0.12,-0.44,0.06,0.13,-0.01,-0.11,2.50,5.60,0.53,0.00,0.00,-0.06
97005482,-3.19,6.94,0.00,-0.19,-0.56,-0.12,-0.09,0.04,-0.13,2.50,5.60,0.58,0.00,0.00,0.12
97015485,-3.19,6.94,0.00,0.00,-0.19,0.12,-0.15,0.09,-0.15,2.50,5.60,0.54,0.00,0.00,-0.12
97025488,-3.19,6.94,0.00,0.06,0.00,-0.06,-0.18,0.05,-0.13,2.50,5.60,0.55,0.00,0.00,0.06
97035492,-3.19,6.94,0.00,0.25,0.19,0.06,-0.12,0.01,-0.12,2.50,5.60,0.56,0.00,0.00,-0.06
97045494,-3.19,6.94,0.00,0.00,0.44,0.00,0.13,-0.07,-0.10,2.50,5.60,0.55,0.00,0.00,0.00
97055498,-3.19,6.94,0.00,-0.06,0.25,0.06,0.21,-0.05,-0.11,2.50,5.60,0.56,0.00,0.00,-0.06
97065503,-3.19,6.94,0.00,-0.12,0.25,-0.12,0.25,-0.02,-0.12,2.50,5.60,0.53,0.00,0.00,0.12
97075506,-3.19,6.94,0.00,0.00,-0.12,0.00,0.25,0.01,-0.13,2.50,5.60,0.56,0.00,0.00,0.002
97085509,-3.19,6.94,0.00,0.06,-0.31,0.12,0.05,0.02,-0.14,2.50,5.60,0.57,0.00,0.00,-0.12
97095513,-3.19,6.94,0.00,0.06,-0.44,0.06,-0.07,0.02,-0.11,2.50,5.60,0.55,0.00,0.00,-0.06
97105517,-3.19,6.94,0.00,0.06,-0.44,0.00,-0.15,0.00,-0.11,2.50,5.60,0.56,0.00,0.00,0.00
97115522,-3.19,6.94,0.00,0.12,0.00,0.06,-0.16,-0.02,-0.12,2.50,5.60,0.55,0.00,0.00,-0.06
97125525,-3.19,6.94,0.00,0.06,0.25,0.00,-0.02,0.00,-0.12,2.50,5.60,0.53,0.00,0.00,0.006
97135530,-3.19,6.94,0.00,0.06,0.19,-0.06,0.08,0.01,-0.10,2.50,5.60,0.53,0.00,0.00,0.066
97145532,-3.19,6.94,0.00,0.06,0.19,-0.06,0.18,0.02,-0.13,2.50,5.60,0.56,0.00,0.00,0.066
97155537,-3.19,6.94,0.00,-0.19,0.31,0.12,0.24,0.01,-0.14,2.50,5.60,0.55,0.00,0.00,-0.126
97165540,-3.19,6.94,0.00,0.19,-0.31,0.06,0.17,-0.03,-0.13,2.50,5.60,0.54,0.00,0.00,-0.06
97176149,-3.19,6.94,0.00,0.00,-0.56,0.06,0.07,-0.03,-0.13,2.50,5.60,0.55,0.00,0.00,-0.06
97186154,-3.19,6.94,0.00,0.06,-0.56,0.06,-0.05,-0.03,-0.11,2.50,5.60,0.57,0.00,0.00,-0.06
97196156,-3.19,6.94,0.00,0.12,-0.19,-0.12,-0.13,-0.01,-0.10,2.50,5.60,0.55,0.00,0.00,0.12
97206159,-3.19,6.94,0.00,-0.19,0.25,0.06,-0.12,0.04,-0.14,2.50,5.60,0.56,0.00,0.00,-0.06
97216162,-3.19,6.94,0.00,0.00,0.31,0.00,-0.05,0.06,-0.15,2.50,5.60,0.55,0.00,0.00,0.006
97226165,-3.19,6.94,0.00,0.19,0.31,0.12,0.03,0.02,-0.15,2.50,5.60,0.55,0.00,0.00,-0.126
97236168,-3.19,6.94,0.00,0.12,0.31,-0.06,0.14,0.01,-0.11,2.50,5.60,0.57,0.00,0.00,0.066
97246172,-3.19,6.94,0.00,0.12,0.19,0.12,0.24,-0.05,-0.09,2.50,5.60,0.56,0.00,0.00,-0.12
97256174,-3.19,6.94,0.00,0.06,0.00,0.00,0.20,-0.07,-0.11,2.50,5.60,0.55,0.00,0.00,0.00
97266178,-3.19,6.94,0.00,-0.12,-0.44,0.12,0.10,0.00,-0.09,2.50,5.60,0.56,0.00,0.00,-0.12
97276181,-3.19,6.94,0.00,-0.06,-0.50,0.00,-0.02,0.00,-0.13,2.50,5.60,0.55,0.00,0.00,0.00
97286184,-3.19,6.94,0.00,0.00,-0.12,-0.06,-0.15,0.07,-0.15,2.50,5.60,0.57,0.00,0.00,0.06
97297887,-3.19,6.94,0.00,0.06,-0.12,-0.06,-0.15,0.02,-0.14,2.50,5.60,0.55,0.00,0.00,0.06
97307891,-3.19,6.94,0.00,0.00,0.25,0.12,-0.09,0.03,-0.12,2.50,5.60,0.56,0.00,0.00,-0.12
97319186,-3.19,6.94,0.00,0.12,0.38,0.00,0.01,-0.04,-0.10,2.50,5.60,0.54,0.00,0.00,0.00
97329189,-3.19,6.94,0.00,0.00,0.25,0.00,0.20,-0.07,-0.10,2.50,5.60,0.55,0.00,0.00,0.00
97339192,-3.12,6.94,0.00,-0.06,0.00,0.12,0.25,-0.02,-0.12,2.50,5.60,0.56,0.00,0.00,-0.12
97349579,-3.12,6.94,0.00,0.06,-0.25,0.06,0.22,-0.05,-0.12,2.50,5.60,0.54,0.00,0.00,-0.06
97359584,-3.12,6.94,0.00,0.00,-0.44,-0.06,0.12,0.02,-0.14,2.50,5.60,0.57,0.00,0.00,0.06
97369962,-3.12,6.94,0.00,0.06,-0.50,0.06,-0.04,0.02,-0.14,2.50,5.60,0.54,0.00,0.00,-0.06
97379965,-3.12,6.94,0.00,0.12,-0.38,-0.06,-0.14,0.00,-0.13,2.50,5.60,0.58,0.00,0.00,0.06
97389969,-3.12,6.94,0.00,0.06,-0.06,0.12,-0.08,0.02,-0.15,2.50,5.60,0.58,0.00,0.00,-0.12
97399971,-3.12,6.94,0.00,-0.06,0.00,-0.06,-0.09,0.00,-0.10,2.50,5.60,0.54,0.00,0.00,0.06
97409973,-3.12,6.94,0.00,-0.12,0.19,-0.12,0.06,0.03,-0.10,2.50,5.60,0.57,0.00,0.00,0.1206
97419977,-3.12,6.94,0.00,0.00,0.12,0.12,0.18,0.04,-0.10,2.50,5.60,0.56,0.00,0.00,-0.1206
97432700,-3.12,6.94,0.00,-0.12,0.19,0.06,0.28,0.04,-0.15,2.50,5.60,0.57,0.00,0.00,-0.0606
97444005,-3.12,6.94,0.00,0.06,-0.12,0.00,0.06,-0.06,-0.09,2.50,5.60,0.57,0.00,0.00,0.0006
97457881,-3.12,6.94,0.00,0.12,-0.50,0.00,-0.04,-0.01,-0.12,2.50,5.60,0.56,0.00,0.00,0.006
97467885,-3.12,6.94,0.00,-0.06,-0.56,-0.12,-0.11,0.03,-0.13,2.50,5.60,0.57,0.00,0.00,0.12
97477887,-3.12,6.94,0.00,-0.06,-0.12,-0.06,-0.19,0.02,-0.14,2.50,5.60,0.54,0.00,0.00,0.06
97488429,-3.12,6.94,0.00,0.00,0.19,0.00,-0.04,0.10,-0.16,2.50,5.60,0.54,0.00,0.00,0.0006
97498432,-3.12,6.94,0.00,-0.06,0.25,0.12,0.07,0.00,-0.12,2.50,5.60,0.55,0.00,0.00,-0.12
97509266,-3.12,6.94,0.00,0.06,0.19,0.06,0.10,-0.07,-0.12,2.50,5.60,0.57,0.00,0.00,-0.06
97519268,-3.12,6.94,0.00,0.00,0.06,0.06,0.19,-0.05,-0.08,2.50,5.60,0.56,0.00,0.00,-0.06
97529271,-3.12,6.94,0.00,0.00,0.00,0.12,0.18,-0.07,-0.10,2.50,5.60,0.56,0.00,0.00,-0.12
97539275,-3.12,6.94,0.00,-0.12,-0.25,0.00,0.05,-0.01,-0.14,2.50,5.60,0.57,0.00,0.00,0.00
97549280,-3.12,6.94,0.00,-0.25,-0.19,0.00,-0.03,0.01,-0.11,2.50,5.60,0.56,0.00,0.00,0.00
97559283,-3.12,6.94,0.00,-0.06,-0.50,0.00,-0.15,0.00,-0.14,2.50,5.60,0.55,0.00,0.00,0.00
97569286,-3.12,6.94,0.00,0.00,-0.06,0.19,-0.16,0.06,-0.15,2.50,5.60,0.57,0.00,0.00,-0.19
97579289,-3.12,6.94,0.00,0.12,0.25,0.00,-0.08,-0.03,-0.16,2.50,5.60,0.55,0.00,0.00,0.00
97589302,-3.12,6.94,0.00,0.06,0.31,-0.06,0.01,-0.03,-0.10,2.50,5.60,0.57,0.00,0.00,0.06
97599308,-3.12,6.94,0.00,0.00,0.31,0.00,0.13,0.00,-0.09,2.50,5.60,0.56,0.00,0.00,0.00
97609312,-3.12,6.94,0.00,-0.06,0.06,-0.12,0.18,-0.03,-0.13,2.50,5.60,0.56,0.00,0.00,0.12
97619317,-3.12,6.94,0.00,0.12,0.06,0.12,0.21,0.00,-0.13,2.50,5.60,0.57,0.00,0.00,-0.12
97629321,-3.12,6.94,0.00,-0.12,-0.19,-0.12,0.11,0.04,-0.15,2.50,5.60,0.57,0.00,0.00,0.12
97639323,-3.12,6.94,0.00,-0.06,-0.31,0.00,0.04,0.05,-0.14,2.50,5.60,0.55,0.00,0.00,0.00
97649326,-3.12,6.94,0.00,0.12,-0.38,0.25,-0.17,0.00,-0.11,2.50,5.60,0.56,0.00,0.00,-0.25
97659328,-3.12,6.94,0.00,0.00,-0.19,0.00,-0.17,-0.03,-0.10,2.50,5.60,0.57,0.00,0.00,0.00
97670745,-3.12,6.94,0.00,0.19,0.19,0.00,-0.13,-0.02,-0.12,2.50,5.60,0.56,0.00,0.00,0.00
97680749,-3.12,6.94,0.00,0.06,0.12,-0.19,0.01,0.00,-0.12,2.50,5.60,0.57,0.00,0.00,0.19
97693162,-3.12,6.94,0.00,0.00,0.19,0.12,0.19,-0.03,-0.12,2.50,5.60,0.59,0.00,0.00,-0.12
97704621,-3.12,6.94,0.00,0.06,0.31,0.12,0.21,-0.01,-0.11,2.50,5.60,0.54,0.00,0.00,-0.12
97714625,-3.12,6.94,0.00,0.06,0.00,0.06,0.15,-0.01,-0.10,2.50,5.60,0.54,0.00,0.00,-0.06
97725505,-3.12,6.94,0.00,0.06,-0.19,0.06,-0.07,-0.01,-0.13,2.50,5.60,0.56,0.00,0.00,-0.06
97737415,-3.12,6.94,0.00,0.00,-0.19,-0.06,-0.13,0.00,-0.09,2.50,5.60,0.57,0.00,0.00,0.06
97747417,-3.12,6.94,0.00,-0.12,-0.19,0.06,-0.14,0.07,-0.14,2.50,5.60,0.55,0.00,0.00,-0.06
97758840,-3.12,6.94,0.00,-0.12,0.06,0.06,-0.11,0.05,-0.10,2.50,5.60,0.52,0.00,0.00,-0.06
97768854,-3.12,6.94,0.00,0.00,0.31,0.00,0.06,0.05,-0.12,2.50,5.60,0.59,0.00,0.00,0.0006
97780685,-3.12,6.94,0.00,0.06,0.25,-0.06,0.16,0.00,-0.12,2.50,5.60,0.56,0.00,0.00,0.06
97790688,-3.12,6.94,0.00,0.19,0.25,-0.06,0.17,-0.12,-0.11,2.50,5.60,0.54,0.00,0.00,0.06
97801944,-3.12,6.94,0.00,0.00,0.00,0.06,0.21,-0.08,-0.13,2.50,5.60,0.58,0.00,0.00,-0.06
97811946,-3.12,6.94,0.00,-0.12,0.00,0.06,0.08,-0.05,-0.11,2.50,5.60,0.56,0.00,0.00,-0.06
97826081,-3.12,6.94,0.00,-0.19,-0.31,-0.06,-0.13,0.06,-0.15,2.50,5.60,0.55,0.00,0.00,0.06
97836221,-3.12,6.94,0.00,0.06,-0.38,-0.06,-0.14,0.02,-0.14,2.50,5.60,0.55,0.00,0.00,0.06
97849731,-3.12,7.00,0.00,0.12,0.12,-0.06,-0.05,0.07,-0.13,2.50,5.60,0.55,0.00,0.00,0.06
97859735,-3.12,7.00,0.00,0.00,0.31,0.06,0.03,-0.03,-0.10,2.50,5.60,0.56,0.00,0.00,-0.06
97871143,-3.12,7.00,0.00,0.00,0.50,0.00,0.12,-0.02,-0.10,2.50,5.60,0.55,0.00,0.00,0.00
97881148,-3.12,7.00,0.00,0.06,0.38,-0.06,0.20,-0.01,-0.12,2.50,5.60,0.55,0.00,0.00,0.06
97892177,-3.12,7.00,0.00,0.12,0.19,0.00,0.19,-0.05,-0.11,2.50,5.60,0.55,0.00,0.00,0.00
97902181,-3.12,7.00,0.00,0.00,-0.25,-0.12,0.10,0.02,-0.13,2.50,5.60,0.53,0.00,0.00,0.12
97913802,-3.12,7.00,0.00,-0.06,-0.19,0.12,-0.01,-0.06,-0.10,2.50,5.60,0.57,0.00,0.00,-0.12
97925492,-3.12,7.00,0.00,0.00,-0.44,-0.06,-0.11,0.00,-0.11,2.50,5.59,0.55,0.00,0.00,0.06
97938788,-3.12,7.00,0.00,0.06,0.12,0.00,-0.06,-0.01,-0.12,2.50,5.59,0.55,0.00,0.00,0.006
97948791,-3.12,7.00,0.00,0.00,0.38,0.00,0.00,0.02,-0.13,2.50,5.59,0.56,0.00,0.00,0.0006
97959403,-3.12,7.00,0.00,0.00,0.44,0.06,0.16,-0.01,-0.13,2.50,5.59,0.53,0.00,0.00,-0.066
97969407,-3.12,7.00,0.00,-0.12,0.12,0.00,0.22,-0.02,-0.13,2.50,5.59,0.56,0.00,0.00,0.006
97979411,-3.12,7.00,0.00,0.19,0.06,-0.06,0.20,0.01,-0.13,2.50,5.59,0.56,0.00,0.00,0.066
97989576,-3.12,7.00,0.00,0.06,-0.19,0.00,0.12,-0.02,-0.11,2.50,5.59,0.56,0.00,0.00,0.006
97999581,-3.12,7.00,0.00,-0.06,-0.06,0.00,-0.08,0.02,-0.13,2.50,5.59,0.56,0.00,0.00,0.00
98009584,-3.12,7.00,0.00,0.00,-0.19,-0.06,-0.16,-0.03,-0.10,2.50,5.59,0.55,0.00,0.00,0.06
98019588,-3.12,7.00,0.00,0.12,-0.06,-0.12,-0.11,0.00,-0.13,2.50,5.59,0.55,0.00,0.00,0.12
98029591,-3.12,7.00,0.00,0.06,0.00,-0.19,-0.07,0.04,-0.15,2.50,5.59,0.56,0.00,0.00,0.19
98039593,-3.12,7.00,0.00,-0.06,0.31,0.06,0.08,0.01,-0.14,2.50,5.59,0.56,0.00,0.00,-0.06
98049596,-3.12,7.00,0.00,0.06,0.31,-0.06,0.13,-0.01,-0.10,2.50,5.59,0.56,0.00,0.00,0.06
98061276,-3.12,7.00,0.00,0.00,0.19,0.06,0.21,0.00,-0.10,2.50,5.59,0.56,0.00,0.00,-0.06
98071281,-3.12,7.00,0.00,-0.06,0.00,0.06,0.18,-0.04,-0.12,2.50,5.59,0.56,0.00,0.00,-0.06
98082601,-3.12,7.00,0.00,0.00,-0.19,0.00,0.05,0.04,-0.14,2.50,5.59,0.55,0.00,0.00,0.0006
98092604,-3.12,7.00,0.00,0.00,-0.31,0.12,-0.06,0.00,-0.10,2.50,5.59,0.56,0.00,0.00,-0.12
98103665,-3.12,7.00,0.00,0.00,-0.25,-0.12,-0.08,0.04,-0.12,2.50,5.59,0.55,0.00,0.00,0.12
98113669,-3.12,7.00,0.00,0.06,-0.25,0.00,-0.10,0.02,-0.11,2.50,5.59,0.57,0.00,0.00,0.00
98127569,-3.12,7.00,0.00,0.06,-0.06,0.00,0.00,-0.01,-0.14,2.50,5.59,0.54,0.00,0.00,0.00
98137770,-3.12,7.00,0.00,0.12,0.12,-0.12,0.14,-0.02,-0.14,2.50,5.59,0.55,0.00,0.00,0.12
98149305,-3.12,7.00,0.00,0.06,0.19,-0.06,0.18,-0.02,-0.10,2.50,5.59,0.54,0.00,0.00,0.06
98159309,-3.12,7.00,0.00,0.06,0.06,0.00,0.15,0.02,-0.11,2.50,5.59,0.57,0.00,0.00,0.006
98169311,-3.12,7.00,0.00,0.00,-0.12,0.00,0.06,0.00,-0.09,2.50,5.59,0.51,0.00,0.00,0.00
98179627,-3.12,7.00,0.00,0.12,-0.19,0.06,0.00,0.04,-0.14,2.50,5.59,0.58,0.00,0.00,-0.06
98189630,-3.12,7.00,0.00,-0.06,0.00,0.12,-0.08,0.00,-0.14,2.50,5.59,0.55,0.00,0.00,-0.12
98200336,-3.12,7.00,0.00,-0.06,-0.12,0.00,-0.10,0.02,-0.10,2.50,5.59,0.56,0.00,0.00,0.002
98210340,-3.12,7.00,0.00,0.00,0.06,0.06,-0.06,0.00,-0.12,2.50,5.59,0.54,0.00,0.00,-0.062
98220345,-3.12,7.00,0.00,0.06,0.31,0.06,0.02,0.00,-0.11,2.50,5.59,0.55,0.00,0.00,-0.062
98230349,-3.12,7.00,0.00,-0.06,0.50,-0.06,0.11,0.00,-0.14,2.50,5.59,0.57,0.00,0.00,0.062
98240353,-3.12,7.00,0.00,-0.19,0.06,-0.06,0.21,-0.04,-0.13,2.50,5.59,0.55,0.00,0.00,0.062
98250357,-3.12,7.00,0.00,0.00,-0.19,-0.12,0.15,-0.02,-0.12,2.50,5.59,0.54,0.00,0.00,0.122
98260361,-3.12,7.00,0.00,0.12,-0.19,0.06,0.09,-0.01,-0.10,2.50,5.59,0.53,0.00,0.00,-0.062
98270363,-3.12,7.00,0.00,0.06,-0.38,-0.06,0.01,-0.03,-0.12,2.50,5.59,0.55,0.00,0.00,0.062
98280685,-3.12,7.00,0.00,0.06,-0.12,-0.06,-0.12,0.02,-0.14,2.50,5.59,0.55,0.00,0.00,0.062
98290689,-3.12,7.00,0.00,-0.12,0.12,0.12,-0.12,0.00,-0.12,2.50,5.59,0.58,0.00,0.00,-0.12
98301916,-3.12,7.00,0.00,-0.12,-0.06,-0.06,-0.09,0.03,-0.15,2.50,5.59,0.53,0.00,0.00,0.06
98311920,-3.12,7.00,0.00,0.00,0.06,0.00,0.00,0.01,-0.14,2.50,5.59,0.58,0.00,0.00,0.00.06
98322714,-3.12,7.00,0.00,0.00,0.25,0.06,0.12,-0.03,-0.14,2.50,5.59,0.55,0.00,0.00,-0.066
98332719,-3.12,7.00,0.00,0.00,0.31,0.00,0.14,-0.03,-0.14,2.50,5.59,0.56,0.00,0.00,0.006
98342722,-3.12,7.00,0.00,0.06,0.19,0.12,-0.14,0.00,-0.21,2.50,5.59,0.56,0.00,0.00,-0.12
98352726,-3.12,7.00,0.00,0.06,-0.12,-0.12,0.16,0.21,-0.05,2.50,5.59,0.56,0.00,0.00,0.12
98362730,-3.12,7.00,0.00,0.19,0.06,-0.19,-0.04,-0.33,-0.01,2.50,5.59,0.55,0.00,0.00,0.19
98372733,-3.12,7.00,0.00,0.12,-0.56,0.31,-0.62,-0.01,-0.09,2.50,5.59,0.56,0.00,0.00,-0.31
98382737,-3.12,7.00,0.00,-0.38,0.06,0.25,-0.03,0.03,-0.23,2.50,5.59,0.55,0.00,0.00,-0.25
98392741,-3.12,7.00,0.00,-0.06,0.12,-0.38,0.02,0.19,-0.07,2.50,5.59,0.57,0.00,0.00,0.38
98402744,-3.12,7.00,0.00,-0.19,0.19,-0.38,0.52,-0.08,-0.16,2.50,5.59,0.57,0.00,0.00,0.38
98412747,-3.12,7.00,0.00,0.44,0.12,0.62,-0.03,0.24,-0.09,2.50,5.59,0.59,0.00,0.00,-0.62
98423471,-3.12,7.00,0.00,0.56,0.06,1.12,-0.10,-0.02,-0.16,2.50,5.59,0.55,0.00,0.00,-1.12
98433474,-3.12,7.00,0.00,0.62,-0.31,-0.12,0.03,-0.65,0.00,2.50,5.59,0.56,0.00,0.00,0.12
98443478,-3.12,7.00,0.00,-0.06,-0.38,-0.38,-0.24,0.03,-0.15,2.50,5.59,0.57,0.00,0.00,0.38
98453482,-3.12,7.00,0.00,-0.69,-0.12,-0.44,-0.03,0.34,-0.13,2.50,5.59,0.58,0.00,0.00,0.44
98463487,-3.12,7.00,0.00,-0.75,0.38,-0.25,-0.05,0.27,-0.27,2.50,5.59,0.56,0.00,0.00,0.25
98473492,-3.12,7.00,0.00,-0.12,0.25,0.12,-0.13,0.25,-0.10,2.50,5.59,0.56,0.00,0.00,-0.12
98486575,-3.12,7.00,0.00,0.19,0.44,0.06,0.19,-0.12,-0.07,2.50,5.59,0.57,0.00,0.00,-0.06
98497841,-3.12,7.00,0.00,0.69,0.56,-0.31,0.44,-0.29,0.00,2.50,5.59,0.58,0.00,0.00,0.31
98511946,-3.12,7.00,0.00,0.00,0.00,0.19,0.36,-0.20,-0.03,2.50,5.59,0.56,0.00,0.00,-0.19
98521949,-3.12,7.00,0.00,-0.38,-0.31,0.38,0.04,0.11,-0.14,2.50,5.59,0.58,0.00,0.00,-0.38
98533372,-3.12,7.00,0.00,-0.75,-0.50,-0.38,0.00,0.43,-0.25,2.50,5.59,0.57,0.00,0.00,0.38
98543375,-3.12,7.00,0.00,-0.44,-0.69,-0.69,0.48,0.09,-0.14,2.50,5.59,0.58,0.00,0.00,0.69
98554792,-3.12,7.00,0.00,-0.06,-0.62,0.38,-0.11,0.30,-0.18,2.50,5.59,0.56,0.00,0.00,-0.38
98564797,-3.12,7.00,0.00,0.38,-0.62,1.19,-0.58,-0.22,-0.14,2.50,5.59,0.58,0.00,0.00,-1.19
98577629,-3.12,7.00,0.00,0.62,-0.06,0.69,-0.43,-0.34,-0.02,2.50,5.59,0.56,0.00,0.00,-0.69
98588522,-3.12,7.00,0.00,0.50,0.38,-0.44,0.35,-0.18,-0.02,2.50,5.59,0.55,0.00,0.00,0.449
98601476,-3.12,7.00,0.00,-0.25,0.88,0.50,0.14,0.34,-0.22,2.50,5.59,0.58,0.00,0.00,-0.509
98611480,-3.12,7.00,0.00,-0.19,0.31,1.25,0.30,-0.07,-0.15,2.50,5.59,0.57,0.00,0.00,-1.25
98622474,-3.12,7.00,0.06,0.38,0.06,0.38,0.53,-0.09,-0.09,2.50,5.59,0.58,0.00,0.00,-0.385
98632478,-3.12,7.00,0.06,0.25,-0.50,-0.44,0.59,-0.02,-0.09,2.50,5.59,0.58,0.00,0.00,0.44
98642481,-3.12,7.00,0.06,0.12,-1.25,-0.06,-0.50,-0.11,-0.03,2.50,5.59,0.57,0.00,0.00,0.06
98652485,-3.12,7.00,0.06,-0.31,-1.44,0.94,-0.99,0.19,-0.21,2.50,5.59,0.54,0.00,0.00,-0.94
98662489,-3.12,7.00,0.06,-0.25,-0.62,0.94,-0.90,0.26,-0.18,2.50,5.59,0.57,0.00,0.00,-0.94
98672492,-3.12,7.00,0.06,-0.06,0.50,0.19,-0.18,0.57,-0.27,2.50,5.59,0.56,0.00,0.00,-0.19
98682982,-3.12,7.00,0.06,0.44,0.81,0.00,-0.29,-0.36,-0.05,2.50,5.59,0.56,0.00,0.00,0.00
98692984,-3.12,6.94,0.06,0.81,0.75,-0.38,-0.34,-0.47,-0.05,2.50,5.59,0.56,0.00,0.00,0.38
98702988,-3.12,6.94,0.06,0.38,0.94,-0.88,0.16,-0.25,-0.04,2.50,5.59,0.56,0.00,0.00,0.88
98712992,-3.12,6.94,0.06,-0.25,1.38,-1.38,0.78,0.01,-0.09,2.50,5.59,0.55,0.00,0.00,1.38
98722997,-3.12,7.00,0.00,-0.19,0.62,-1.00,0.59,0.11,-0.16,2.50,5.59,0.56,0.00,0.00,1.00
98733000,-3.12,7.00,0.00,0.06,-0.38,-0.12,-0.08,0.03,-0.15,2.50,5.59,0.55,0.00,0.00,0.12
98743005,-3.12,7.00,0.00,0.12,-0.56,0.38,0.06,0.07,-0.19,2.50,5.59,0.57,0.00,0.00,-0.38
98753007,-3.12,7.00,0.00,0.44,-0.62,0.06,-0.11,-0.16,-0.03,2.50,5.59,0.57,0.00,0.00,-0.06
98766104,-3.12,7.00,0.00,0.31,-0.38,0.19,-0.64,-0.32,-0.04,2.50,5.59,0.57,0.00,0.00,-0.19
98777987,-3.12,7.00,0.00,-0.38,-0.19,0.56,-0.53,-0.22,-0.07,2.50,5.59,0.56,0.00,0.00,-0.56
98789480,-3.12,7.00,0.00,-1.06,0.50,0.69,0.58,0.22,-0.17,2.50,5.59,0.58,0.00,0.00,-0.6956
98804174,-3.12,7.00,0.00,-0.75,0.25,-1.00,0.91,0.17,-0.18,2.50,5.59,0.57,0.00,0.00,1.0056
98814178,-3.12,7.00,0.00,-0.12,-0.75,-1.19,0.90,-0.03,-0.10,2.50,5.59,0.58,0.00,0.00,1.19
98825810,-3.12,7.00,0.00,0.25,-1.31,-0.31,0.28,-0.05,-0.09,2.50,5.59,0.55,0.00,0.00,0.31
98836100,-3.12,7.00,0.00,0.31,-2.44,0.19,-0.48,-0.28,-0.01,2.50,5.59,0.56,0.00,0.00,-0.19
98850215,-3.19,7.00,0.00,-0.31,-2.25,0.06,-1.07,0.27,-0.14,2.50,5.59,0.58,0.00,0.00,-0.06
98860599,-3.19,7.00,0.00,-1.06,-0.69,-0.31,-1.07,0.27,-0.14,2.50,5.59,0.60,0.00,0.00,0.31
98871247,-3.19,7.00,0.00,-1.38,1.31,-0.56,0.19,0.66,-0.29,2.50,5.59,0.56,0.00,0.00,0.561
98881250,-3.12,7.00,0.00,0.12,2.00,-0.19,0.78,-0.03,-0.15,2.50,5.59,0.56,0.00,0.00,0.191
98891253,-3.12,7.00,0.00,1.12,1.50,0.00,0.74,-0.50,0.00,2.50,5.59,0.56,0.00,0.00,0.0091
98901262,-3.12,7.00,0.00,1.38,0.69,0.56,0.70,-0.55,0.05,2.50,5.59,0.54,0.00,0.00,-0.561
98911516,-3.12,7.00,0.00,0.69,0.19,0.50,0.50,-0.51,0.01,2.50,5.59,0.56,0.00,0.00,-0.501
98921520,-3.12,7.00,0.00,-0.31,-0.69,0.69,-0.23,0.38,-0.22,2.50,5.59,0.59,0.00,0.00,-0.69
98931760,-3.12,7.00,0.00,-0.75,-0.62,0.56,-0.20,0.68,-0.28,2.50,5.59,0.56,0.00,0.00,-0.56
98941763,-3.12,7.00,0.00,-0.19,-0.25,0.31,-0.11,0.54,-0.27,2.50,5.59,0.58,0.00,0.00,-0.31
98951767,-3.12,7.00,0.00,0.62,0.00,0.50,-0.19,0.04,-0.16,2.50,5.59,0.58,0.00,0.00,-0.50
98961771,-3.12,7.00,0.00,1.06,0.38,0.19,-0.02,-0.73,0.04,2.50,5.59,0.56,0.00,0.00,-0.19
98971950,-3.12,7.00,0.00,0.31,0.38,-0.19,0.01,-0.68,0.07,2.50,5.59,0.53,0.00,0.00,0.19
98981952,-3.12,7.00,0.00,-0.50,0.56,-0.50,0.39,-0.19,-0.10,2.50,5.60,0.58,0.00,0.00,0.50
98991955,-3.12,7.00,0.00,-1.50,0.19,-0.50,0.26,0.20,-0.16,2.50,5.60,0.58,0.00,0.00,0.50
99003752,-3.12,7.00,0.00,-1.50,-0.19,-0.25,0.14,0.39,-0.24,2.50,5.60,0.55,0.00,0.00,0.25
99013755,-3.12,7.00,0.00,-0.06,-0.62,-0.69,0.15,0.40,-0.18,2.50,5.60,0.57,0.00,0.00,0.69
99024995,-3.12,7.00,0.00,-0.06,-0.62,-0.69,-0.01,0.27,-0.23,2.50,5.60,0.56,0.00,0.00,0.69
99034998,-3.12,7.00,0.00,0.50,-0.56,-0.50,-0.17,-0.59,0.00,2.50,5.60,0.56,0.00,0.00,0.50
99047842,-3.12,7.00,0.00,0.50,-0.38,-0.25,-0.06,-0.59,0.06,2.50,5.60,0.55,0.00,0.00,0.25
99061400,-3.12,7.00,0.00,-1.12,0.12,0.19,0.00,0.27,-0.24,2.50,5.60,0.58,0.00,0.00,-0.19
99071618,-3.12,7.06,0.00,-1.19,0.25,0.12,0.26,0.37,-0.25,2.50,5.60,0.56,0.00,0.00,-0.12
99082381,-3.12,7.06,0.00,0.12,-0.06,-0.12,0.18,0.57,-0.29,2.50,5.60,0.56,0.00,0.00,0.12
99092383,-3.12,7.06,0.00,0.94,-0.12,0.19,0.01,0.16,-0.13,2.50,5.60,0.56,0.00,0.00,-0.19
99102388,-3.12,7.06,0.00,0.75,-0.19,0.38,-0.06,-0.36,-0.02,2.50,5.60,0.56,0.00,0.00,-0.38
99112392,-3.12,7.00,0.00,0.12,0.06,0.31,-0.25,-0.24,-0.03,2.50,5.60,0.56,0.00,0.00,-0.31
99122395,-3.12,7.00,0.00,-0.44,0.38,0.19,-0.07,0.18,-0.14,2.50,5.60,0.55,0.00,0.00,-0.19
99134104,-3.12,7.00,0.00,-0.12,0.50,0.44,0.06,0.51,-0.27,2.50,5.60,0.57,0.00,0.00,-0.44
99144107,-3.12,7.00,0.00,0.75,0.31,0.44,0.20,0.55,-0.26,2.50,5.60,0.57,0.00,0.00,-0.44
99155771,-3.12,7.00,0.00,1.25,0.56,0.38,0.23,-0.43,-0.01,2.50,5.60,0.56,0.00,0.00,-0.38
99165774,-3.12,7.00,0.00,0.88,0.12,0.06,0.19,-0.81,0.07,2.50,5.60,0.58,0.00,0.00,-0.06
99178348,-3.12,7.00,0.00,-0.31,-0.19,-0.12,0.28,-0.66,0.05,2.50,5.60,0.56,0.00,0.00,0.12
99189865,-3.12,7.00,0.00,-1.06,-0.50,0.19,0.40,-0.25,-0.01,2.50,5.60,0.58,0.00,0.00,-0.19
99203952,-3.12,7.00,0.00,-0.44,-0.56,2.25,-0.08,1.02,-0.41,2.50,5.60,0.56,0.00,0.00,-2.25
99213955,-3.12,7.00,0.06,1.19,0.31,3.25,-0.42,0.20,-0.16,2.50,5.60,0.57,0.00,0.00,-3.2525
99226164,-3.12,7.00,0.12,1.00,1.12,3.06,-0.50,-0.80,0.05,2.50,5.60,0.57,0.00,0.00,-3.0625
99236168,-3.12,7.00,0.12,-0.44,0.50,2.06,1.60,1.14,-0.23,2.50,5.60,0.58,0.00,0.00,-2.0625
99246171,-3.12,7.00,0.12,0.06,-0.75,4.00,-0.27,1.70,-0.40,2.50,5.60,0.56,0.00,0.00,-4.005
99256173,-3.19,7.00,0.19,1.94,-1.19,3.06,0.57,-0.39,-0.29,2.50,5.60,0.56,0.00,0.00,-3.065
99266176,-3.19,6.94,0.19,1.12,-2.19,1.31,-0.11,-1.26,0.14,2.50,5.60,0.57,0.00,0.00,-1.315
99276181,-3.19,6.94,0.19,-0.56,-1.88,-0.12,-0.18,0.21,-0.23,2.50,5.60,0.57,0.00,0.00,0.12
99286186,-3.19,6.94,0.19,-0.44,-1.06,0.75,-0.62,0.23,0.02,2.50,5.60,0.58,0.00,0.00,-0.75
99296189,-3.19,6.94,0.19,-0.31,-0.38,0.62,0.02,0.26,-0.21,2.50,5.60,0.57,0.00,0.00,-0.62
99306193,-3.19,6.94,0.25,-0.75,-0.06,1.69,-0.18,0.08,-0.13,2.50,5.60,0.55,0.00,0.00,-1.69
99316196,-3.19,7.00,0.25,-0.62,-0.06,2.19,-0.39,0.55,0.06,2.50,5.60,0.55,0.00,0.00,-2.19
99326200,-3.19,7.00,0.25,-0.19,-0.19,2.44,0.09,0.29,0.32,2.50,5.60,0.58,0.00,0.00,-2.44
99336202,-3.25,7.00,0.31,0.19,-0.50,1.81,0.10,0.04,0.35,2.50,5.60,0.57,0.00,0.00,-1.81
99346206,-3.25,6.94,0.31,0.81,-1.50,1.75,0.26,0.68,0.60,2.50,5.60,0.58,0.00,0.00,-1.75
99356208,-3.25,6.94,0.31,1.62,-1.38,2.19,-0.71,-0.40,1.22,2.50,5.60,0.54,0.00,0.00,-2.19
99366213,-3.25,6.94,0.38,1.25,-0.31,3.56,0.27,-0.55,1.15,2.50,5.60,0.56,0.00,0.00,-3.56
99379129,-3.25,6.94,0.38,0.12,-0.12,4.62,1.02,-0.64,1.25,2.50,5.60,0.58,0.00,0.00,-4.62
99391423,-3.31,6.94,0.44,-1.56,-1.62,5.62,2.25,-1.41,0.97,2.50,5.60,0.57,0.00,0.00,-5.62
99402191,-3.31,7.00,0.50,-3.81,-4.38,7.25,2.60,-0.72,0.92,2.50,5.60,0.57,0.00,0.00,-7.25
99412447,-3.44,7.00,0.62,-4.81,-7.69,8.94,2.60,-0.72,0.92,2.50,5.60,0.57,0.00,0.00,-8.94
99422460,-3.56,7.06,0.69,-5.62,-10.94,10.38,2.40,-0.40,0.88,2.50,5.60,0.59,0.00,0.00,-10.38
99433075,-3.69,7.12,0.81,-5.62,-14.19,11.81,2.80,0.25,0.40,2.50,5.60,0.56,0.00,0.00,-11.81
99443200,-3.88,7.12,0.94,-4.56,-17.75,13.00,1.49,-0.41,0.47,2.50,5.60,0.56,0.00,0.00,-13.00
99456303,-4.31,7.25,1.19,-4.81,-23.56,14.81,1.31,-0.19,0.35,2.50,5.60,0.56,0.00,0.00,-14.81
99466307,-4.62,7.25,1.31,-4.56,-25.69,15.69,1.46,0.13,0.24,2.50,5.60,0.59,0.00,0.00,-15.69
99477708,-4.88,7.31,1.44,-4.31,-27.62,16.62,-0.06,-0.52,0.32,2.50,5.60,0.56,0.00,0.00,-16.62
99487712,-5.19,7.31,1.62,-4.56,-27.75,17.19,-0.24,-0.38,0.23,2.50,5.60,0.59,0.00,0.00,-17.19
99497715,-5.50,7.38,1.75,-4.88,-27.62,17.88,-0.24,-0.01,0.26,2.50,5.60,0.59,0.00,0.00,-17.88
99507718,-5.75,7.38,1.94,-4.56,-27.12,18.56,-0.81,0.08,0.32,2.50,5.60,0.59,0.00,0.00,-18.56
99518793,-6.00,7.44,2.12,-4.31,-25.44,19.44,-1.96,0.42,0.11,2.50,5.60,0.58,0.00,0.00,-19.44
99528797,-6.25,7.44,2.31,-3.69,-23.00,19.81,-1.44,0.33,0.07,2.50,5.60,0.58,0.00,0.00,-19.81
99538800,-6.50,7.44,2.50,-3.19,-20.62,20.69,-1.39,-0.15,0.23,2.50,5.60,0.60,0.00,0.00,-20.69
99548802,-6.69,7.44,2.69,-3.19,-18.06,21.50,-2.29,0.01,0.34,2.50,5.60,0.58,0.00,0.00,-21.50
99559448,-6.88,7.44,2.88,-2.94,-14.50,21.81,-2.27,-0.19,0.27,2.50,5.60,0.60,0.00,0.00,-21.81
99569452,-7.00,7.44,3.06,-2.75,-10.62,21.94,-1.58,-0.66,0.32,2.50,5.60,0.59,0.00,0.00,-21.94
99579455,-7.12,7.44,3.31,-3.12,-7.94,22.44,-2.60,0.05,0.32,2.50,5.60,0.59,0.00,0.00,-22.444
99590013,-7.19,7.50,3.50,-3.12,-4.06,21.25,-3.06,0.20,0.18,2.50,5.60,0.58,0.00,0.00,-21.254
99601139,-7.19,7.50,3.69,-3.06,0.00,20.50,-1.95,0.07,-0.04,2.50,5.60,0.59,0.00,0.00,-20.50
99612426,-7.19,7.50,3.94,-3.00,3.06,20.00,-1.59,0.37,-0.16,2.50,5.60,0.59,0.00,0.00,-20.00
99622429,-7.12,7.50,4.12,-2.50,5.81,19.19,-1.69,0.16,-0.14,2.50,5.60,0.59,0.00,0.00,-19.19
99632433,-7.12,7.50,4.31,-2.12,8.56,18.56,-0.46,0.15,0.00,2.50,5.60,0.62,0.00,0.00,-18.56
99645197,-7.00,7.50,4.50,-1.50,11.94,18.12,-0.53,0.11,0.17,2.50,5.60,0.61,0.00,0.00,-18.12
99655201,-6.94,7.44,4.69,-1.25,12.75,17.38,-0.78,0.22,0.17,2.50,5.60,0.60,0.00,0.00,-17.38
99665206,-6.81,7.44,4.81,-1.25,12.75,17.38,-0.57,0.32,0.10,2.50,5.60,0.60,0.00,0.00,-17.38
99675209,-6.69,7.44,5.00,-1.12,14.25,17.12,0.36,0.29,0.03,2.50,5.60,0.63,0.00,0.00,-17.12
99685211,-6.56,7.44,5.19,-0.19,15.19,17.31,0.06,0.13,0.07,2.50,5.60,0.61,0.00,0.00,-17.31
99695214,-6.44,7.38,5.38,0.19,15.06,17.44,0.09,0.26,0.15,2.50,5.60,0.60,0.00,0.00,-17.44
99706411,-6.31,7.38,5.56,0.38,15.12,17.69,0.58,0.26,0.25,2.50,5.60,0.60,0.00,0.00,-17.69
99716414,-6.19,7.38,5.75,0.56,13.56,17.50,0.80,-0.23,0.67,2.50,5.60,0.61,0.00,0.00,-17.50
99729280,-6.00,7.31,6.06,0.25,12.06,17.50,0.59,-0.08,0.78,2.50,5.60,0.62,0.00,0.00,-17.50
99742787,-5.94,7.31,6.25,0.06,10.88,17.31,0.85,-0.01,0.85,2.50,5.60,0.63,0.00,0.00,-17.31
99754873,-5.88,7.31,6.44,-0.31,8.56,17.75,0.30,-0.17,0.92,2.50,5.60,0.62,0.00,0.00,-17.75
99764876,-5.81,7.25,6.62,-0.31,8.56,17.75,0.30,-0.17,0.92,2.50,5.60,0.63,0.00,0.00,-17.75
99775127,-5.75,7.25,6.81,-0.56,7.19,17.88,0.49,0.03,1.02,2.50,5.60,0.61,0.00,0.00,-17.88
99785131,-5.69,7.25,6.94,-0.94,5.44,17.94,0.43,-0.11,1.10,2.50,5.60,0.63,0.00,0.00,-17.94
99795133,-5.69,7.25,7.12,-1.19,4.81,17.75,0.50,-0.45,1.30,2.50,5.60,0.62,0.00,0.00,-17.75
99805138,-5.62,7.25,7.31,-1.88,4.12,17.94,0.31,-0.11,1.33,2.50,5.60,0.63,0.00,0.00,-17.94
99815140,-5.62,7.25,7.50,-1.88,4.12,17.94,0.31,-0.11,1.33,2.50,5.60,0.63,0.00,0.00,-17.94
99825142,-5.62,7.25,7.69,-2.06,3.38,18.06,0.08,-0.03,1.35,2.50,5.60,0.64,0.00,0.00,-18.06
99835146,-5.62,7.25,7.88,-2.56,3.06,17.75,0.22,0.00,1.44,2.50,5.60,0.64,0.00,0.00,-17.75
99845148,-5.62,7.25,8.00,-2.56,3.06,17.75,-0.04,0.15,1.50,2.50,5.60,0.66,0.00,0.00,-17.75
99855611,-5.62,7.25,8.19,-2.44,2.31,17.31,-0.09,0.14,1.55,2.50,5.60,0.64,0.00,0.00,-17.31
99865614,-5.62,7.25,8.38,-2.44,2.31,17.31,-0.09,0.14,1.55,2.50,5.60,0.66,0.00,0.00,-17.31
99875618,-5.62,7.25,8.56,-2.31,2.38,17.19,0.00,0.24,1.55,2.50,5.60,0.66,0.00,0.00,-17.19
99885621,-5.62,7.25,8.69,-2.50,2.38,17.19,-0.34,0.29,1.54,2.50,5.60,0.67,0.00,0.00,-17.19
99897922,-5.56,7.25,9.06,-2.31,2.88,16.56,-0.34,0.10,1.55,2.50,5.60,0.67,0.00,0.00,-16.56
99907926,-5.56,7.31,9.19,-2.38,3.31,16.00,-0.22,-0.03,1.54,2.50,5.60,0.67,0.00,0.00,-16.00
99918337,-5.56,7.31,9.38,-2.56,3.56,15.31,-0.77,0.14,1.50,2.50,5.60,0.68,0.00,0.00,-15.31
99928339,-5.56,7.31,9.50,-2.38,4.19,14.38,-0.86,0.11,1.45,2.50,5.60,0.69,0.00,0.00,-14.38
99938341,-5.50,7.31,9.62,-2.56,5.38,13.56,-0.45,0.08,1.43,2.50,5.60,0.68,0.00,0.00,-13.56
99948346,-5.44,7.31,9.75,-2.38,6.06,13.25,-0.26,0.25,1.51,2.50,5.60,0.70,0.00,0.00,-13.25
99959004,-5.44,7.31,9.88,-2.38,6.56,12.81,-0.37,0.41,1.60,2.50,5.60,0.70,0.00,0.00,-12.81
99969007,-5.38,7.31,10.00,-1.75,6.62,11.75,-0.15,0.58,1.67,2.50,5.60,0.71,0.00,0.00,-11.75
99980073,-5.31,7.38,10.12,-1.19,6.62,10.38,0.14,0.69,1.71,2.50,5.60,0.72,0.00,0.00,-10.38
99990075,-5.25,7.31,10.19,-0.38,5.75,8.81,0.15,0.74,1.67,2.50,5.60,0.72,0.00,0.00,-8.818
100000077,-5.25,7.31,10.31,0.62,5.06,7.62,0.17,0.74,1.71,2.50,5.60,0.72,0.00,0.00,-7.628
100010081,-5.19,7.31,10.38,1.50,4.62,6.56,0.46,0.63,1.65,2.50,5.60,0.73,0.00,0.00,-6.568
100020085,-5.19,7.25,10.44,2.00,4.31,6.88,0.29,0.42,1.49,2.50,5.60,0.75,0.00,0.00,-6.888
100030089,-5.12,7.25,10.50,2.31,4.00,7.31,-0.16,-0.16,1.60,2.50,5.60,0.75,0.00,0.00,-7.31
100043182,-5.12,7.25,10.56,2.06,4.12,7.50,-0.32,-0.18,1.74,2.50,5.60,0.77,0.00,0.00,-7.50
100055179,-5.06,7.19,10.62,1.44,4.62,7.88,-0.01,-0.52,1.91,2.50,5.60,0.77,0.00,0.00,-7.88
100065578,-5.00,7.19,10.75,0.31,5.06,8.06,-0.01,-0.52,1.91,2.50,5.60,0.78,0.00,0.00,-8.06
100075582,-5.00,7.19,10.81,-1.00,5.31,8.25,-0.21,-0.55,1.92,2.50,5.60,0.78,0.00,0.00,-8.25
100085586,-4.94,7.19,10.88,-2.56,5.88,8.31,0.13,-0.04,1.58,2.50,5.60,0.81,0.00,0.00,-8.31
100099947,-4.81,7.25,11.06,-3.88,6.06,8.56,-0.13,-0.47,1.56,2.50,5.60,0.81,0.00,0.00,-8.56
100109950,-4.81,7.31,11.19,-4.25,6.00,7.94,0.38,0.37,1.42,2.50,5.60,0.82,0.00,0.00,-7.946
100119953,-4.75,7.31,11.25,-4.25,5.75,7.56,0.23,0.47,1.42,2.50,5.60,0.84,0.00,0.00,-7.566
100129956,-4.69,7.38,11.31,-3.69,5.62,6.88,-0.05,0.37,1.42,2.50,5.60,0.84,0.00,0.00,-6.88
100139959,-4.62,7.38,11.38,-3.25,5.19,6.06,0.26,0.59,1.23,2.50,5.60,0.84,0.00,0.00,-6.06
100149962,-4.62,7.44,11.44,-2.62,4.94,6.00,0.23,0.95,1.08,2.50,5.60,0.85,0.00,0.00,-6.00
100159965,-4.56,7.44,11.50,-1.19,4.19,5.81,0.23,0.39,1.23,2.50,5.60,0.87,0.00,0.00,-5.81
100170279,-4.56,7.44,11.56,-0.50,3.94,5.44,0.35,0.13,1.17,2.50,5.60,0.86,0.00,0.00,-5.44
100180281,-4.50,7.44,11.62,-0.50,3.38,5.06,0.72,0.58,0.99,2.50,5.60,0.87,0.00,0.00,-5.06
100191742,-4.50,7.44,11.62,0.06,1.94,4.00,0.16,-0.15,1.01,2.50,5.60,0.89,0.00,0.00,-4.00
100201746,-4.50,7.38,11.69,0.44,1.44,3.00,0.36,0.09,0.84,2.50,5.60,0.90,0.00,0.00,-3.00
100215545,-4.50,7.38,11.69,0.25,0.88,2.38,0.99,0.92,0.55,2.50,5.60,0.89,0.00,0.00,-2.38
100225549,-4.50,7.38,11.75,1.38,0.19,2.81,0.64,0.62,0.53,2.50,5.60,0.91,0.00,0.00,-2.81
100235553,-4.50,7.38,11.75,2.50,-0.38,3.44,1.37,0.76,0.17,2.50,5.60,0.91,0.00,0.00,-3.44
100246098,-4.50,7.31,11.81,3.25,-1.25,4.81,1.42,0.38,0.24,2.50,5.60,0.93,0.00,0.00,-4.81
100256596,-4.56,7.25,11.88,4.56,-2.38,6.00,1.50,0.49,0.34,2.50,5.60,0.93,0.00,0.00,-6.00
100266665,-4.62,7.25,11.94,5.19,-3.81,6.44,1.50,0.49,0.34,2.50,5.60,0.95,0.00,0.00,-6.44
100276667,-4.62,7.19,12.00,5.56,-5.12,6.19,0.91,0.39,0.42,2.50,5.60,0.95,0.00,0.00,-6.19
100286669,-4.75,7.12,12.00,6.00,-6.31,5.50,0.74,-0.49,0.32,2.50,5.60,0.96,0.00,0.00,-5.50
100299579,-4.88,7.00,12.12,6.19,-7.50,4.25,1.01,0.16,0.35,2.50,5.60,0.96,0.00,0.00,-4.25
100309584,-4.94,6.88,12.12,6.50,-8.25,5.19,0.36,0.86,0.18,2.50,5.60,0.98,0.00,0.00,-5.19
100322116,-5.06,6.81,12.19,6.31,-7.81,6.88,1.02,0.80,0.11,2.50,5.60,0.99,0.00,0.00,-6.88
100332121,-5.12,6.75,12.25,7.06,-8.38,7.31,0.81,0.20,0.17,2.50,5.60,0.99,0.00,0.00,-7.31
100345505,-5.25,6.69,12.31,7.19,-9.25,8.12,-0.09,-0.03,0.02,2.50,5.60,1.00,0.00,0.00,-8.12
100356178,-5.31,6.62,12.44,6.69,-9.25,9.19,0.42,-0.59,0.03,2.50,5.60,1.02,0.00,0.00,-9.19
100370675,-5.50,6.50,12.56,5.44,-9.06,8.69,-0.11,-0.10,-0.10,2.50,5.60,1.02,0.00,0.00,-8.69
100380677,-5.62,6.44,12.62,4.88,-8.81,8.75,-0.18,0.03,-0.06,2.50,5.60,1.03,0.00,0.00,-8.75
100391682,-5.69,6.38,12.75,4.88,-7.94,8.75,-0.05,0.01,-0.14,2.50,5.60,1.04,0.00,0.00,-8.75
100401685,-5.75,6.31,12.81,3.94,-7.25,8.94,0.14,0.26,-0.21,2.50,5.60,1.05,0.00,0.00,-8.94
100411689,-5.88,6.31,12.88,3.81,-6.56,9.75,-0.05,-0.31,-0.08,2.50,5.60,1.06,0.00,0.00,-9.75
100421692,-5.94,6.25,13.00,3.00,-5.56,10.38,-0.06,-0.53,-0.07,2.50,5.60,1.07,0.00,0.00,-10.38
100431695,-6.00,6.25,13.06,1.38,-4.44,10.94,-0.29,-0.60,-0.14,2.50,5.60,1.08,0.00,0.00,-10.94
100442134,-6.00,6.19,13.19,0.44,-3.38,11.12,-0.49,-0.97,-0.12,2.50,5.60,1.09,0.00,0.00,-11.12
100452137,-6.06,6.19,13.31,-1.12,-2.12,10.88,-0.95,-0.77,-0.25,2.50,5.60,1.10,0.00,0.00,-10.88
100463797,-6.06,6.25,13.38,-3.06,-0.81,9.94,-1.05,-0.34,-0.43,2.50,5.60,1.11,0.00,0.00,-9.948
100473799,-6.06,6.25,13.50,-4.00,0.38,8.56,-0.91,-0.71,-0.54,2.50,5.60,1.12,0.00,0.00,-8.568
100483803,-6.06,6.31,13.56,-5.31,1.88,6.75,-0.64,-0.45,-0.63,2.50,5.60,1.13,0.00,0.00,-6.758
100495187,-6.06,6.38,13.62,-6.44,3.06,5.12,-0.53,-0.25,-0.74,2.50,5.60,1.15,0.00,0.00,-5.128
100506195,-6.00,6.44,13.62,-7.50,3.81,3.00,-0.19,-0.04,-0.97,2.50,5.60,1.16,0.00,0.00,-3.008
100520757,-5.94,6.50,13.69,-8.94,5.50,0.31,-0.17,0.18,-1.11,2.50,5.60,1.17,0.00,0.00,-0.318
100530760,-5.88,6.69,13.69,-9.31,6.06,-0.25,-0.01,0.58,-1.36,2.50,5.60,1.18,0.00,0.00,0.258
100540764,-5.81,6.75,13.69,-8.75,6.56,0.19,0.71,2.80,-2.59,2.50,5.60,1.20,0.00,0.00,-0.198
100550767,-5.75,6.81,13.69,-6.50,6.44,-0.19,2.08,-2.08,-0.48,2.50,5.60,1.21,0.00,0.00,0.198
100560771,-5.69,6.88,13.69,-7.50,6.50,-0.62,0.90,0.49,-1.02,2.50,5.60,1.21,0.00,0.00,0.628
100570774,-5.62,7.00,13.75,-8.50,6.06,2.38,1.40,-0.15,-1.11,2.50,5.60,1.22,0.00,0.00,-2.388
100580777,-5.56,7.06,13.75,-8.56,5.38,2.81,0.84,-1.43,-0.93,2.50,5.60,1.23,0.00,0.00,-2.818
100590780,-5.50,7.12,13.81,-9.12,5.00,2.62,1.00,2.16,-1.99,2.50,5.60,1.26,0.00,0.00,-2.628
100600783,-5.50,7.19,13.81,-7.44,4.25,3.00,0.91,1.42,-1.69,2.50,5.60,1.26,0.00,0.00,-3.008
100610786,-5.44,7.25,13.88,-3.81,3.12,1.38,1.10,1.65,-1.51,2.50,5.60,1.28,0.00,0.00,-1.388
100620790,-5.44,7.25,13.88,-1.00,1.88,-0.50,1.38,1.81,-1.40,2.50,5.60,1.28,0.00,0.00,0.508
100630793,-5.44,7.25,13.81,1.69,0.38,-1.19,2.19,1.81,-1.22,2.50,5.60,1.29,0.00,0.00,1.198
100640797,-5.44,7.19,13.81,5.06,-1.88,-1.19,1.72,0.78,-0.74,2.50,5.60,1.30,0.00,0.00,1.198
100650801,-5.50,7.12,13.81,7.00,-4.06,-2.50,1.52,0.25,-0.55,2.50,5.60,1.30,0.00,0.00,2.508
100661437,-5.50,7.06,13.75,7.81,-5.44,-3.25,2.41,0.87,-0.61,2.50,5.60,1.31,0.00,0.00,3.258
100671439,-5.62,7.00,13.69,9.25,-7.44,-2.81,1.58,-0.28,-0.14,2.50,5.60,1.32,0.00,0.00,2.818
100681803,-5.69,6.88,13.69,9.81,-9.44,-2.19,1.25,0.20,-0.19,2.50,5.60,1.32,0.00,0.00,2.198
100691806,-5.81,6.81,13.69,10.19,-10.88,-1.50,1.97,0.98,-0.23,2.50,5.60,1.33,0.00,0.00,1.508
100701809,-5.94,6.69,13.62,11.19,-12.38,0.25,1.65,0.29,-0.02,2.50,5.60,1.34,0.00,0.00,-0.258
100711811,-6.06,6.56,13.69,11.56,-14.44,3.25,1.06,0.65,-0.22,2.50,5.60,1.35,0.00,0.00,-3.258
100721813,-6.19,6.44,13.69,11.81,-15.75,5.69,1.40,0.50,-0.33,2.50,5.60,1.36,0.00,0.00,-5.698
100731816,-6.38,6.31,13.75,12.50,-17.62,7.12,1.25,0.14,-0.40,2.50,5.60,1.36,0.00,0.00,-7.128
100741820,-6.56,6.19,13.81,13.19,-19.94,7.94,1.24,0.37,-0.57,2.50,5.60,1.38,0.00,0.00,-7.948
100751825,-6.81,6.06,13.88,13.50,-21.75,8.44,1.43,-0.12,-0.70,2.50,5.60,1.38,0.00,0.00,-8.448
100761827,-7.06,5.94,13.94,13.88,-24.00,7.31,1.35,-0.58,-0.47,2.50,5.60,1.39,0.00,0.00,-7.318
100771830,-7.31,5.75,13.94,13.81,-25.81,5.31,1.36,-0.37,-0.14,2.50,5.60,1.41,0.00,0.00,-5.318
100781832,-7.56,5.62,14.00,13.12,-27.50,4.94,1.21,0.66,-0.46,2.50,5.60,1.41,0.00,0.00,-4.948
100791836,-7.88,5.50,14.00,13.50,-29.06,5.81,0.55,-0.19,-0.31,2.50,5.60,1.42,0.00,0.00,-5.818
100801839,-8.12,5.38,14.06,13.62,-29.69,4.88,0.98,0.47,-0.64,2.50,5.60,1.44,0.00,0.00,-4.888
100811842,-8.44,5.25,14.06,13.56,-30.25,5.25,0.66,0.30,-0.88,2.50,5.60,1.44,0.00,0.00,-5.258
100821844,-8.75,5.06,14.12,14.06,-30.50,5.56,0.45,-0.43,-0.88,2.50,5.60,1.46,0.00,0.00,-5.568
100831848,-9.06,4.94,14.12,13.31,-31.06,3.88,-0.69,-0.61,-1.00,2.50,5.60,1.45,0.00,0.00,-3.88
100841853,-9.31,4.88,14.12,12.19,-30.31,1.50,-0.50,-0.63,-0.96,2.50,5.60,1.45,0.00,0.00,-1.50
100851856,-9.62,4.75,14.06,11.06,-29.06,-0.81,-0.83,-0.78,-0.84,2.50,5.60,1.45,0.00,0.00,0.81
100861860,-9.88,4.69,14.00,9.50,-27.56,-3.31,-1.23,-1.07,-0.80,2.50,5.60,1.44,0.00,0.00,3.31
100873036,-10.12,4.62,13.94,8.12,-25.12,-6.38,-0.89,-0.45,-1.00,2.50,5.60,1.45,0.00,0.00,6.38
100883040,-10.31,4.56,13.88,7.00,-22.62,-8.12,-1.10,-0.81,-0.98,2.50,5.60,1.45,0.00,0.00,8.12
100893889,-10.50,4.50,13.75,5.81,-19.69,-7.88,-2.07,-0.65,-1.00,2.50,5.60,1.46,0.00,0.00,7.88
100903891,-10.69,4.50,13.69,4.50,-15.94,-7.62,-2.24,-0.53,-1.10,2.50,5.60,1.47,0.00,0.00,7.62
100915091,-10.75,4.44,13.62,3.00,-11.69,-7.88,-2.85,-1.41,-0.84,2.50,5.60,1.48,0.00,0.00,7.88
100925094,-10.81,4.50,13.50,1.12,-7.25,-8.19,-3.74,-1.38,-0.77,2.50,5.60,1.49,0.00,0.00,8.19
100935532,-10.88,4.50,13.44,-1.62,-1.94,-8.12,-3.58,-0.74,-0.93,2.50,5.60,1.51,0.00,0.00,8.12
100946076,-10.81,4.56,13.38,-4.12,3.88,-8.31,-3.22,-0.86,-1.08,2.50,5.60,1.55,0.00,0.00,8.31
100956887,-10.69,4.62,13.31,-6.38,9.94,-7.75,-3.11,-0.55,-1.16,2.50,5.60,1.57,0.00,0.00,7.75
100968466,-10.56,4.75,13.25,-8.50,16.56,-5.56,-2.90,-0.25,-1.25,2.50,5.60,1.58,0.00,0.00,5.56
100978469,-10.31,4.81,13.25,-9.69,22.94,-3.81,-2.70,-0.32,-1.19,2.50,5.60,1.59,0.00,0.00,3.81
100988473,-10.00,4.94,13.25,-10.00,28.88,-3.06,-2.82,0.32,-1.57,2.50,5.60,1.60,0.00,0.00,3.06
101000683,-9.69,5.00,13.25,-9.69,40.00,-2.50,-2.61,0.34,-1.70,2.50,5.60,1.60,0.00,0.00,2.506
101010686,-9.31,5.12,13.25,-9.50,44.81,-3.81,-2.41,0.30,-1.88,2.50,5.60,1.60,0.00,0.00,3.816
101021665,-8.88,5.19,13.25,-8.94,48.50,-5.44,-1.42,0.42,-2.26,2.50,5.60,1.61,0.00,0.00,5.446
101031668,-8.38,5.31,13.19,-8.38,52.19,-6.06,-1.29,0.54,-2.36,2.50,5.60,1.61,0.00,0.00,6.066
101042310,-7.38,5.44,13.12,-7.50,55.19,-5.50,-1.10,0.77,-2.45,2.50,5.60,1.61,0.00,0.00,5.506
101052314,-7.38,5.44,13.12,-6.31,57.62,-4.88,-0.92,1.06,-2.50,2.50,5.60,1.62,0.00,0.00,4.886
101063130,-6.19,5.56,13.12,-4.50,59.56,-4.31,-0.52,0.55,-2.48,2.50,5.60,1.62,0.00,0.00,4.316
101073132,-5.62,5.56,13.12,-2.94,60.75,-3.19,-0.92,0.63,-2.57,2.50,5.60,1.62,0.00,0.00,3.196
101083134,-5.00,5.56,13.12,-1.69,61.50,-3.44,-0.69,0.60,-2.67,2.50,5.60,1.63,0.00,0.00,3.446
101093138,-4.44,5.56,13.12,-0.44,61.94,-4.25,0.01,0.27,-2.62,2.50,5.60,1.64,0.00,0.00,4.256
101103141,-3.81,5.56,13.06,0.38,61.88,-4.50,0.26,0.34,-2.48,2.50,5.60,1.64,0.00,0.00,4.506
101113144,-3.25,5.56,13.06,1.25,60.75,-3.94,0.73,0.28,-2.44,2.50,5.60,1.64,0.00,0.00,3.946
101123146,-3.25,5.56,13.06,1.88,59.62,-3.88,1.51,0.09,-2.40,2.50,5.60,1.64,0.00,0.00,3.886
101133148,-2.12,5.50,13.06,2.50,58.06,-3.44,2.07,-0.08,-2.37,2.50,5.60,1.64,0.00,0.00,3.446
101143152,-1.56,5.50,13.06,2.94,55.06,-2.12,2.41,-0.35,-2.24,2.50,5.60,1.65,0.00,0.00,2.126
101153154,-1.06,5.44,13.06,2.75,51.88,-1.50,2.94,-0.41,-2.15,2.50,5.60,1.65,0.00,0.00,1.506
101163156,-0.62,5.44,13.06,2.88,47.56,-1.88,3.24,-0.56,-2.05,2.50,5.60,1.65,0.00,0.00,1.886
101173160,-0.62,5.44,13.06,2.69,42.94,-2.44,3.56,-0.61,-1.99,2.50,5.60,1.64,0.00,0.00,2.446
101183163,0.12,5.38,13.06,2.44,37.75,-2.88,3.74,-0.48,-1.85,2.50,5.60,1.65,0.00,0.00,2.886
101193167,0.44,5.38,13.06,2.25,31.88,-3.44,3.78,-0.79,-1.71,2.50,5.60,1.66,0.00,0.00,3.446
101203170,0.69,5.38,13.00,2.06,26.25,-3.94,4.07,-0.87,-1.67,2.50,5.60,1.67,0.00,0.00,3.946
101213175,0.88,5.31,13.00,1.31,20.69,-3.00,4.10,-0.80,-1.52,2.50,5.60,1.67,0.00,0.00,3.006
101223179,0.88,5.31,13.00,0.25,15.00,-1.62,2.86,-1.00,-1.28,2.50,5.60,1.67,0.00,0.00,1.626
101233183,1.06,5.31,13.00,-1.06,9.62,-1.06,2.77,-0.84,-1.36,2.50,5.60,1.66,0.00,0.00,1.066
101243187,1.19,5.38,13.00,-2.31,4.75,-0.44,2.75,-0.85,-1.49,2.50,5.60,1.66,0.00,0.00,0.446
101253559,1.19,5.38,13.00,-3.62,0.44,-0.25,2.20,-0.81,-1.51,2.50,5.60,1.67,0.00,0.00,0.256
101263563,1.12,5.44,13.00,-4.62,-3.62,-0.50,1.40,-0.17,-1.65,2.50,5.60,1.66,0.00,0.00,0.506
101273568,1.12,5.44,13.00,-5.38,-6.50,-1.44,1.22,-0.10,-1.62,2.50,5.60,1.67,0.00,0.00,1.446
101283573,1.00,5.56,12.94,-5.56,-9.06,-2.69,0.93,-0.02,-1.64,2.50,5.60,1.67,0.00,0.00,2.696
101294993,0.88,5.62,12.88,-5.50,-11.06,-3.44,0.59,-0.07,-1.62,2.50,5.60,1.67,0.00,0.00,3.446
101304997,0.75,5.69,12.81,-5.31,-12.38,-4.19,0.20,-0.07,-1.54,2.50,5.60,1.67,0.00,0.00,4.196
101315479,0.62,5.69,12.81,-5.00,-13.19,-4.19,-0.03,0.03,-1.59,2.50,5.60,1.67,0.00,0.00,4.196
101325481,0.50,5.75,12.75,-4.62,-13.50,-3.75,-0.14,0.14,-1.57,2.50,5.60,1.67,0.00,0.00,3.756
101336311,0.38,5.81,12.69,-4.44,-13.31,-3.31,-0.24,0.31,-1.57,2.50,5.60,1.67,0.00,0.00,3.316
101346315,0.25,5.81,12.69,-3.75,-12.88,-2.81,-0.65,0.73,-1.58,2.50,5.60,1.66,0.00,0.00,2.816
101357722,0.19,5.88,12.62,-2.94,-12.31,-2.69,-0.63,0.70,-1.53,2.50,5.60,1.67,0.00,0.00,2.696
101368637,0.06,5.88,12.62,-1.94,-11.12,-3.25,-0.71,0.75,-1.43,2.50,5.60,1.66,0.00,0.00,3.256
101378639,0.00,5.88,12.56,-0.69,-9.94,-3.88,-0.68,0.92,-1.33,2.50,5.60,1.67,0.00,0.00,3.886
101388806,-0.06,5.88,12.50,0.44,-8.69,-4.50,-0.59,0.74,-0.95,2.50,5.60,1.67,0.00,0.00,4.506
101400017,-0.12,5.88,12.44,1.88,-7.25,-5.19,0.00,0.67,-0.71,2.50,5.60,1.67,0.00,0.00,5.196
101411824,-0.19,5.81,12.44,3.06,-5.50,-4.81,-0.15,0.61,-0.67,2.50,5.60,1.67,0.00,0.00,4.816
101421828,-0.19,5.81,12.38,3.94,-4.19,-3.44,-0.15,0.61,-0.67,2.50,5.60,1.67,0.00,0.00,3.446
101432914,-0.25,5.75,12.38,5.25,-1.44,1.25,0.29,0.42,-0.62,2.50,5.60,1.67,0.00,0.00,-1.256
101442916,-0.25,5.69,12.38,5.69,-0.19,3.81,0.18,0.39,-0.52,2.50,5.60,1.67,0.00,0.00,-3.816
101455151,-0.25,5.56,12.50,6.19,0.75,6.25,0.21,0.29,-0.38,2.50,5.60,1.66,0.00,0.00,-6.256
101465155,-0.25,5.50,12.56,6.69,1.88,9.12,0.48,-0.03,-0.20,2.50,5.60,1.65,0.00,0.00,-9.126
101475158,-0.19,5.44,12.69,6.62,1.94,9.88,0.49,-0.07,-0.16,2.50,5.60,1.65,0.00,0.00,-9.886
101485162,-0.19,5.38,12.81,6.75,1.88,10.25,0.55,0.03,-0.12,2.50,5.60,1.66,0.00,0.00,-10.256
101495164,-0.19,5.31,12.88,6.88,1.25,10.19,0.59,0.09,-0.13,2.50,5.60,1.66,0.00,0.00,-10.196
101505166,-0.19,5.25,13.00,7.25,0.38,10.31,0.90,0.03,-0.08,2.50,5.60,1.65,0.00,0.00,-10.316
101515170,-0.25,5.19,13.06,7.19,-0.38,10.88,0.96,-0.12,0.00,2.50,5.60,1.65,0.00,0.00,-10.886
101525173,-0.25,5.12,13.19,6.75,-1.56,11.88,0.93,-0.42,0.04,2.50,5.60,1.66,0.00,0.00,-11.886
101535176,-0.31,5.06,13.31,6.12,-2.31,13.19,0.57,-0.68,0.04,2.50,5.60,1.65,0.00,0.00,-13.196
101545179,-0.31,5.00,13.44,4.94,-3.38,13.88,0.63,-0.80,0.02,2.50,5.60,1.65,0.00,0.00,-13.886
101555280,-0.38,4.94,13.62,4.31,-4.06,14.06,0.60,-0.71,0.05,2.50,5.60,1.65,0.00,0.00,-14.066
101565284,-0.44,4.94,13.75,3.81,-5.00,13.12,0.21,-0.57,0.04,2.50,5.60,1.66,0.00,0.00,-13.126
101577971,-0.50,4.88,13.81,3.31,-5.56,11.44,0.05,-0.45,0.02,2.50,5.60,1.66,0.00,0.00,-11.446
101587980,-0.56,4.88,13.94,3.06,-6.50,9.31,0.07,-0.46,0.01,2.50,5.60,1.67,0.00,0.00,-9.3146
101598152,-0.62,4.81,14.00,2.88,-7.19,7.12,0.01,-0.48,0.03,2.50,5.60,1.66,0.00,0.00,-7.1246
101609478,-0.75,4.81,14.06,2.44,-7.38,5.19,-0.06,-0.36,0.04,2.50,5.60,1.65,0.00,0.00,-5.196
101621240,-0.81,4.75,14.06,2.12,-7.56,3.50,0.15,-0.40,0.06,2.50,5.60,1.66,0.00,0.00,-3.506
101631243,-0.88,4.75,14.06,1.69,-7.62,2.50,-0.08,-0.34,-0.05,2.50,5.60,1.66,0.00,0.00,-2.506
101641245,-0.94,4.75,14.12,1.38,-7.50,1.81,-0.15,-0.13,-0.11,2.50,5.60,1.66,0.00,0.00,-1.816
101654154,-1.00,4.69,14.12,1.50,-6.25,0.56,-0.31,-0.05,-0.13,2.50,5.60,1.65,0.00,0.00,-0.566
101664156,-1.06,4.69,14.12,1.56,-5.56,-0.06,-0.49,0.00,-0.17,2.50,5.60,1.65,0.00,0.00,0.066
101675165,-1.19,4.69,14.12,1.62,-4.56,-0.25,-0.50,-0.07,-0.17,2.50,5.60,1.65,0.00,0.00,0.256
101685170,-1.25,4.62,14.12,1.56,-3.50,-0.44,-0.59,-0.18,-0.12,2.50,5.60,1.66,0.00,0.00,0.446
101695175,-1.25,4.62,14.06,1.44,-2.25,-0.75,-0.41,-0.04,-0.15,2.50,5.60,1.66,0.00,0.00,0.756
101705177,-1.25,4.62,14.06,1.31,-1.44,-0.25,-0.17,0.05,-0.03,2.50,5.60,1.64,0.00,0.00,0.256
