Time,Pitch,Roll,Yaw,xGyro,yGyro,ZGyro,xAcc,yAcc,zAcc,latitude,longitude,alt,xSpeed,ySpeed,zSpeed,cP,cR,cY,cP
85754499,-3.06,4.62,0.00,-0.19,0.44,0.75,0.04,-0.12,-0.15,2.50,5.60,0.51,-10000.00,-10000.00,0.00,0.61,0.00,0.00,1.40
85764686,-3.06,4.62,0.00,-0.06,0.56,1.62,0.59,0.22,-0.20,2.50,5.60,0.51,-10000.00,-10000.00,0.00,0.61,0.00,0.00,1.40
85774690,-3.06,4.62,0.06,-0.06,0.50,0.88,-1.17,0.31,-0.10,2.50,5.60,0.52,-10000.00,-10000.00,0.05,0.61,0.00,0.00,1.05
85785009,-3.06,4.62,0.06,0.19,0.00,-1.00,1.24,0.15,-0.09,2.50,5.60,0.51,-10000.00,-10000.00,0.00,0.61,0.00,0.00,1.40
85795012,-3.06,4.62,0.06,0.25,-0.19,-1.56,-0.28,0.06,-0.17,2.50,5.60,0.51,-10000.00,-10000.00,0.00,0.61,0.00,0.00,1.40
85805777,-3.06,4.62,0.00,-0.12,-0.44,-0.62,-0.24,0.10,-0.16,2.50,5.60,0.49,-10000.00,-10000.00,-0.09,0.61,0.00,0.00,2.10
85815782,-3.06,4.62,0.00,-0.06,-0.62,1.06,-0.35,0.10,-0.25,2.50,5.60,0.53,-10000.00,-10000.00,0.11,0.61,0.00,0.00,0.70
85825785,-3.06,4.62,0.06,-0.06,-0.50,1.69,0.31,0.29,-0.21,2.50,5.60,0.50,-10000.00,-10000.00,-0.04,0.61,0.00,0.00,1.75
85835788,-3.06,4.62,0.06,-0.19,-0.12,0.38,0.31,0.01,-0.19,2.50,5.60,0.49,-10000.00,-10000.00,-0.09,0.61,0.00,0.00,2.10
85845792,-3.06,4.62,0.00,0.00,0.12,-1.06,-0.01,0.24,-0.14,2.50,5.60,0.49,-10000.00,-10000.00,-0.09,0.61,0.00,0.00,2.10
85855796,-3.06,4.62,0.00,0.00,0.12,-1.44,0.83,-0.18,-0.08,2.50,5.60,0.49,-10000.00,-10000.00,-0.09,0.61,0.00,0.00,2.10
85865799,-3.06,4.62,0.00,0.19,0.50,-0.69,0.92,-0.05,-0.08,2.50,5.60,0.49,-10000.00,-10000.00,-0.09,0.61,0.00,0.00,2.10
85875803,-3.06,4.62,0.00,0.00,0.69,1.00,0.47,-0.42,-0.06,2.50,5.60,0.50,-10000.00,-10000.00,-0.09,0.61,0.00,0.00,1.75
85885806,-3.06,4.62,0.00,0.00,0.06,1.06,1.19,0.29,-0.07,2.50,5.60,0.49,-10000.00,-10000.00,-0.09,0.61,0.00,0.00,2.10
85895809,-3.06,4.62,0.00,-0.12,-0.69,0.19,-0.32,-0.20,-0.03,2.50,5.60,0.50,-10000.00,-10000.00,-0.04,0.61,0.00,0.00,1.75
85907832,-3.06,4.62,0.00,-0.12,-0.75,-0.88,-0.11,0.03,-0.10,2.50,5.60,0.49,-10000.00,-10000.00,0.01,0.61,0.00,0.00,2.10
85917835,-3.06,4.62,0.00,0.19,-0.56,-1.12,0.55,0.48,-0.29,2.50,5.60,0.50,-10000.00,-10000.00,-0.14,0.61,0.00,0.00,1.75
85930877,-3.06,4.62,0.00,0.12,-0.25,-0.38,-0.13,-0.40,-0.18,2.50,5.60,0.49,-10000.00,-10000.00,-0.03,0.61,0.00,0.00,2.10
85942901,-3.06,4.62,0.00,0.19,0.19,0.38,0.16,-0.28,0.06,2.50,5.60,0.47,-10000.00,-10000.00,-0.06,0.61,0.00,0.00,2.80
85954803,-3.06,4.62,0.00,-0.38,0.06,0.06,0.42,-0.54,-0.25,2.50,5.60,0.49,-10000.00,-10000.00,0.03,0.61,0.00,0.00,2.10
85965052,-3.06,4.62,0.00,-0.19,-0.31,-0.31,-0.56,0.80,-0.34,2.50,5.60,0.50,-10000.00,-10000.00,0.07,0.61,0.00,0.00,1.75
85978398,-3.06,4.62,0.00,-0.12,-0.31,-0.38,-0.26,-0.12,-0.17,2.50,5.60,0.49,-10000.00,-10000.00,0.04,0.61,0.00,0.00,2.10
85988975,-3.06,4.62,0.00,0.25,0.25,-0.19,-0.12,0.23,-0.33,2.50,5.60,0.49,-10000.00,-10000.00,-0.01,0.61,0.00,0.00,2.10
86001127,-3.06,4.62,0.00,0.12,0.00,0.12,0.21,0.03,-0.21,2.50,5.60,0.48,-10000.00,-10000.00,-0.01,0.61,0.00,0.00,2.45
86013218,-3.06,4.62,0.00,0.06,0.00,-0.31,-0.52,-0.02,-0.24,2.50,5.60,0.51,-10000.00,-10000.00,0.07,0.61,0.00,0.00,1.40
86024204,-3.06,4.62,0.00,-0.12,-0.19,0.06,0.41,-0.17,-0.12,2.50,5.60,0.50,-10000.00,-10000.00,0.07,0.61,0.00,0.00,1.75
86034332,-3.06,4.62,0.00,-0.06,-0.50,0.06,-0.54,0.12,-0.29,2.50,5.60,0.49,-10000.00,-10000.00,-0.03,0.61,0.00,0.00,2.10
86044578,-3.06,4.62,0.00,0.12,-0.12,0.06,-0.15,0.10,-0.13,2.50,5.60,0.48,-10000.00,-10000.00,-0.04,0.61,0.00,0.00,2.45
86054710,-3.06,4.62,0.00,0.00,0.12,-0.06,-0.31,0.13,-0.12,2.50,5.60,0.48,-10000.00,-10000.00,0.04,0.61,0.00,0.00,2.45
86065501,-3.06,4.62,0.00,0.00,0.56,-0.50,0.14,0.10,-0.07,2.50,5.60,0.48,-10000.00,-10000.00,-0.04,0.61,0.00,0.00,2.45
86075505,-3.06,4.62,0.00,0.06,0.06,0.00,0.36,-0.11,-0.13,2.50,5.60,0.48,-10000.00,-10000.00,-0.09,0.61,0.00,0.00,2.45
86087427,-3.06,4.62,0.00,-0.12,0.12,0.12,0.46,-0.35,-0.23,2.50,5.60,0.49,-10000.00,-10000.00,-0.01,0.61,0.00,0.00,2.10
86097430,-3.06,4.62,0.00,-0.31,-0.56,0.00,0.09,-0.30,-0.08,2.50,5.60,0.47,-10000.00,-10000.00,-0.11,0.61,0.00,0.00,2.80
86109287,-3.06,4.62,0.00,-0.25,-0.50,0.06,-0.12,0.37,-0.19,2.50,5.60,0.48,-10000.00,-10000.00,-0.03,0.61,0.00,0.00,2.45
86119291,-3.06,4.62,0.00,0.00,-0.56,-0.25,0.46,0.23,-0.06,2.50,5.60,0.49,-10000.00,-10000.00,-0.10,0.61,0.00,0.00,2.10
86133190,-3.06,4.62,0.00,0.50,-0.38,0.44,-0.67,0.72,-0.01,2.50,5.60,0.49,-10000.00,-10000.00,-0.06,0.61,0.00,0.00,2.10
86144217,-3.06,4.62,0.00,0.44,-0.50,0.56,-0.48,0.68,0.15,2.50,5.60,0.47,-10000.00,-10000.00,-0.10,0.61,0.00,0.00,2.80
86154806,-3.06,4.62,0.00,0.62,-0.12,0.69,-0.48,0.44,0.18,2.50,5.60,0.49,-10000.00,-10000.00,0.05,0.61,0.00,0.00,2.10
86165146,-3.06,4.62,0.00,0.38,-0.25,-0.12,-0.66,0.85,-0.04,2.50,5.60,0.50,-10000.00,-10000.00,0.10,0.61,0.00,0.00,1.75
86175149,-3.06,4.62,0.00,0.50,-0.69,-0.31,-0.53,0.20,-0.07,2.50,5.60,0.50,-10000.00,-10000.00,0.10,0.61,0.00,0.00,1.75
86185266,-3.06,4.62,0.00,0.56,-0.38,-0.81,-0.90,0.38,-0.05,2.50,5.60,0.49,-10000.00,-10000.00,0.05,0.61,0.00,0.00,2.10
86195268,-3.06,4.62,0.00,1.00,-0.81,-0.12,-0.86,0.41,-0.02,2.50,5.60,0.48,-10000.00,-10000.00,-0.04,0.61,0.00,0.00,2.45
86205272,-3.06,4.62,0.00,0.94,-0.38,0.25,-1.27,0.14,0.02,2.50,5.60,0.48,-10000.00,-10000.00,0.06,0.61,0.00,0.00,2.45
86215565,-3.06,4.62,0.00,0.81,-0.19,0.75,-1.28,0.77,0.01,2.50,5.60,0.47,-10000.00,-10000.00,-0.03,0.61,0.00,0.00,2.80
86225570,-3.06,4.56,0.00,0.69,-0.06,0.62,0.93,0.47,-0.16,2.50,5.60,0.50,-10000.00,-10000.00,0.07,0.61,0.00,0.00,1.75
86235573,-3.06,4.56,0.00,0.62,0.12,1.00,0.94,0.06,-0.46,2.50,5.60,0.49,-10000.00,-10000.00,0.02,0.61,0.00,0.00,2.10
86245577,-3.06,4.56,0.06,0.62,0.19,1.06,-0.36,-0.92,-0.27,2.50,5.60,0.51,-10000.00,-10000.00,0.21,0.61,0.00,0.00,1.40
86255581,-3.06,4.56,0.06,0.56,0.31,0.75,-2.26,0.57,-0.04,2.50,5.60,0.49,-10000.00,-10000.00,0.02,0.61,0.00,0.00,2.10
86269106,-3.06,4.56,0.06,0.31,0.19,0.81,0.83,0.94,0.20,2.50,5.60,0.50,-10000.00,-10000.00,0.01,0.61,0.00,0.00,1.75
86279497,-3.12,4.56,0.06,0.50,0.12,0.81,2.57,-0.61,-0.43,2.50,5.60,0.50,-10000.00,-10000.00,0.01,0.62,0.00,0.00,1.75
86291557,-3.12,4.56,0.06,0.62,-0.12,0.38,-1.68,1.02,0.00,2.50,5.60,0.51,-10000.00,-10000.00,0.10,0.62,0.00,0.00,1.40
86303922,-3.12,4.56,0.06,0.69,-0.50,0.19,2.17,-1.53,-0.79,2.50,5.60,0.50,-10000.00,-10000.00,0.10,0.62,0.00,0.00,1.75
86314838,-3.12,4.56,0.06,0.31,-0.62,0.19,2.17,-1.53,-0.79,2.50,5.60,0.50,-10000.00,-10000.00,0.10,0.62,0.00,0.00,1.75
86324842,-3.12,4.56,0.06,0.12,-1.62,0.31,0.53,-1.50,-1.02,2.50,5.60,0.51,-10000.00,-10000.00,0.19,0.62,0.00,0.00,1.40
86334846,-3.12,4.56,0.06,0.12,-0.62,-0.56,-1.55,2.15,0.24,2.50,5.60,0.49,-10000.00,-10000.00,-0.05,0.62,0.00,0.00,2.10
86345157,-3.12,4.56,0.06,0.00,0.00,-1.00,4.41,-3.11,-0.64,2.50,5.60,0.50,-10000.00,-10000.00,0.04,0.62,0.00,0.00,1.75
86355247,-3.12,4.56,0.06,0.00,-0.69,-0.62,-3.55,2.83,-0.30,2.50,5.60,0.51,-10000.00,-10000.00,-0.01,0.62,0.00,0.00,1.40
86365707,-3.12,4.56,0.06,0.00,-0.19,-0.06,-3.24,2.79,-0.38,2.50,5.60,0.49,-10000.00,-10000.00,0.00,0.62,0.00,0.00,2.10
86375712,-3.12,4.56,0.06,0.44,-0.19,0.88,5.19,-3.05,-0.11,2.50,5.60,0.50,-10000.00,-10000.00,0.01,0.62,0.00,0.00,1.75
86388355,-3.12,4.56,0.06,0.06,0.06,1.69,-5.91,3.84,-0.29,2.50,5.60,0.50,-10000.00,-10000.00,0.01,0.62,0.00,0.00,1.75
86398358,-3.12,4.56,0.06,0.25,0.56,1.00,2.58,-3.23,-0.24,2.50,5.60,0.51,-10000.00,-10000.00,0.02,0.62,0.00,0.00,1.40
86411335,-3.12,4.56,0.12,0.12,0.31,1.06,-4.04,-1.64,-0.18,2.50,5.60,0.52,-10000.00,-10000.00,0.10,0.62,0.00,0.00,1.05
86421338,-3.12,4.56,0.12,0.31,0.25,-0.31,2.67,-2.21,-0.11,2.50,5.60,0.50,-10000.00,-10000.00,0.00,0.62,0.00,0.00,1.75
86437775,-3.19,4.56,0.12,0.12,-0.88,-0.19,-0.79,-3.33,0.06,2.50,5.60,0.49,-10000.00,-10000.00,-0.08,0.64,0.00,0.00,2.10
86447778,-3.19,4.56,0.06,0.19,-0.62,-0.81,-3.20,3.62,-0.08,2.50,5.60,0.50,-10000.00,-10000.00,0.07,0.64,0.00,0.00,1.75
86459101,-3.19,4.56,0.06,0.12,-0.81,-0.38,-4.25,-1.22,0.25,2.50,5.60,0.48,-10000.00,-10000.00,-0.07,0.64,0.00,0.00,2.45
86469105,-3.19,4.56,0.06,0.38,-0.94,-0.44,4.10,-1.69,-0.09,2.50,5.60,0.48,-10000.00,-10000.00,-0.12,0.64,0.00,0.00,2.45
86480386,-3.19,4.56,0.06,0.12,0.12,-0.31,-2.72,1.44,0.23,2.50,5.60,0.51,-10000.00,-10000.00,0.12,0.64,0.00,0.00,1.40
86491795,-3.19,4.56,0.06,-0.44,0.88,0.19,-2.09,-0.50,0.76,2.50,5.60,0.52,-10000.00,-10000.00,0.11,0.64,0.00,0.00,1.05
86507405,-3.19,4.56,0.06,-1.00,1.25,0.06,1.43,-2.98,-0.56,2.50,5.60,0.50,-10000.00,-10000.00,0.05,0.64,0.00,0.00,1.75
86517409,-3.19,4.56,0.06,-0.25,-0.12,-0.19,1.60,0.60,-0.47,2.50,5.60,0.51,-10000.00,-10000.00,0.05,0.64,0.00,0.00,1.40
86527747,-3.19,4.56,0.06,0.12,-0.56,-0.38,0.78,0.61,-0.18,2.50,5.60,0.53,-10000.00,-10000.00,0.10,0.64,0.00,0.00,0.70
86537751,-3.19,4.56,0.06,0.50,0.44,-0.75,0.77,-0.21,-0.18,2.50,5.60,0.50,-10000.00,-10000.00,0.05,0.64,0.00,0.00,1.75
86547755,-3.19,4.56,0.06,0.69,0.00,-0.69,0.05,0.55,0.08,2.50,5.60,0.52,-10000.00,-10000.00,0.19,0.64,0.00,0.00,1.05
86558757,-3.19,4.56,0.06,0.50,0.25,-0.88,-0.03,-0.51,0.09,2.50,5.60,0.52,-10000.00,-10000.00,0.14,0.64,0.00,0.00,1.05
86568760,-3.19,4.56,0.06,-0.25,0.38,-1.25,-1.25,0.10,0.22,2.50,5.60,0.50,-10000.00,-10000.00,0.13,0.64,0.00,0.00,1.75
86582527,-3.19,4.56,0.06,-0.44,-0.44,-1.19,-0.51,-0.65,0.95,2.50,5.60,0.50,-10000.00,-10000.00,0.14,0.64,0.00,0.00,1.75
86594842,-3.12,4.56,0.00,-0.81,-0.06,-1.31,0.09,-0.31,-2.50,2.50,5.60,0.51,-10000.00,-10000.00,0.03,0.62,0.00,0.00,1.40
86608678,-3.12,4.62,0.00,-1.50,0.69,-0.94,1.96,-2.89,-2.52,2.50,5.60,0.49,-10000.00,-10000.00,-0.10,0.62,0.00,0.00,2.10
86618682,-3.12,4.62,0.00,-0.94,0.12,-0.62,0.60,-2.55,-0.13,2.50,5.60,0.51,-10000.00,-10000.00,0.06,0.62,0.00,0.00,1.40
86630939,-3.12,4.62,0.00,-0.31,1.06,0.56,-2.72,2.07,0.40,2.50,5.60,0.51,-10000.00,-10000.00,0.02,0.62,0.00,0.00,1.40
86642577,-3.12,4.62,0.00,0.25,2.12,0.25,2.66,-3.07,-3.88,2.50,5.60,0.50,-10000.00,-10000.00,-0.15,0.62,0.00,0.00,1.75
86657124,-3.12,4.62,0.00,0.69,-0.88,0.31,-3.50,2.92,-1.76,2.50,5.60,0.51,-10000.00,-10000.00,0.03,0.62,0.00,0.00,1.40
86667128,-3.12,4.56,0.00,1.00,-2.06,-0.69,3.00,-2.56,-6.28,2.50,5.60,0.51,-10000.00,-10000.00,-0.10,0.62,0.00,0.00,1.40
86677131,-3.12,4.56,0.00,0.50,-1.00,0.38,-2.61,3.23,-4.25,2.50,5.60,0.51,-10000.00,-10000.00,-0.12,0.62,0.00,0.00,1.40
86687134,-3.12,4.56,0.00,-0.38,0.38,-0.81,4.02,-2.96,-6.21,2.50,5.60,0.51,-10000.00,-10000.00,-0.05,0.62,0.00,0.00,1.40
86697138,-3.12,4.56,0.00,-0.62,-0.25,0.31,-4.02,4.95,-0.22,2.50,5.60,0.49,-10000.00,-10000.00,-0.15,0.62,0.00,0.00,2.10
86708551,-3.12,4.56,0.00,-0.25,0.19,-0.50,3.25,-3.03,-6.13,2.50,5.60,0.51,-10000.00,-10000.00,-0.14,0.62,0.00,0.00,1.40
86718554,-3.12,4.56,0.00,-0.50,0.25,0.25,1.05,-1.59,-6.08,2.50,5.60,0.50,-10000.00,-10000.00,-0.15,0.62,0.00,0.00,1.75
86728558,-3.19,4.56,0.00,0.31,-0.75,0.50,-1.80,0.43,0.32,2.50,5.60,0.51,-10000.00,-10000.00,-0.20,0.64,0.00,0.00,1.40
86738562,-3.19,4.56,0.00,0.56,-0.38,0.56,1.31,-1.78,-6.32,2.50,5.60,0.51,-10000.00,-10000.00,-0.23,0.64,0.00,0.00,1.40
86748565,-3.19,4.56,0.00,0.12,-2.06,2.50,-4.15,1.46,-0.54,2.50,5.60,0.51,-10000.00,-10000.00,-0.18,0.64,0.00,0.00,1.40
86758568,-3.19,4.56,0.06,1.69,-2.00,2.50,-3.09,0.06,-4.72,2.50,5.60,0.49,-10000.00,-10000.00,-0.34,0.64,0.00,0.00,2.10
86768570,-3.19,4.56,0.06,1.38,-0.69,2.12,2.78,-4.68,-5.78,2.50,5.60,0.49,-10000.00,-10000.00,-0.37,0.64,0.00,0.00,2.10
86778574,-3.19,4.56,0.06,1.19,-0.44,2.06,-3.10,0.85,-8.40,2.50,5.60,0.49,-10000.00,-10000.00,-0.41,0.64,0.00,0.00,2.10
86788577,-3.19,4.56,0.12,0.69,0.50,2.31,1.29,-3.47,-7.63,2.50,5.60,0.52,-10000.00,-10000.00,-0.30,0.64,0.00,0.00,1.05
86798580,-3.19,4.56,0.12,-0.31,1.62,2.19,-1.41,1.95,-7.09,2.50,5.60,0.51,-10000.00,-10000.00,-0.28,0.64,0.00,0.00,1.40
86808583,-3.19,4.56,0.12,-0.62,1.44,2.00,-2.90,2.42,-3.56,2.50,5.60,0.50,-10000.00,-10000.00,-0.44,0.64,0.00,0.00,1.75
86818586,-3.19,4.56,0.19,-1.00,1.88,1.50,1.51,-1.66,-8.00,2.50,5.60,0.51,-10000.00,-10000.00,-0.38,0.64,0.00,0.00,1.40
86828589,-3.12,4.56,0.19,-0.62,2.19,1.50,-3.22,4.14,-3.09,2.50,5.60,0.50,-10000.00,-10000.00,-0.49,0.62,0.00,0.00,1.75
86839040,-3.12,4.56,0.19,-0.38,0.88,2.50,-0.62,1.76,-5.31,2.50,5.60,0.53,-10000.00,-10000.00,-0.37,0.62,0.00,0.00,0.70
86849042,-3.12,4.56,0.25,-0.38,1.00,3.19,1.12,0.09,-8.96,2.50,5.60,0.51,-10000.00,-10000.00,-0.52,0.62,0.00,0.00,1.40
86860845,-3.12,4.56,0.25,-0.06,1.50,3.12,-1.35,1.97,-7.60,2.50,5.60,0.51,-10000.00,-10000.00,-0.46,0.62,0.00,0.00,1.40
86870848,-3.12,4.56,0.31,-0.38,1.44,2.81,-1.76,2.66,-4.62,2.50,5.60,0.53,-10000.00,-10000.00,-0.38,0.62,0.00,0.00,0.70
86880851,-3.12,4.56,0.31,-0.56,0.81,2.12,1.60,-0.51,-8.03,2.50,5.60,0.51,-10000.00,-10000.00,-0.52,0.62,0.00,0.00,1.40
86891343,-3.12,4.56,0.31,-0.50,0.75,2.38,0.37,0.14,-7.72,2.50,5.60,0.52,-10000.00,-10000.00,-0.66,0.62,0.00,0.00,1.05
86902321,-3.06,4.56,0.38,-0.94,1.69,2.75,-2.73,4.66,-5.62,2.50,5.60,0.51,-10000.00,-10000.00,-0.69,0.61,0.00,0.00,1.40
86914617,-3.06,4.56,0.38,-0.75,1.69,3.38,1.64,-0.03,-7.31,2.50,5.60,0.50,-10000.00,-10000.00,-0.72,0.61,0.00,0.00,1.75
86924620,-3.06,4.56,0.44,-1.00,1.25,3.06,0.14,0.32,-8.20,2.50,5.60,0.51,-10000.00,-10000.00,-0.76,0.61,0.00,0.00,1.40
86934623,-3.06,4.56,0.44,-0.44,-0.81,2.62,-0.33,2.91,-3.53,2.50,5.60,0.53,-10000.00,-10000.00,-0.63,0.61,0.00,0.00,0.70
86946144,-3.06,4.56,0.50,-0.50,0.31,2.00,-1.31,2.19,-6.98,2.50,5.60,0.51,-10000.00,-10000.00,-0.90,0.61,0.00,0.00,1.40
86958227,-3.06,4.56,0.50,0.19,0.19,2.31,-3.20,3.66,-3.78,2.50,5.60,0.50,-10000.00,-10000.00,-0.86,0.61,0.00,0.00,1.75
86968229,-3.06,4.56,0.50,0.50,-0.69,2.19,0.37,1.54,-5.74,2.50,5.60,0.52,-10000.00,-10000.00,-0.79,0.61,0.00,0.00,1.05
86978791,-3.12,4.56,0.56,0.25,-1.00,1.81,1.71,1.53,-9.10,2.50,5.60,0.52,-10000.00,-10000.00,-0.94,0.62,0.00,0.00,1.05
86988796,-3.12,4.56,0.56,-0.06,-0.25,1.56,-2.97,4.47,-4.08,2.50,5.60,0.51,-10000.00,-10000.00,-0.91,0.62,0.00,0.00,1.40
87000366,-3.12,4.56,0.56,-0.62,0.31,1.44,1.15,-0.98,-6.71,2.50,5.60,0.50,-10000.00,-10000.00,-1.04,0.62,0.00,0.00,1.75
87010368,-3.12,4.56,0.62,-0.62,0.25,1.56,0.88,1.04,-8.05,2.50,5.60,0.52,-10000.00,-10000.00,-0.93,0.62,0.00,0.00,1.05
87022665,-3.12,4.56,0.62,-0.25,0.12,1.88,-2.88,4.05,-4.24,2.50,5.60,0.52,-10000.00,-10000.00,-0.91,0.62,0.00,0.00,1.05
87032669,-3.12,4.56,0.62,-0.25,-1.06,2.31,0.77,-1.49,-7.57,2.50,5.60,0.51,-10000.00,-10000.00,-1.05,0.62,0.00,0.00,1.40
87048896,-3.12,4.56,0.69,0.38,-1.19,2.31,-3.03,4.09,-5.57,2.50,5.60,0.51,-10000.00,-10000.00,-1.20,0.62,0.00,0.00,1.40
87058900,-3.12,4.56,0.69,0.44,-0.19,1.38,1.46,0.99,-8.25,2.50,5.60,0.51,-10000.00,-10000.00,-1.15,0.62,0.00,0.00,1.40
87070667,-3.12,4.56,0.69,0.62,-1.25,1.12,-0.64,2.50,-8.45,2.50,5.60,0.50,-10000.00,-10000.00,-1.20,0.62,0.00,0.00,1.75
87080670,-3.12,4.56,0.69,0.19,-0.19,1.19,-2.49,5.47,-5.58,2.50,5.60,0.51,-10000.00,-10000.00,-1.28,0.62,0.00,0.00,1.40
87091267,-3.12,4.56,0.75,0.12,0.19,1.44,-0.77,1.79,-4.52,2.50,5.60,0.52,-10000.00,-10000.00,-1.25,0.62,0.00,0.00,1.05
87101706,-3.12,4.56,0.75,-0.44,-0.44,1.44,-1.96,1.07,-7.26,2.50,5.60,0.52,-10000.00,-10000.00,-1.24,0.62,0.00,0.00,1.05
87113391,-3.12,4.56,0.75,-0.50,-0.50,1.31,-2.65,3.68,-4.27,2.50,5.60,0.51,-10000.00,-10000.00,-1.26,0.62,0.00,0.00,1.40
87123394,-3.19,4.56,0.75,-0.44,-0.69,1.31,0.49,0.37,-5.39,2.50,5.60,0.51,-10000.00,-10000.00,-1.39,0.64,0.00,0.00,1.40
87133396,-3.19,4.56,0.81,0.50,-1.31,1.75,1.85,-0.91,-8.66,2.50,5.60,0.52,-10000.00,-10000.00,-1.38,0.64,0.00,0.00,1.05
87145600,-3.19,4.56,0.81,0.25,-1.00,2.88,1.69,-1.64,-6.90,2.50,5.60,0.51,-10000.00,-10000.00,-1.41,0.64,0.00,0.00,1.40
87156751,-3.19,4.56,0.81,0.81,0.38,2.62,0.88,0.14,-8.18,2.50,5.60,0.52,-10000.00,-10000.00,-1.41,0.64,0.00,0.00,1.05
87169399,-3.19,4.56,0.88,-0.50,-1.50,2.69,-2.29,3.69,-4.91,2.50,5.60,0.52,-10000.00,-10000.00,-1.44,0.64,0.00,0.00,1.05
87179402,-3.25,4.56,0.94,-0.56,-1.00,2.44,1.10,-0.28,-7.18,2.50,5.60,0.50,-10000.00,-10000.00,-1.53,0.65,0.00,0.00,1.75
87190717,-3.25,4.56,0.94,-0.25,0.19,1.81,-0.79,2.64,-7.80,2.50,5.60,0.50,-10000.00,-10000.00,-1.63,0.65,0.00,0.00,1.75
87200722,-3.25,4.56,0.94,-0.12,0.06,1.62,-2.85,3.88,-4.32,2.50,5.60,0.51,-10000.00,-10000.00,-1.64,0.65,0.00,0.00,1.40
87212577,-3.25,4.56,0.94,-0.19,0.75,1.81,0.72,1.06,-3.95,2.50,5.60,0.53,-10000.00,-10000.00,-1.58,0.65,0.00,0.00,0.70
87222581,-3.25,4.56,1.00,0.25,0.25,2.38,-3.03,3.04,-7.37,2.50,5.60,0.53,-10000.00,-10000.00,-1.58,0.65,0.00,0.00,0.70
87235962,-3.25,4.50,1.00,0.50,-0.44,2.44,0.83,1.30,-6.30,2.50,5.60,0.51,-10000.00,-10000.00,-1.69,0.65,0.00,0.00,1.40
87247498,-3.25,4.50,1.06,0.19,-0.06,1.81,1.09,0.92,-7.72,2.50,5.60,0.51,-10000.00,-10000.00,-1.79,0.65,0.00,0.00,1.40
87257696,-3.25,4.50,1.06,0.56,0.56,2.25,-1.53,2.29,-4.25,2.50,5.60,0.51,-10000.00,-10000.00,-1.76,0.65,0.00,0.00,1.40
87268810,-3.25,4.50,1.06,0.25,-0.50,2.31,1.75,0.06,-5.62,2.50,5.60,0.51,-10000.00,-10000.00,-1.84,0.65,0.00,0.00,1.40
87278814,-3.25,4.50,1.12,-0.12,-0.25,2.50,1.35,-0.18,-9.28,2.50,5.60,0.52,-10000.00,-10000.00,-1.84,0.65,0.00,0.00,1.05
87290592,-3.25,4.50,1.12,0.31,-0.94,2.50,-2.52,4.89,-3.85,2.50,5.60,0.51,-10000.00,-10000.00,-1.80,0.65,0.00,0.00,1.40
87300597,-3.25,4.50,1.19,0.19,-0.06,2.81,1.65,1.20,-7.87,2.50,5.60,0.51,-10000.00,-10000.00,-1.84,0.65,0.00,0.00,1.40
87310599,-3.25,4.50,1.19,-0.19,0.19,3.31,-0.71,2.60,-8.29,2.50,5.60,0.51,-10000.00,-10000.00,-1.93,0.65,0.00,0.00,1.40
87320603,-3.25,4.50,1.25,0.25,0.44,3.38,-2.09,4.05,-3.31,2.50,5.60,0.50,-10000.00,-10000.00,-2.08,0.65,0.00,0.00,1.75
87331849,-3.25,4.50,1.25,0.31,-0.38,3.75,1.28,-0.78,-8.41,2.50,5.60,0.51,-10000.00,-10000.00,-2.08,0.65,0.00,0.00,1.40
87341895,-3.25,4.50,1.31,-0.50,-1.00,3.31,-1.41,4.10,-6.15,2.50,5.60,0.50,-10000.00,-10000.00,-2.08,0.65,0.00,0.00,1.75
87355083,-3.25,4.50,1.31,-0.44,-1.25,3.44,-2.23,3.53,-3.41,2.50,5.60,0.51,-10000.00,-10000.00,-2.07,0.65,0.00,0.00,1.40
87367007,-3.31,4.50,1.38,-0.25,-0.50,2.44,2.52,-0.21,-7.15,2.50,5.60,0.52,-10000.00,-10000.00,-2.07,0.66,0.00,0.00,1.05
87378490,-3.31,4.50,1.38,0.12,0.50,1.19,-0.93,2.82,-4.58,2.50,5.60,0.52,-10000.00,-10000.00,-2.09,0.66,0.00,0.00,1.05
87388494,-3.31,4.50,1.38,0.62,0.69,2.12,2.08,0.67,-7.71,2.50,5.60,0.52,-10000.00,-10000.00,-2.18,0.66,0.00,0.00,1.05
87402654,-3.31,4.50,1.44,0.62,-0.25,2.50,0.76,2.28,-8.15,2.50,5.60,0.52,-10000.00,-10000.00,-2.19,0.66,0.00,0.00,1.05
87413536,-3.31,4.50,1.44,0.50,-0.25,2.88,-2.38,4.10,-4.00,2.50,5.60,0.53,-10000.00,-10000.00,-2.17,0.66,0.00,0.00,0.70
87423540,-3.31,4.50,1.50,0.19,-0.12,3.06,1.77,-0.36,-8.20,2.50,5.60,0.52,-10000.00,-10000.00,-2.26,0.66,0.00,0.00,1.05
87434508,-3.31,4.50,1.50,0.06,-0.69,2.81,0.68,1.13,-7.73,2.50,5.60,0.52,-10000.00,-10000.00,-2.25,0.66,0.00,0.00,1.05
87446543,-3.31,4.50,1.56,-1.00,0.12,2.12,1.64,-1.13,-8.32,2.50,5.60,0.52,-10000.00,-10000.00,-2.34,0.66,0.00,0.00,1.05
87458698,-3.31,4.50,1.56,0.12,-0.06,2.19,-1.90,3.27,-5.82,2.50,5.60,0.54,-10000.00,-10000.00,-2.25,0.66,0.00,0.00,0.35
87468787,-3.31,4.50,1.56,0.12,-0.06,2.19,-2.63,2.45,-3.50,2.50,5.60,0.50,-10000.00,-10000.00,-2.50,0.66,0.00,0.00,1.75
87482304,-3.31,4.50,1.62,0.44,-0.25,3.06,0.96,0.16,-5.42,2.50,5.60,0.54,-10000.00,-10000.00,-2.43,0.66,0.00,0.00,0.35
87493467,-3.31,4.50,1.69,0.75,-1.06,2.88,-2.67,3.52,-4.84,2.50,5.60,0.52,-10000.00,-10000.00,-2.54,0.66,0.00,0.00,1.05
87505200,-3.31,4.50,1.69,0.69,0.25,2.81,-1.63,2.69,-3.56,2.50,5.60,0.53,-10000.00,-10000.00,-2.52,0.66,0.00,0.00,0.70
87518406,-3.31,4.50,1.75,-0.31,-0.38,3.44,1.75,-0.51,-8.25,2.50,5.60,0.52,-10000.00,-10000.00,-2.61,0.66,0.00,0.00,1.05
87528409,-3.31,4.50,1.75,-0.25,0.31,3.94,2.86,-1.45,-7.63,2.50,5.60,0.52,-10000.00,-10000.00,-2.70,0.66,0.00,0.00,1.05
87539295,-3.31,4.44,1.81,-0.75,0.25,3.44,-1.43,3.10,-7.80,2.50,5.60,0.52,-10000.00,-10000.00,-2.69,0.66,0.00,0.00,1.05
87549300,-3.31,4.50,1.81,-0.44,-0.31,2.62,-2.92,3.66,-3.53,2.50,5.60,0.52,-10000.00,-10000.00,-2.70,0.66,0.00,0.00,1.05
87561075,-3.31,4.50,1.88,0.31,0.50,1.44,2.52,-0.38,-7.15,2.50,5.60,0.52,-10000.00,-10000.00,-2.74,0.66,0.00,0.00,1.05
87571079,-3.31,4.44,1.88,0.81,0.75,1.06,-2.99,4.36,-4.04,2.50,5.60,0.54,-10000.00,-10000.00,-2.75,0.66,0.00,0.00,0.35
87581243,-3.31,4.44,1.88,0.44,-0.12,1.25,0.43,0.53,-4.91,2.50,5.60,0.51,-10000.00,-10000.00,-2.72,0.66,0.00,0.00,1.40
87591247,-3.31,4.44,1.94,0.31,-1.56,1.25,1.67,-1.35,-8.34,2.50,5.60,0.51,-10000.00,-10000.00,-2.91,0.66,0.00,0.00,1.40
87604713,-3.31,4.44,1.94,-0.44,-0.62,1.50,-1.95,2.81,-2.98,2.50,5.60,0.52,-10000.00,-10000.00,-2.80,0.66,0.00,0.00,1.05
87619660,-3.38,4.44,1.94,-0.56,-1.31,2.19,-0.97,1.35,-8.27,2.50,5.60,0.50,-10000.00,-10000.00,-2.97,0.68,0.00,0.00,1.75
87629665,-3.38,4.44,1.94,-0.06,0.25,2.44,-2.71,4.44,-4.10,2.50,5.60,0.51,-10000.00,-10000.00,-2.90,0.68,0.00,0.00,1.40
87642632,-3.38,4.44,2.00,0.75,-0.94,3.00,1.75,-0.14,-8.84,2.50,5.60,0.52,-10000.00,-10000.00,-2.92,0.68,0.00,0.00,1.05
87652732,-3.38,4.44,2.06,0.75,-0.12,3.06,-2.72,4.80,-5.75,2.50,5.60,0.53,-10000.00,-10000.00,-2.90,0.68,0.00,0.00,0.70
87665131,-3.38,4.44,2.06,0.25,-0.69,3.44,-1.75,2.54,-3.86,2.50,5.60,0.51,-10000.00,-10000.00,-3.00,0.68,0.00,0.00,1.40
87675133,-3.38,4.44,2.12,-0.31,-0.75,3.19,2.11,0.51,-7.64,2.50,5.60,0.51,-10000.00,-10000.00,-3.04,0.68,0.00,0.00,1.40
87685828,-3.38,4.44,2.12,0.19,-1.56,3.06,-2.56,4.55,-3.08,2.50,5.60,0.51,-10000.00,-10000.00,-3.15,0.68,0.00,0.00,1.40
87697635,-3.44,4.44,2.19,0.00,-0.75,2.88,1.55,-1.01,-7.56,2.50,5.60,0.51,-10000.00,-10000.00,-3.05,0.69,0.00,0.00,1.40
87710952,-3.44,4.44,2.25,0.00,-2.00,3.56,-2.09,2.83,-7.64,2.50,5.60,0.51,-10000.00,-10000.00,-3.10,0.69,0.00,0.00,1.40
87720957,-3.44,4.44,2.25,0.06,0.56,3.19,0.67,-0.47,-5.71,2.50,5.60,0.50,-10000.00,-10000.00,-3.21,0.69,0.00,0.00,1.75
87732802,-3.44,4.44,2.31,0.12,1.00,3.06,1.31,1.80,-8.01,2.50,5.60,0.51,-10000.00,-10000.00,-3.15,0.69,0.00,0.00,1.40
87742853,-3.44,4.44,2.31,0.19,-0.38,3.06,-2.58,4.89,-5.17,2.50,5.60,0.52,-10000.00,-10000.00,-3.18,0.69,0.00,0.00,1.05
87755733,-3.44,4.44,2.38,0.38,-0.06,3.06,-1.18,1.86,-4.64,2.50,5.60,0.51,-10000.00,-10000.00,-3.28,0.69,0.00,0.00,1.40
87767914,-3.44,4.44,2.38,-0.31,-0.25,3.19,-2.11,3.84,-6.68,2.50,5.60,0.52,-10000.00,-10000.00,-3.33,0.69,0.00,0.00,1.05
87779288,-3.44,4.44,2.44,-0.56,0.19,2.94,1.51,1.96,-6.11,2.50,5.60,0.51,-10000.00,-10000.00,-3.33,0.69,0.00,0.00,1.40
87789292,-3.44,4.44,2.44,0.12,1.19,3.12,1.74,0.92,-8.69,2.50,5.60,0.51,-10000.00,-10000.00,-3.37,0.69,0.00,0.00,1.40
87801863,-3.44,4.44,2.50,0.00,-0.56,3.88,-1.31,3.13,-3.76,2.50,5.60,0.50,-10000.00,-10000.00,-3.43,0.69,0.00,0.00,1.75
87811866,-3.44,4.44,2.56,-0.31,-0.44,3.81,1.76,-0.09,-7.64,2.50,5.60,0.52,-10000.00,-10000.00,-3.37,0.69,0.00,0.00,1.05
87823978,-3.44,4.44,2.56,-0.19,0.56,3.38,-0.30,2.46,-8.45,2.50,5.60,0.51,-10000.00,-10000.00,-3.46,0.69,0.00,0.00,1.40
87833981,-3.44,4.38,2.62,-0.38,0.06,2.25,-3.14,3.29,-3.30,2.50,5.60,0.52,-10000.00,-10000.00,-3.38,0.69,0.00,0.00,1.05
87849030,-3.44,4.38,2.62,-0.12,0.75,1.38,-2.53,4.79,-6.52,2.50,5.60,0.51,-10000.00,-10000.00,-3.50,0.69,0.00,0.00,1.40
87859446,-3.44,4.38,2.62,0.69,-0.88,0.81,-2.40,3.76,-3.50,2.50,5.60,0.51,-10000.00,-10000.00,-3.57,0.69,0.00,0.00,1.40
87873230,-3.44,4.38,2.69,0.44,-0.62,1.50,0.94,-0.45,-8.95,2.50,5.60,0.51,-10000.00,-10000.00,-3.59,0.69,0.00,0.00,1.40
87883233,-3.44,4.38,2.69,0.38,0.12,1.81,-2.54,3.57,-5.11,2.50,5.60,0.53,-10000.00,-10000.00,-3.55,0.69,0.00,0.00,0.70
87895748,-3.44,4.38,2.69,0.12,1.00,2.31,-0.25,3.70,-3.90,2.50,5.60,0.52,-10000.00,-10000.00,-3.57,0.69,0.00,0.00,1.05
87907909,-3.44,4.38,2.75,-0.69,-0.44,3.06,-1.92,2.88,-3.94,2.50,5.60,0.52,-10000.00,-10000.00,-3.60,0.69,0.00,0.00,1.05
87921435,-3.44,4.38,2.75,-0.31,1.00,3.12,1.19,0.27,-6.54,2.50,5.60,0.52,-10000.00,-10000.00,-3.60,0.69,0.00,0.00,1.05
87931437,-3.44,4.38,2.81,0.38,0.25,3.69,0.22,1.68,-8.12,2.50,5.60,0.51,-10000.00,-10000.00,-3.79,0.69,0.00,0.00,1.40
87941442,-3.44,4.38,2.88,0.06,0.88,3.88,-2.46,3.76,-5.70,2.50,5.60,0.52,-10000.00,-10000.00,-3.73,0.69,0.00,0.00,1.05
87951445,-3.44,4.38,2.88,0.19,0.38,4.00,2.27,-0.28,-8.68,2.50,5.60,0.52,-10000.00,-10000.00,-3.82,0.69,0.00,0.00,1.05
87961449,-3.44,4.38,2.94,-0.06,0.69,3.75,-2.27,2.88,-7.45,2.50,5.60,0.51,-10000.00,-10000.00,-3.87,0.69,0.00,0.00,1.40
87971453,-3.44,4.38,2.94,0.06,-0.88,3.75,-2.04,4.26,-3.63,2.50,5.60,0.52,-10000.00,-10000.00,-3.84,0.69,0.00,0.00,1.05
87981457,-3.44,4.38,3.00,-0.25,-1.31,3.69,1.40,-0.64,-6.54,2.50,5.60,0.51,-10000.00,-10000.00,-3.92,0.69,0.00,0.00,1.40
87991460,-3.44,4.38,3.06,-0.31,0.75,3.12,-2.48,4.77,-2.65,2.50,5.60,0.52,-10000.00,-10000.00,-3.98,0.69,0.00,0.00,1.05
88004903,-3.44,4.38,3.06,-0.38,1.00,3.00,0.53,1.22,-3.18,2.50,5.60,0.50,-10000.00,-10000.00,-4.04,0.69,0.00,0.00,1.75
88020118,-3.44,4.38,3.12,0.50,1.19,2.44,-2.67,2.91,-5.61,2.50,5.60,0.51,-10000.00,-10000.00,-4.05,0.69,0.00,0.00,1.40
88030122,-3.44,4.38,3.12,0.94,0.12,2.31,1.53,-1.20,-7.91,2.50,5.60,0.51,-10000.00,-10000.00,-4.08,0.69,0.00,0.00,1.40
88043650,-3.44,4.38,3.19,0.81,-1.12,2.56,-0.91,3.28,-7.60,2.50,5.60,0.52,-10000.00,-10000.00,-4.05,0.69,0.00,0.00,1.05
88053777,-3.44,4.31,3.19,-0.38,-0.56,2.19,-3.51,4.42,-4.44,2.50,5.60,0.51,-10000.00,-10000.00,-4.17,0.69,0.00,0.00,1.40
88065888,-3.44,4.38,3.19,-1.44,-0.56,2.38,1.61,-0.91,-6.29,2.50,5.60,0.51,-10000.00,-10000.00,-4.20,0.69,0.00,0.00,1.40
88075892,-3.44,4.38,3.25,-0.62,-0.12,2.06,-2.61,4.03,-4.33,2.50,5.60,0.50,-10000.00,-10000.00,-4.23,0.69,0.00,0.00,1.75
88086082,-3.44,4.38,3.25,-0.19,0.62,2.06,-0.32,0.38,-3.93,2.50,5.60,0.51,-10000.00,-10000.00,-4.25,0.69,0.00,0.00,1.40
88098396,-3.44,4.38,3.25,0.50,-0.06,1.94,-2.19,2.69,-7.12,2.50,5.60,0.51,-10000.00,-10000.00,-4.24,0.69,0.00,0.00,1.40
88109375,-3.44,4.38,3.31,0.62,0.44,1.25,2.13,-0.44,-6.93,2.50,5.60,0.52,-10000.00,-10000.00,-4.28,0.69,0.00,0.00,1.05
88120222,-3.44,4.38,3.31,0.69,0.00,1.12,-0.76,3.27,-7.39,2.50,5.60,0.51,-10000.00,-10000.00,-4.29,0.69,0.00,0.00,1.40
88131867,-3.44,4.31,3.31,-0.06,1.75,2.50,-2.22,4.07,-4.31,2.50,5.60,0.51,-10000.00,-10000.00,-4.35,0.69,0.00,0.00,1.40
88141869,-3.44,4.38,3.38,-0.69,1.88,3.44,0.13,-0.07,-5.59,2.50,5.60,0.52,-10000.00,-10000.00,-4.32,0.69,0.00,0.00,1.05
88154196,-3.44,4.31,3.44,-0.44,1.00,4.25,-2.89,3.63,-4.83,2.50,5.60,0.51,-10000.00,-10000.00,-4.43,0.69,0.00,0.00,1.40
88164199,-3.44,4.31,3.44,-0.12,0.00,4.06,-1.47,2.39,-4.05,2.50,5.60,0.52,-10000.00,-10000.00,-4.35,0.69,0.00,0.00,1.05
88176663,-3.44,4.31,3.50,-0.12,-0.94,4.06,1.62,-0.98,-8.75,2.50,5.60,0.53,-10000.00,-10000.00,-4.36,0.69,0.00,0.00,0.70
88186667,-3.44,4.31,3.50,0.06,-1.19,3.44,-3.03,3.38,-4.24,2.50,5.60,0.51,-10000.00,-10000.00,-4.43,0.69,0.00,0.00,1.40
88199237,-3.44,4.31,3.56,0.31,-0.12,2.75,-0.34,2.35,-8.66,2.50,5.60,0.52,-10000.00,-10000.00,-4.50,0.69,0.00,0.00,1.05
88209842,-3.44,4.31,3.56,0.12,-0.06,1.88,-2.36,3.97,-4.17,2.50,5.60,0.50,-10000.00,-10000.00,-4.61,0.69,0.00,0.00,1.75
88220532,-3.44,4.31,3.56,0.12,-0.06,1.88,0.67,-0.19,-8.00,2.50,5.60,0.51,-10000.00,-10000.00,-4.65,0.69,0.00,0.00,1.40
88230537,-3.44,4.31,3.62,0.25,0.94,2.62,-2.23,4.90,-5.25,2.50,5.60,0.51,-10000.00,-10000.00,-4.63,0.69,0.00,0.00,1.40
88240541,-3.44,4.31,3.62,0.12,1.12,3.31,-1.63,2.07,-4.43,2.50,5.60,0.51,-10000.00,-10000.00,-4.65,0.69,0.00,0.00,1.40
88250711,-3.44,4.31,3.69,0.00,-0.19,3.75,1.91,-0.07,-8.05,2.50,5.60,0.52,-10000.00,-10000.00,-4.69,0.69,0.00,0.00,1.05
88260777,-3.44,4.31,3.69,-0.12,0.19,3.56,-1.93,4.26,-3.11,2.50,5.60,0.51,-10000.00,-10000.00,-4.72,0.69,0.00,0.00,1.40
88270781,-3.44,4.31,3.75,-0.12,0.19,3.56,1.51,-0.75,-7.40,2.50,5.60,0.51,-10000.00,-10000.00,-4.80,0.69,0.00,0.00,1.40
88280786,-3.44,4.31,3.75,-0.50,-1.12,3.19,0.48,2.06,-8.67,2.50,5.60,0.52,-10000.00,-10000.00,-4.84,0.69,0.00,0.00,1.05
88292121,-3.44,4.31,3.81,-0.25,1.19,2.62,-3.02,4.68,-3.49,2.50,5.60,0.52,-10000.00,-10000.00,-4.75,0.69,0.00,0.00,1.05
88302124,-3.44,4.31,3.88,0.00,0.75,3.00,1.72,0.54,-8.62,2.50,5.60,0.51,-10000.00,-10000.00,-4.89,0.69,0.00,0.00,1.40
88312128,-3.44,4.31,3.88,0.50,0.56,3.00,-2.80,2.59,-5.72,2.50,5.60,0.53,-10000.00,-10000.00,-4.72,0.69,0.00,0.00,0.70
88322130,-3.44,4.31,3.94,0.25,0.38,2.81,-0.52,2.19,-3.99,2.50,5.60,0.51,-10000.00,-10000.00,-4.89,0.69,0.00,0.00,1.40
88332134,-3.44,4.31,3.94,-0.25,-0.25,2.25,1.77,0.37,-8.80,2.50,5.60,0.53,-10000.00,-10000.00,-4.83,0.69,0.00,0.00,0.70
88342136,-3.44,4.31,3.94,-0.06,-1.06,1.75,-2.10,3.38,-3.37,2.50,5.60,0.52,-10000.00,-10000.00,-4.89,0.69,0.00,0.00,1.05
88352140,-3.44,4.31,3.94,0.12,0.00,1.75,0.91,-0.20,-6.17,2.50,5.60,0.49,-10000.00,-10000.00,-5.12,0.69,0.00,0.00,2.10
88362143,-3.44,4.31,3.94,0.38,-0.94,2.06,0.80,0.49,-8.67,2.50,5.60,0.52,-10000.00,-10000.00,-4.97,0.69,0.00,0.00,1.05
88372145,-3.50,4.31,4.00,0.31,-0.75,2.38,-2.42,4.55,-4.03,2.50,5.60,0.51,-10000.00,-10000.00,-5.04,0.70,0.00,0.00,1.40
88382147,-3.50,4.31,4.00,0.00,0.62,2.31,1.29,1.06,-8.59,2.50,5.60,0.52,-10000.00,-10000.00,-5.08,0.70,0.00,0.00,1.05
88392150,-3.50,4.31,4.06,0.12,-0.12,2.50,-2.39,3.98,-6.24,2.50,5.60,0.51,-10000.00,-10000.00,-5.16,0.70,0.00,0.00,1.40
88402153,-3.50,4.31,4.06,-0.06,-0.12,2.31,-1.95,5.03,-3.86,2.50,5.60,0.51,-10000.00,-10000.00,-5.13,0.70,0.00,0.00,1.75
88412321,-3.50,4.31,4.06,-0.38,0.06,2.38,2.20,0.99,-7.95,2.50,5.60,0.51,-10000.00,-10000.00,-5.27,0.70,0.00,0.00,1.75
88422323,-3.50,4.31,4.12,-0.50,-0.12,2.94,-2.52,5.29,-4.64,2.50,5.60,0.52,-10000.00,-10000.00,-5.14,0.70,0.00,0.00,1.40
88432326,-3.50,4.31,4.12,-0.12,-0.12,2.88,0.94,0.11,-5.05,2.50,5.60,0.51,-10000.00,-10000.00,-5.31,0.70,0.00,0.00,1.75
88442328,-3.50,4.31,4.19,-0.31,1.25,2.25,1.42,-0.81,-9.28,2.50,5.60,0.52,-10000.00,-10000.00,-5.26,0.70,0.00,0.00,1.40
88452332,-3.50,4.31,4.19,-0.06,-0.38,2.19,-1.37,1.11,-4.33,2.50,5.60,0.51,-10000.00,-10000.00,-5.18,0.70,0.00,0.00,1.75
88462433,-3.50,4.31,4.19,0.38,-0.38,1.50,2.11,0.82,-7.03,2.50,5.60,0.52,-10000.00,-10000.00,-5.31,0.70,0.00,0.00,1.40
88472437,-3.50,4.31,4.19,-0.12,-1.44,1.38,-0.24,2.72,-8.06,2.50,5.60,0.52,-10000.00,-10000.00,-5.30,0.70,0.00,0.00,1.40
88484281,-3.50,4.31,4.25,-0.50,0.12,2.25,-3.08,5.90,-3.96,2.50,5.60,0.51,-10000.00,-10000.00,-5.42,0.70,0.00,0.00,1.75
88494285,-3.50,4.31,4.31,0.00,0.25,2.94,1.37,0.35,-8.75,2.50,5.60,0.51,-10000.00,-10000.00,-5.41,0.70,0.00,0.00,1.75
88506451,-3.50,4.31,4.31,-0.19,0.00,3.56,-3.01,3.34,-5.93,2.50,5.60,0.50,-10000.00,-10000.00,-5.49,0.70,0.00,0.00,2.10
88518413,-3.50,4.31,4.38,0.25,-0.12,3.62,-1.06,1.32,-3.74,2.50,5.60,0.51,-10000.00,-10000.00,-5.47,0.70,0.00,0.00,1.75
88530595,-3.50,4.31,4.38,-0.12,-0.19,3.44,-2.22,3.02,-3.77,2.50,5.60,0.52,-10000.00,-10000.00,-5.50,0.70,0.00,0.00,1.40
88540794,-3.50,4.31,4.44,-0.06,2.62,2.25,1.09,0.84,-5.87,2.50,5.60,0.51,-10000.00,-10000.00,-5.52,0.70,0.00,0.00,1.75
88554416,-3.50,4.25,4.44,0.19,0.62,2.31,1.58,0.53,-8.48,2.50,5.60,0.52,-10000.00,-10000.00,-5.59,0.70,0.00,0.00,1.40
88564418,-3.50,4.25,4.50,0.31,0.44,2.19,-2.12,4.47,-5.65,2.50,5.60,0.52,-10000.00,-10000.00,-5.57,0.70,0.00,0.00,1.40
88575224,-3.50,4.25,4.50,0.12,1.69,2.19,1.00,0.51,-7.00,2.50,5.60,0.52,-10000.00,-10000.00,-5.66,0.70,0.00,0.00,1.40
88585229,-3.50,4.25,4.50,-0.12,-0.38,2.06,0.78,2.68,-8.46,2.50,5.60,0.51,-10000.00,-10000.00,-5.75,0.70,0.00,0.00,1.75
88597558,-3.50,4.25,4.56,-0.25,-1.06,1.81,-3.12,3.74,-5.22,2.50,5.60,0.50,-10000.00,-10000.00,-5.78,0.70,0.00,0.00,2.10
88609791,-3.50,4.25,4.56,-0.25,-0.81,1.44,0.54,3.28,-8.65,2.50,5.60,0.52,-10000.00,-10000.00,-5.75,0.70,0.00,0.00,1.40
88624178,-3.50,4.25,4.62,0.69,1.44,2.38,-3.35,4.09,-4.01,2.50,5.60,0.51,-10000.00,-10000.00,-5.77,0.70,0.00,0.00,1.75
88634181,-3.50,4.25,4.62,0.38,0.75,2.94,-1.21,3.29,-4.05,2.50,5.60,0.52,-10000.00,-10000.00,-5.78,0.70,0.00,0.00,1.40
88646589,-3.44,4.25,4.62,0.38,1.38,2.62,1.27,0.06,-8.30,2.50,5.60,0.52,-10000.00,-10000.00,-5.87,0.69,0.00,0.00,1.40
88658298,-3.44,4.25,4.69,0.06,-0.94,2.56,-3.09,4.56,-3.54,2.50,5.60,0.51,-10000.00,-10000.00,-5.89,0.69,0.00,0.00,1.75
88672684,-3.50,4.25,4.69,-0.50,-0.31,2.12,1.89,1.18,-8.48,2.50,5.60,0.51,-10000.00,-10000.00,-5.98,0.70,0.00,0.00,1.75
88682688,-3.50,4.25,4.69,-0.25,-1.06,1.06,-2.07,5.44,-5.73,2.50,5.60,0.50,-10000.00,-10000.00,-6.06,0.70,0.00,0.00,2.10
88695026,-3.50,4.25,4.75,0.06,0.00,1.38,0.50,-0.42,-6.61,2.50,5.60,0.50,-10000.00,-10000.00,-6.10,0.70,0.00,0.00,2.10
88705028,-3.50,4.25,4.75,0.50,0.06,1.75,0.88,-0.14,-8.55,2.50,5.60,0.53,-10000.00,-10000.00,-5.94,0.70,0.00,0.00,1.05
88716270,-3.50,4.25,4.75,1.00,0.38,2.62,-2.82,3.84,-4.52,2.50,5.60,0.51,-10000.00,-10000.00,-6.01,0.70,0.00,0.00,1.75
88726275,-3.50,4.25,4.81,0.38,1.62,2.38,1.66,0.15,-7.99,2.50,5.60,0.49,-10000.00,-10000.00,-6.23,0.70,0.00,0.00,2.45
88739551,-3.44,4.25,4.81,-0.31,1.88,2.06,-3.22,6.09,-4.24,2.50,5.60,0.52,-10000.00,-10000.00,-6.11,0.69,0.00,0.00,1.40
88755338,-3.50,4.25,4.88,-0.50,-0.88,2.00,-0.35,3.66,-5.28,2.50,5.60,0.51,-10000.00,-10000.00,-6.24,0.70,0.00,0.00,1.75
88765341,-3.50,4.25,4.88,-0.56,-0.12,2.69,-2.53,3.22,-6.55,2.50,5.60,0.52,-10000.00,-10000.00,-6.22,0.70,0.00,0.00,1.40
88778269,-3.50,4.25,4.94,0.12,0.19,2.81,-2.17,2.54,-4.71,2.50,5.60,0.53,-10000.00,-10000.00,-6.17,0.70,0.00,0.00,1.05
88788273,-3.50,4.25,4.94,0.31,0.38,1.94,0.95,0.81,-7.13,2.50,5.60,0.51,-10000.00,-10000.00,-6.30,0.70,0.00,0.00,1.75
88803588,-3.50,4.25,4.94,0.56,1.00,2.31,-0.91,1.52,-4.65,2.50,5.60,0.52,-10000.00,-10000.00,-6.25,0.70,0.00,0.00,1.40
88813590,-3.50,4.25,5.00,0.25,-0.38,2.56,1.91,0.19,-9.33,2.50,5.60,0.53,-10000.00,-10000.00,-6.25,0.70,0.00,0.00,1.05
88824913,-3.50,4.25,5.00,0.62,0.56,2.94,-1.96,3.84,-7.77,2.50,5.60,0.51,-10000.00,-10000.00,-6.53,0.70,0.00,0.00,1.75
88834917,-3.50,4.25,5.06,0.00,0.69,3.25,-2.23,3.98,-3.54,2.50,5.60,0.51,-10000.00,-10000.00,-6.46,0.70,0.00,0.00,1.75
88844922,-3.50,4.25,5.06,-0.19,0.50,3.19,-0.69,2.18,-7.88,2.50,5.60,0.52,-10000.00,-10000.00,-6.34,0.70,0.00,0.00,1.40
88854988,-3.50,4.25,5.12,-0.19,-0.62,2.75,-3.15,3.50,-4.21,2.50,5.60,0.50,-10000.00,-10000.00,-6.58,0.70,0.00,0.00,2.10
88864992,-3.50,4.25,5.12,-0.12,-0.62,2.56,1.41,-2.09,-6.13,2.50,5.60,0.53,-10000.00,-10000.00,-6.43,0.70,0.00,0.00,1.05
88874995,-3.50,4.25,5.12,-0.56,-1.31,2.12,1.08,0.58,-8.47,2.50,5.60,0.51,-10000.00,-10000.00,-6.62,0.70,0.00,0.00,1.75
88884999,-3.50,4.25,5.19,-0.06,0.00,2.00,-0.44,1.84,-4.52,2.50,5.60,0.51,-10000.00,-10000.00,-6.68,0.70,0.00,0.00,1.75
88898439,-3.50,4.25,5.19,-0.19,1.81,2.00,1.71,-0.05,-9.23,2.50,5.60,0.51,-10000.00,-10000.00,-6.64,0.70,0.00,0.00,1.75
88912556,-3.50,4.25,5.25,0.50,-0.12,3.81,-2.34,3.07,-4.15,2.50,5.60,0.52,-10000.00,-10000.00,-6.66,0.70,0.00,0.00,1.40
88922840,-3.50,4.25,5.25,0.50,-0.12,3.81,-0.04,1.37,-8.17,2.50,5.60,0.53,-10000.00,-10000.00,-6.71,0.70,0.00,0.00,1.05
88934014,-3.50,4.19,5.31,-0.06,-0.50,3.44,-2.89,4.12,-3.91,2.50,5.60,0.53,-10000.00,-10000.00,-6.64,0.70,0.00,0.00,1.05
88944018,-3.50,4.19,5.38,-0.44,0.00,2.62,-0.21,0.46,-4.95,2.50,5.60,0.52,-10000.00,-10000.00,-6.71,0.70,0.00,0.00,1.40
88954865,-3.50,4.19,5.38,0.06,-0.56,1.94,1.48,-0.47,-7.96,2.50,5.60,0.52,-10000.00,-10000.00,-6.80,0.70,0.00,0.00,1.40
88964868,-3.50,4.19,5.38,0.06,-0.19,1.00,-2.47,4.82,-3.75,2.50,5.60,0.51,-10000.00,-10000.00,-6.77,0.70,0.00,0.00,1.75
88976187,-3.50,4.19,5.38,-0.12,-1.25,0.94,1.44,1.49,-5.95,2.50,5.60,0.50,-10000.00,-10000.00,-7.00,0.70,0.00,0.00,2.10
88986233,-3.50,4.19,5.38,-0.19,-1.06,0.69,0.81,0.24,-8.52,2.50,5.60,0.51,-10000.00,-10000.00,-6.89,0.70,0.00,0.00,1.75
88998902,-3.50,4.19,5.44,0.50,-0.81,1.19,-0.45,0.58,-4.18,2.50,5.60,0.52,-10000.00,-10000.00,-6.88,0.70,0.00,0.00,1.40
89011137,-3.50,4.19,5.44,0.25,0.69,1.62,-1.97,4.76,-7.47,2.50,5.60,0.52,-10000.00,-10000.00,-6.92,0.70,0.00,0.00,1.40
89024572,-3.50,4.19,5.50,0.31,0.81,2.62,-2.37,4.87,-3.56,2.50,5.60,0.52,-10000.00,-10000.00,-6.98,0.70,0.00,0.00,1.40
89034576,-3.50,4.19,5.50,0.25,1.44,3.56,0.65,3.13,-8.14,2.50,5.60,0.51,-10000.00,-10000.00,-7.12,0.70,0.00,0.00,1.75
89044820,-3.50,4.19,5.56,-0.31,0.81,3.94,-2.47,4.26,-5.41,2.50,5.60,0.51,-10000.00,-10000.00,-7.14,0.70,0.00,0.00,1.75
89054824,-3.50,4.19,5.56,-0.38,0.38,4.31,-1.59,4.37,-3.19,2.50,5.60,0.51,-10000.00,-10000.00,-7.11,0.70,0.00,0.00,1.75
89064826,-3.50,4.19,5.62,-0.31,-0.50,4.44,2.20,0.23,-8.58,2.50,5.60,0.53,-10000.00,-10000.00,-7.05,0.70,0.00,0.00,1.05
89074829,-3.50,4.19,5.69,0.06,-0.94,4.62,-2.30,3.31,-3.96,2.50,5.60,0.53,-10000.00,-10000.00,-7.02,0.70,0.00,0.00,1.05
89084833,-3.50,4.19,5.75,-0.06,0.19,3.94,1.50,0.01,-7.32,2.50,5.60,0.50,-10000.00,-10000.00,-7.16,0.70,0.00,0.00,2.10
89094836,-3.50,4.19,5.75,-0.06,-0.38,3.19,1.12,2.01,-8.93,2.50,5.60,0.51,-10000.00,-10000.00,-7.21,0.70,0.00,0.00,1.75
89105418,-3.56,4.19,5.75,-0.31,-1.12,2.56,-2.48,4.26,-5.03,2.50,5.60,0.52,-10000.00,-10000.00,-7.22,0.71,0.00,0.00,1.40
89115422,-3.56,4.19,5.81,-0.31,0.56,2.12,2.23,-1.07,-8.14,2.50,5.60,0.50,-10000.00,-10000.00,-7.36,0.71,0.00,0.00,2.10
89127140,-3.56,4.19,5.81,0.00,0.25,2.12,-2.45,2.72,-6.22,2.50,5.60,0.52,-10000.00,-10000.00,-7.31,0.71,0.00,0.00,1.40
89137143,-3.56,4.19,5.81,0.06,-1.94,1.88,-2.08,3.24,-4.53,2.50,5.60,0.51,-10000.00,-10000.00,-7.33,0.71,0.00,0.00,1.75
89148988,-3.56,4.19,5.88,-0.31,-1.31,1.06,2.33,-0.36,-6.67,2.50,5.60,0.52,-10000.00,-10000.00,-7.33,0.71,0.00,0.00,1.40
89161320,-3.56,4.19,5.88,0.44,-0.06,1.50,0.49,0.62,-3.78,2.50,5.60,0.52,-10000.00,-10000.00,-7.35,0.71,0.00,0.00,1.40
89173779,-3.56,4.19,5.88,0.50,1.19,3.12,1.68,-0.08,-8.99,2.50,5.60,0.51,-10000.00,-10000.00,-7.55,0.71,0.00,0.00,1.75
89183783,-3.56,4.19,5.94,0.69,0.06,3.44,-3.24,3.54,-5.68,2.50,5.60,0.51,-10000.00,-10000.00,-7.58,0.71,0.00,0.00,1.75
89194258,-3.56,4.19,5.94,0.38,-0.50,2.94,1.84,-0.59,-8.75,2.50,5.60,0.51,-10000.00,-10000.00,-7.47,0.71,0.00,0.00,1.75
89204261,-3.56,4.19,6.00,-0.31,0.50,2.50,-1.52,3.33,-8.15,2.50,5.60,0.52,-10000.00,-10000.00,-7.51,0.71,0.00,0.00,1.40
89214264,-3.56,4.19,6.00,-1.19,0.44,2.12,-2.70,2.57,-3.53,2.50,5.60,0.51,-10000.00,-10000.00,-7.62,0.71,0.00,0.00,1.75
89224804,-3.56,4.19,6.06,-0.94,0.75,2.69,2.09,-0.52,-6.88,2.50,5.60,0.53,-10000.00,-10000.00,-7.46,0.71,0.00,0.00,1.05
89234807,-3.56,4.19,6.06,-0.06,0.44,2.69,-2.71,3.60,-5.02,2.50,5.60,0.52,-10000.00,-10000.00,-7.62,0.71,0.00,0.00,1.40
89244811,-3.56,4.19,6.12,0.19,-0.25,2.12,0.13,-0.32,-3.33,2.50,5.60,0.52,-10000.00,-10000.00,-7.59,0.71,0.00,0.00,1.40
89254815,-3.56,4.19,6.12,0.38,-0.56,1.44,1.25,-1.52,-8.71,2.50,5.60,0.51,-10000.00,-10000.00,-7.72,0.71,0.00,0.00,1.75
89264818,-3.56,4.19,6.12,0.50,-0.81,1.25,-2.14,3.63,-0.10,2.50,5.60,0.52,-10000.00,-10000.00,-7.67,0.71,0.00,0.00,1.40
89274821,-3.56,4.19,6.12,0.00,0.19,2.00,1.22,-0.39,-7.44,2.50,5.60,0.52,-10000.00,-10000.00,-7.67,0.71,0.00,0.00,1.40
89284825,-3.56,4.19,6.19,0.38,0.88,2.69,-1.91,2.31,-8.35,2.50,5.60,0.52,-10000.00,-10000.00,-7.71,0.71,0.00,0.00,1.40
89294830,-3.56,4.19,6.19,0.31,0.56,3.50,-2.58,4.98,-3.15,2.50,5.60,0.51,-10000.00,-10000.00,-7.78,0.71,0.00,0.00,1.75
89305656,-3.56,4.19,6.25,-0.31,1.44,3.69,0.46,3.58,-8.04,2.50,5.60,0.50,-10000.00,-10000.00,-7.91,0.71,0.00,0.00,2.10
89315659,-3.56,4.19,6.25,0.00,0.31,3.75,-2.59,3.53,-3.98,2.50,5.60,0.51,-10000.00,-10000.00,-7.83,0.71,0.00,0.00,1.75
89325663,-3.56,4.19,6.31,-0.75,1.19,4.12,1.27,-0.20,-5.42,2.50,5.60,0.51,-10000.00,-10000.00,-7.95,0.71,0.00,0.00,1.75
89335666,-3.56,4.19,6.38,-0.75,1.56,3.69,0.85,0.92,-8.33,2.50,5.60,0.52,-10000.00,-10000.00,-7.90,0.71,0.00,0.00,1.40
89346185,-3.56,4.19,6.38,-0.88,0.00,3.25,0.45,2.00,-4.57,2.50,5.60,0.52,-10000.00,-10000.00,-7.92,0.71,0.00,0.00,1.40
89356189,-3.56,4.19,6.44,-0.12,-0.12,2.31,1.82,0.45,-8.68,2.50,5.60,0.50,-10000.00,-10000.00,-8.01,0.71,0.00,0.00,2.10
89366250,-3.56,4.19,6.44,0.44,-0.88,2.00,-2.39,3.73,-6.27,2.50,5.60,0.51,-10000.00,-10000.00,-8.04,0.71,0.00,0.00,1.75
89376253,-3.56,4.19,6.44,0.00,0.31,2.06,-1.91,3.49,-4.05,2.50,5.60,0.52,-10000.00,-10000.00,-8.01,0.71,0.00,0.00,1.40
89386257,-3.56,4.19,6.44,0.25,0.06,2.06,1.56,3.42,-8.59,2.50,5.60,0.52,-10000.00,-10000.00,-8.05,0.71,0.00,0.00,1.40
89396262,-3.56,4.19,6.50,0.12,-0.62,2.56,-2.92,7.06,-3.79,2.50,5.60,0.51,-10000.00,-10000.00,-8.07,0.71,0.00,0.00,1.75
89406265,-3.56,4.19,6.50,0.81,-0.56,3.38,0.15,1.15,-5.45,2.50,5.60,0.49,-10000.00,-10000.00,-8.15,0.71,0.00,0.00,2.45
89416268,-3.56,4.19,6.56,0.50,0.19,3.50,2.13,0.82,-8.50,2.50,5.60,0.53,-10000.00,-10000.00,-8.04,0.71,0.00,0.00,1.05
89426271,-3.56,4.19,6.56,0.19,-0.44,2.94,-2.41,3.90,-4.51,2.50,5.60,0.52,-10000.00,-10000.00,-8.11,0.71,0.00,0.00,1.40
89436274,-3.56,4.19,6.62,-0.56,-1.12,2.81,1.94,-1.15,-8.92,2.50,5.60,0.52,-10000.00,-10000.00,-8.21,0.71,0.00,0.00,1.40
89446279,-3.56,4.19,6.62,-0.38,-0.62,2.75,-0.62,1.98,-8.21,2.50,5.60,0.52,-10000.00,-10000.00,-8.25,0.71,0.00,0.00,1.40
89456283,-3.62,4.19,6.69,0.00,-1.12,2.50,-3.75,4.08,-4.23,2.50,5.60,0.51,-10000.00,-10000.00,-8.22,0.73,0.00,0.00,1.75
89466287,-3.62,4.19,6.69,0.12,-2.56,2.12,1.22,0.47,-8.98,2.50,5.60,0.52,-10000.00,-10000.00,-8.26,0.73,0.00,0.00,1.40
89476312,-3.62,4.19,6.69,-0.06,-0.50,1.75,-2.48,5.60,-5.05,2.50,5.60,0.52,-10000.00,-10000.00,-8.34,0.73,0.00,0.00,1.40
89486317,-3.62,4.12,6.75,0.69,-1.25,1.88,-1.67,0.01,-4.50,2.50,5.60,0.52,-10000.00,-10000.00,-8.36,0.73,0.00,0.00,1.40
89496319,-3.62,4.12,6.75,0.50,-0.50,2.25,2.09,-0.83,-9.13,2.50,5.60,0.53,-10000.00,-10000.00,-8.30,0.73,0.00,0.00,1.05
89506322,-3.62,4.12,6.75,0.25,0.56,3.44,-2.04,3.24,-4.35,2.50,5.60,0.51,-10000.00,-10000.00,-8.32,0.73,0.00,0.00,1.75
89517408,-3.69,4.12,6.81,-0.12,-0.75,4.44,2.97,-1.48,-7.83,2.50,5.60,0.51,-10000.00,-10000.00,-8.57,0.74,0.00,0.00,1.75
89527410,-3.62,4.12,6.88,-0.25,0.88,4.06,-1.70,3.57,-6.98,2.50,5.60,0.52,-10000.00,-10000.00,-8.50,0.73,0.00,0.00,1.40
89538274,-3.62,4.12,6.88,-0.44,1.44,3.69,2.41,-0.76,-7.08,2.50,5.60,0.52,-10000.00,-10000.00,-8.54,0.73,0.00,0.00,1.40
89548428,-3.62,4.12,6.94,-0.19,2.31,3.44,0.26,1.79,-8.62,2.50,5.60,0.53,-10000.00,-10000.00,-8.53,0.73,0.00,0.00,1.05
89560931,-3.62,4.12,6.94,0.38,-0.25,3.06,-2.77,4.00,-3.31,2.50,5.60,0.51,-10000.00,-10000.00,-8.58,0.73,0.00,0.00,1.75
89572757,-3.62,4.12,7.00,0.19,-1.44,2.88,0.67,0.13,-5.50,2.50,5.60,0.51,-10000.00,-10000.00,-8.66,0.73,0.00,0.00,1.75
89582761,-3.62,4.12,7.00,0.00,-0.88,2.56,-3.67,4.86,-4.62,2.50,5.60,0.52,-10000.00,-10000.00,-8.63,0.73,0.00,0.00,1.40
89592765,-3.62,4.12,7.06,0.38,0.25,2.38,2.63,-0.50,-8.90,2.50,5.60,0.52,-10000.00,-10000.00,-8.68,0.73,0.00,0.00,1.40
89603347,-3.62,4.12,7.06,0.06,0.56,2.75,-3.08,4.54,-5.82,2.50,5.60,0.51,-10000.00,-10000.00,-8.80,0.73,0.00,0.00,1.75
89614037,-3.69,4.12,7.06,0.31,0.25,2.75,1.91,0.09,-8.02,2.50,5.60,0.50,-10000.00,-10000.00,-8.79,0.74,0.00,0.00,2.45
89625825,-3.62,4.12,7.12,0.44,0.62,2.81,-1.15,3.63,-7.32,2.50,5.60,0.53,-10000.00,-10000.00,-8.71,0.73,0.00,0.00,1.40
89635830,-3.62,4.12,7.19,0.31,1.12,2.69,-3.11,4.14,-3.77,2.50,5.60,0.51,-10000.00,-10000.00,-8.88,0.73,0.00,0.00,2.10
89647362,-3.62,4.12,7.19,-0.25,0.62,3.44,2.19,-0.43,-6.86,2.50,5.60,0.51,-10000.00,-10000.00,-8.91,0.73,0.00,0.00,2.10
89657367,-3.62,4.12,7.25,0.00,-0.06,3.19,-2.22,4.54,-3.92,2.50,5.60,0.51,-10000.00,-10000.00,-8.98,0.73,0.00,0.00,2.10
89667369,-3.62,4.12,7.25,0.12,-0.44,2.62,1.02,1.03,-4.66,2.50,5.60,0.50,-10000.00,-10000.00,-8.97,0.73,0.00,0.00,2.45
89677373,-3.69,4.12,7.31,-0.31,-1.00,2.38,2.38,-0.17,-8.28,2.50,5.60,0.51,-10000.00,-10000.00,-8.96,0.74,0.00,0.00,2.10
89687975,-3.69,4.12,7.31,-0.62,-1.12,2.25,-2.56,4.14,-6.71,2.50,5.60,0.51,-10000.00,-10000.00,-9.05,0.74,0.00,0.00,2.10
89697979,-3.69,4.12,7.31,-0.56,0.12,1.75,2.34,-2.13,-8.14,2.50,5.60,0.52,-10000.00,-10000.00,-9.04,0.74,0.00,0.00,1.75
89707982,-3.69,4.12,7.31,-0.25,1.00,1.06,-0.61,1.81,-8.29,2.50,5.60,0.52,-10000.00,-10000.00,-9.03,0.74,0.00,0.00,1.75
89717986,-3.69,4.12,7.31,0.56,0.56,0.69,-2.16,4.13,-3.62,2.50,5.60,0.50,-10000.00,-10000.00,-9.10,0.74,0.00,0.00,2.45
89728270,-3.69,4.12,7.38,0.44,-1.19,1.06,0.91,1.23,-4.74,2.50,5.60,0.53,-10000.00,-10000.00,-9.11,0.74,0.00,0.00,1.40
89738274,-3.69,4.12,7.38,0.50,-1.25,1.62,-1.95,3.88,-6.33,2.50,5.60,0.52,-10000.00,-10000.00,-9.09,0.74,0.00,0.00,1.75
89749411,-3.69,4.12,7.38,-0.06,-1.00,2.12,-2.38,3.01,-4.24,2.50,5.60,0.51,-10000.00,-10000.00,-9.16,0.74,0.00,0.00,2.10
89760847,-3.75,4.12,7.44,0.12,-1.88,2.31,0.78,1.34,-6.25,2.50,5.60,0.51,-10000.00,-10000.00,-9.19,0.75,0.00,0.00,2.10
89773123,-3.75,4.12,7.44,-0.06,0.44,1.94,2.05,2.67,-8.86,2.50,5.60,0.52,-10000.00,-10000.00,-9.15,0.75,0.00,0.00,1.75
89783126,-3.69,4.12,7.44,0.19,1.00,2.38,-1.60,3.02,-4.27,2.50,5.60,0.50,-10000.00,-10000.00,-9.32,0.74,0.00,0.00,2.45
89793130,-3.69,4.12,7.50,0.19,0.19,2.75,-1.89,1.61,-7.04,2.50,5.60,0.52,-10000.00,-10000.00,-9.26,0.74,0.00,0.00,1.75
89804009,-3.69,4.12,7.50,-0.31,0.19,2.69,1.38,-1.48,-6.12,2.50,5.60,0.51,-10000.00,-10000.00,-9.39,0.74,0.00,0.00,2.10
89815123,-3.69,4.12,7.50,-0.12,0.44,2.25,0.87,1.23,-7.72,2.50,5.60,0.52,-10000.00,-10000.00,-9.38,0.74,0.00,0.00,1.75
89825341,-3.75,4.12,7.56,-0.12,0.44,2.25,-2.33,3.20,-5.23,2.50,5.60,0.51,-10000.00,-10000.00,-9.36,0.75,0.00,0.00,2.10
89836014,-3.75,4.12,7.56,-0.12,1.06,2.94,-2.05,0.75,-3.95,2.50,5.60,0.50,-10000.00,-10000.00,-9.57,0.75,0.00,0.00,2.45
89846019,-3.69,4.12,7.62,-0.31,0.62,2.44,-1.45,2.07,-8.35,2.50,5.60,0.52,-10000.00,-10000.00,-9.46,0.74,0.00,0.00,1.75
89856023,-3.69,4.12,7.62,0.19,-0.25,1.88,-2.52,4.13,-2.86,2.50,5.60,0.51,-10000.00,-10000.00,-9.48,0.74,0.00,0.00,2.10
89866207,-3.69,4.12,7.62,0.25,-1.12,1.31,0.62,0.37,-5.33,2.50,5.60,0.52,-10000.00,-10000.00,-9.46,0.74,0.00,0.00,1.75
89876211,-3.75,4.12,7.69,0.25,0.31,1.81,1.34,0.89,-7.82,2.50,5.60,0.50,-10000.00,-10000.00,-9.64,0.75,0.00,0.00,2.45
89886214,-3.75,4.12,7.69,0.25,0.31,1.81,-2.72,6.16,-3.95,2.50,5.60,0.51,-10000.00,-10000.00,-9.50,0.75,0.00,0.00,2.10
89896217,-3.75,4.12,7.69,0.56,0.31,2.44,0.96,0.47,-7.90,2.50,5.60,0.49,-10000.00,-10000.00,-9.74,0.75,0.00,0.00,2.80
89906222,-3.75,4.12,7.69,0.56,0.31,2.44,0.61,2.39,-8.14,2.50,5.60,0.50,-10000.00,-10000.00,-9.69,0.75,0.00,0.00,2.45
89916226,-3.75,4.06,7.75,0.06,0.12,2.69,-2.29,4.62,-5.52,2.50,5.60,0.52,-10000.00,-10000.00,-9.66,0.75,0.00,0.00,1.75
89926230,-3.75,4.06,7.75,0.06,-1.62,2.88,1.97,-0.76,-7.64,2.50,5.60,0.51,-10000.00,-10000.00,-9.70,0.75,0.00,0.00,2.10
89936234,-3.75,4.06,7.81,0.06,-1.62,2.88,0.21,2.70,-8.37,2.50,5.60,0.51,-10000.00,-10000.00,-9.69,0.75,0.00,0.00,2.10
89946237,-3.75,4.06,7.81,-0.44,-0.50,1.50,-3.27,3.66,-4.37,2.50,5.60,0.51,-10000.00,-10000.00,-9.81,0.75,0.00,0.00,2.10
89956239,-3.75,4.06,7.81,-0.31,-0.38,0.69,-0.53,0.35,-4.70,2.50,5.60,0.51,-10000.00,-10000.00,-9.78,0.75,0.00,0.00,2.10
89966244,-3.75,4.06,7.88,0.12,0.12,0.31,-2.47,4.10,-6.03,2.50,5.60,0.51,-10000.00,-10000.00,-9.86,0.75,0.00,0.00,2.10
89976248,-3.75,4.06,7.88,0.69,0.31,0.44,-2.58,3.79,-4.03,2.50,5.60,0.51,-10000.00,-10000.00,-9.78,0.75,0.00,0.00,2.10
89986252,-3.75,4.06,7.88,0.31,0.00,1.38,0.58,0.65,-6.68,2.50,5.60,0.51,-10000.00,-10000.00,-9.86,0.75,0.00,0.00,2.10
90000513,-3.75,4.06,7.88,0.50,0.50,1.56,0.66,2.39,-9.15,2.50,5.60,0.50,-10000.00,-10000.00,-9.86,0.75,0.00,0.00,2.45
90016252,-3.75,4.06,7.88,-0.19,0.19,3.00,1.62,0.37,-8.48,2.50,5.60,0.52,-10000.00,-10000.00,-9.91,0.75,0.00,0.00,1.75
90026254,-3.75,4.06,7.94,-0.19,0.19,3.00,-0.44,2.65,-7.57,2.50,5.60,0.51,-10000.00,-10000.00,-10.10,0.75,0.00,0.00,2.10
90037515,-3.75,4.06,8.00,-0.25,-0.25,2.56,-2.43,4.56,-4.76,2.50,5.60,0.51,-10000.00,-10000.00,-10.08,0.75,0.00,0.00,2.10
90047519,-3.75,4.06,8.00,0.12,-0.31,1.56,1.49,-0.12,-7.90,2.50,5.60,0.50,-10000.00,-10000.00,-10.17,0.75,0.00,0.00,2.45
90057682,-3.75,4.06,8.00,-0.06,0.38,1.38,-1.70,3.58,-7.68,2.50,5.60,0.52,-10000.00,-10000.00,-10.11,0.75,0.00,0.00,1.75
90067686,-3.75,4.06,8.00,-0.06,0.94,1.44,-3.29,3.79,-4.06,2.50,5.60,0.51,-10000.00,-10000.00,-10.18,0.75,0.00,0.00,2.10
90077689,-3.75,4.06,8.00,0.19,0.31,1.81,1.26,1.01,-6.89,2.50,5.60,0.52,-10000.00,-10000.00,-10.16,0.75,0.00,0.00,1.75
90087692,-3.75,4.06,8.06,0.12,0.81,1.44,-3.32,4.54,-4.88,2.50,5.60,0.53,-10000.00,-10000.00,-10.13,0.75,0.00,0.00,1.40
90097696,-3.75,4.06,8.06,-0.06,0.56,1.38,-2.50,2.31,-4.51,2.50,5.60,0.53,-10000.00,-10000.00,-10.15,0.75,0.00,0.00,1.40
90107698,-3.75,4.06,8.06,-0.12,-0.19,1.94,1.04,0.72,-8.62,2.50,5.60,0.51,-10000.00,-10000.00,-10.26,0.75,0.00,0.00,2.10
90117701,-3.75,4.06,8.12,0.56,0.25,1.75,-3.32,5.45,-4.21,2.50,5.60,0.53,-10000.00,-10000.00,-10.24,0.75,0.00,0.00,1.40
90127706,-3.75,4.06,8.12,0.06,0.56,2.44,0.61,-0.50,-5.58,2.50,5.60,0.52,-10000.00,-10000.00,-10.27,0.75,0.00,0.00,1.75
90137709,-3.75,4.06,8.12,-0.19,1.00,2.81,1.27,0.49,-9.66,2.50,5.60,0.52,-10000.00,-10000.00,-10.32,0.75,0.00,0.00,1.75
90148733,-3.75,4.06,8.19,0.25,0.44,3.38,-2.96,4.73,-6.01,2.50,5.60,0.52,-10000.00,-10000.00,-10.30,0.75,0.00,0.00,1.75
90158737,-3.75,4.06,8.25,-0.06,0.19,3.75,1.53,0.76,-8.82,2.50,5.60,0.55,-10000.00,-10000.00,-10.29,0.75,0.00,0.00,0.70
90169655,-3.75,4.06,8.25,0.25,1.38,3.38,-1.52,2.31,-8.30,2.50,5.60,0.53,-10000.00,-10000.00,-10.38,0.75,0.00,0.00,1.75
90179658,-3.75,4.06,8.31,-0.25,1.12,3.38,-2.99,4.25,-3.83,2.50,5.60,0.52,-10000.00,-10000.00,-10.50,0.75,0.00,0.00,2.10
90189661,-3.75,4.06,8.31,0.06,1.19,2.06,1.25,0.52,-6.33,2.50,5.60,0.52,-10000.00,-10000.00,-10.58,0.75,0.00,0.00,2.10
90199664,-3.75,4.06,8.31,0.25,-0.06,0.88,-2.37,3.96,-5.62,2.50,5.60,0.53,-10000.00,-10000.00,-10.55,0.75,0.00,0.00,1.75
90210751,-3.75,4.06,8.31,-0.25,-0.12,0.19,-2.62,3.72,-4.96,2.50,5.60,0.52,-10000.00,-10000.00,-10.53,0.75,0.00,0.00,2.10
90222530,-3.75,4.06,8.31,0.38,0.00,0.62,0.80,1.76,-7.28,2.50,5.60,0.53,-10000.00,-10000.00,-10.63,0.75,0.00,0.00,1.75
90232533,-3.69,4.06,8.31,0.50,1.19,1.25,0.69,1.32,-8.74,2.50,5.60,0.53,-10000.00,-10000.00,-10.62,0.74,0.00,0.00,1.75
90245192,-3.69,4.06,8.38,0.62,0.38,1.69,2.13,-0.86,-8.99,2.50,5.60,0.53,-10000.00,-10000.00,-10.67,0.74,0.00,0.00,1.75
90255809,-3.75,4.00,8.38,0.25,0.00,1.69,-2.09,3.07,-7.34,2.50,5.60,0.54,-10000.00,-10000.00,-10.66,0.75,0.00,0.00,1.40
90267917,-3.69,4.00,8.38,-0.25,1.00,1.38,-2.59,4.30,-3.39,2.50,5.60,0.52,-10000.00,-10000.00,-10.92,0.74,0.00,0.00,2.10
90277920,-3.75,4.00,8.44,0.19,-1.44,1.56,1.20,-0.80,-8.45,2.50,5.60,0.53,-10000.00,-10000.00,-10.82,0.75,0.00,0.00,1.75
90290780,-3.75,4.00,8.44,-0.38,-1.94,1.94,-2.78,4.17,-4.24,2.50,5.60,0.52,-10000.00,-10000.00,-10.83,0.75,0.00,0.00,2.10
90302248,-3.75,4.00,8.44,-0.12,-1.31,1.81,-1.89,2.15,-4.47,2.50,5.60,0.53,-10000.00,-10000.00,-10.81,0.75,0.00,0.00,1.75
90314630,-3.75,4.00,8.44,-0.44,0.06,1.44,-3.89,3.30,-3.85,2.50,5.60,0.53,-10000.00,-10000.00,-10.88,0.75,0.00,0.00,1.75
90327178,-3.75,4.00,8.50,0.00,0.12,1.75,-0.47,0.63,-5.35,2.50,5.60,0.52,-10000.00,-10000.00,-10.91,0.75,0.00,0.00,2.10
90337183,-3.75,4.00,8.50,0.69,1.62,2.38,0.95,-0.26,-8.88,2.50,5.60,0.52,-10000.00,-10000.00,-11.00,0.75,0.00,0.00,2.10
90347186,-3.75,4.00,8.50,0.56,-0.25,2.81,-2.14,2.87,-7.85,2.50,5.60,0.52,-10000.00,-10000.00,-11.04,0.75,0.00,0.00,2.10
90357190,-3.75,4.00,8.56,0.19,-1.25,2.69,0.78,-0.16,-7.06,2.50,5.60,0.54,-10000.00,-10000.00,-10.97,0.75,0.00,0.00,1.40
90367192,-3.75,4.00,8.56,-0.38,0.19,2.69,0.62,1.72,-8.57,2.50,5.60,0.52,-10000.00,-10000.00,-11.16,0.75,0.00,0.00,2.10
90378530,-3.75,4.00,8.62,-0.81,-0.44,2.00,-3.15,3.52,-5.65,2.50,5.60,0.53,-10000.00,-10000.00,-11.06,0.75,0.00,0.00,1.75
90388532,-3.75,4.00,8.62,-0.19,-1.44,1.44,1.30,0.39,-9.56,2.50,5.60,0.53,-10000.00,-10000.00,-11.16,0.75,0.00,0.00,1.75
90399415,-3.75,4.00,8.62,0.12,-0.31,0.75,-0.95,2.85,-7.83,2.50,5.60,0.53,-10000.00,-10000.00,-11.16,0.75,0.00,0.00,1.75
90409419,-3.75,4.00,8.69,0.00,1.69,1.31,-3.93,4.31,-4.04,2.50,5.60,0.53,-10000.00,-10000.00,-11.23,0.75,0.00,0.00,1.75
90419450,-3.75,4.00,8.69,0.69,2.00,1.69,0.33,-0.51,-6.73,2.50,5.60,0.51,-10000.00,-10000.00,-11.36,0.75,0.00,0.00,2.45
90429452,-3.75,4.00,8.69,0.75,0.12,2.69,-2.59,5.10,-5.94,2.50,5.60,0.52,-10000.00,-10000.00,-11.30,0.75,0.00,0.00,2.10
90439457,-3.75,4.00,8.75,-0.06,-0.31,2.81,-1.95,0.90,-4.97,2.50,5.60,0.53,-10000.00,-10000.00,-11.27,0.75,0.00,0.00,1.75
90449466,-3.75,4.00,8.75,0.12,-1.44,2.75,1.81,0.76,-6.71,2.50,5.60,0.54,-10000.00,-10000.00,-11.25,0.75,0.00,0.00,1.40
90459468,-3.81,4.00,8.75,-0.38,-1.88,1.94,0.19,1.25,-9.33,2.50,5.60,0.54,-10000.00,-10000.00,-11.40,0.76,0.00,0.00,1.40
90469472,-3.81,4.00,8.81,-0.44,-1.44,1.06,-0.45,0.36,-5.60,2.50,5.60,0.54,-10000.00,-10000.00,-11.33,0.76,0.00,0.00,1.40
90479475,-3.81,4.00,8.81,-0.81,0.38,0.56,2.02,0.97,-9.06,2.50,5.60,0.53,-10000.00,-10000.00,-11.47,0.76,0.00,0.00,1.75
90489480,-3.81,4.00,8.81,-0.44,1.75,2.31,-2.78,4.97,-6.27,2.50,5.60,0.53,-10000.00,-10000.00,-11.50,0.76,0.00,0.00,1.75
90500210,-3.75,4.00,8.81,0.69,1.50,3.38,-2.60,3.90,-5.14,2.50,5.60,0.52,-10000.00,-10000.00,-11.57,0.75,0.00,0.00,2.10
90510214,-3.75,4.00,8.88,1.25,0.75,3.56,-1.52,2.83,-7.17,2.50,5.60,0.53,-10000.00,-10000.00,-11.55,0.75,0.00,0.00,1.75
90520786,-3.75,4.00,8.88,0.31,-0.62,3.25,-2.40,2.35,-4.56,2.50,5.60,0.52,-10000.00,-10000.00,-11.52,0.75,0.00,0.00,2.10
90530789,-3.81,4.00,8.94,0.12,-1.81,2.06,2.31,-1.29,-8.11,2.50,5.60,0.52,-10000.00,-10000.00,-11.61,0.76,0.00,0.00,2.10
90540792,-3.81,4.00,8.94,-0.62,-0.25,2.31,-0.71,1.97,-9.08,2.50,5.60,0.52,-10000.00,-10000.00,-11.71,0.76,0.00,0.00,2.10
90551117,-3.81,4.00,8.94,-0.38,0.56,1.69,0.83,-0.28,-6.28,2.50,5.60,0.52,-10000.00,-10000.00,-11.79,0.76,0.00,0.00,2.45
90561831,-3.81,4.00,9.00,-0.88,0.94,1.62,1.32,1.29,-9.19,2.50,5.60,0.53,-10000.00,-10000.00,-11.79,0.76,0.00,0.00,2.10
90573260,-3.81,4.00,9.00,0.31,0.44,1.88,-2.62,4.49,-5.71,2.50,5.60,0.53,-10000.00,-10000.00,-11.82,0.76,0.00,0.00,2.10
90583263,-3.81,3.94,9.00,1.38,0.31,2.06,-2.41,1.89,-4.46,2.50,5.60,0.51,-10000.00,-10000.00,-11.89,0.76,0.00,0.00,2.80
90594567,-3.81,3.94,9.06,0.56,0.19,2.81,-3.13,4.04,-4.47,2.50,5.60,0.53,-10000.00,-10000.00,-11.83,0.76,0.00,0.00,2.10
90605602,-3.81,3.94,9.06,0.62,-0.50,2.19,1.32,0.48,-5.85,2.50,5.60,0.53,-10000.00,-10000.00,-11.82,0.76,0.00,0.00,2.10
90618485,-3.81,3.94,9.12,-0.56,-1.19,1.44,1.17,1.57,-8.88,2.50,5.60,0.52,-10000.00,-10000.00,-11.96,0.76,0.00,0.00,2.45
90628488,-3.81,3.94,9.12,-1.00,0.19,1.12,-1.98,3.32,-3.97,2.50,5.60,0.52,-10000.00,-10000.00,-11.93,0.76,0.00,0.00,2.45
90638492,-3.81,3.94,9.12,-0.38,0.88,1.31,1.68,-1.14,-8.70,2.50,5.60,0.52,-10000.00,-10000.00,-11.97,0.76,0.00,0.00,2.45
90648494,-3.81,3.94,9.12,0.31,1.00,1.81,-0.51,2.73,-8.67,2.50,5.60,0.52,-10000.00,-10000.00,-12.02,0.76,0.00,0.00,2.45
90658497,-3.81,3.94,9.12,0.81,1.12,1.94,0.51,0.80,-5.89,2.50,5.60,0.53,-10000.00,-10000.00,-12.00,0.76,0.00,0.00,2.10
90669392,-3.75,3.94,9.19,0.75,1.12,2.62,2.02,1.31,-8.96,2.50,5.60,0.53,-10000.00,-10000.00,-12.09,0.75,0.00,0.00,2.10
90679396,-3.75,3.94,9.19,0.25,-0.38,2.94,-2.44,5.71,-6.54,2.50,5.60,0.52,-10000.00,-10000.00,-12.17,0.75,0.00,0.00,2.45
90690236,-3.75,3.94,9.25,-0.50,-0.56,2.31,-1.64,3.39,-4.17,2.50,5.60,0.54,-10000.00,-10000.00,-12.00,0.75,0.00,0.00,1.75
90700240,-3.75,3.94,9.25,-0.75,-0.50,2.12,-0.06,2.38,-8.65,2.50,5.60,0.52,-10000.00,-10000.00,-12.23,0.75,0.00,0.00,2.45
90710402,-3.75,3.94,9.25,-0.50,0.81,1.75,-1.94,4.92,-3.77,2.50,5.60,0.53,-10000.00,-10000.00,-12.20,0.75,0.00,0.00,2.10
90720406,-3.75,3.94,9.31,0.00,0.00,1.12,-0.45,0.40,-5.78,2.50,5.60,0.53,-10000.00,-10000.00,-12.19,0.75,0.00,0.00,2.10
90730490,-3.75,3.94,9.31,0.62,0.69,0.88,1.47,-0.10,-8.73,2.50,5.60,0.51,-10000.00,-10000.00,-12.33,0.75,0.00,0.00,2.80
90740492,-3.75,3.94,9.31,0.44,-0.12,0.81,-2.17,2.74,-4.38,2.50,5.60,0.54,-10000.00,-10000.00,-12.20,0.75,0.00,0.00,1.75
90750495,-3.75,3.94,9.31,0.19,-0.12,0.81,1.56,-1.11,-7.91,2.50,5.60,0.52,-10000.00,-10000.00,-12.34,0.75,0.00,0.00,2.45
90760498,-3.75,3.94,9.31,0.50,-1.12,1.62,0.41,2.16,-8.54,2.50,5.60,0.54,-10000.00,-10000.00,-12.33,0.75,0.00,0.00,1.75
90770502,-3.81,3.94,9.31,0.19,-0.94,2.12,-2.99,3.13,-5.00,2.50,5.60,0.54,-10000.00,-10000.00,-12.36,0.76,0.00,0.00,1.75
90780506,-3.81,3.94,9.38,0.12,0.31,3.00,1.65,-0.47,-9.24,2.50,5.60,0.52,-10000.00,-10000.00,-12.45,0.76,0.00,0.00,2.45
90790508,-3.81,3.94,9.38,-0.38,0.25,2.06,-1.74,2.52,-6.90,2.50,5.60,0.53,-10000.00,-10000.00,-12.53,0.76,0.00,0.00,2.10
90800511,-3.81,3.94,9.44,0.44,-0.75,1.62,-2.99,1.32,-4.41,2.50,5.60,0.53,-10000.00,-10000.00,-12.45,0.76,0.00,0.00,2.10
90810513,-3.81,3.94,9.44,0.69,-1.00,1.69,0.83,1.10,-7.27,2.50,5.60,0.52,-10000.00,-10000.00,-12.58,0.76,0.00,0.00,2.45
90821854,-3.81,3.94,9.44,0.56,-0.12,2.19,-2.91,5.23,-4.40,2.50,5.60,0.53,-10000.00,-10000.00,-12.56,0.76,0.00,0.00,2.10
90831857,-3.81,3.94,9.50,0.19,-0.31,2.81,-2.12,0.24,-4.57,2.50,5.60,0.50,-10000.00,-10000.00,-12.64,0.76,0.00,0.00,3.50
90842741,-3.81,3.94,9.50,0.25,0.00,2.44,1.47,-1.94,-8.89,2.50,5.60,0.52,-10000.00,-10000.00,-12.74,0.76,0.00,0.00,2.80
90854658,-3.81,3.94,9.50,-0.44,0.56,2.62,-1.24,2.34,-8.61,2.50,5.60,0.52,-10000.00,-10000.00,-12.69,0.76,0.00,0.00,2.80
90869474,-3.81,3.94,9.56,-0.12,0.56,2.44,1.59,1.16,-8.87,2.50,5.60,0.53,-10000.00,-10000.00,-12.82,0.76,0.00,0.00,2.45
90879478,-3.81,3.94,9.62,0.19,-0.06,2.38,-2.58,4.26,-6.30,2.50,5.60,0.53,-10000.00,-10000.00,-12.85,0.76,0.00,0.00,2.45
90891407,-3.81,3.94,9.62,0.38,-1.75,2.12,-1.05,2.32,-4.45,2.50,5.60,0.51,-10000.00,-10000.00,-12.86,0.76,0.00,0.00,3.15
90901642,-3.88,3.88,9.62,-0.12,-1.06,1.88,-0.91,4.16,-7.93,2.50,5.60,0.51,-10000.00,-10000.00,-12.95,0.78,0.00,0.00,3.15
90914878,-3.88,3.88,9.62,0.06,-0.06,1.00,-3.54,6.75,-3.78,2.50,5.60,0.52,-10000.00,-10000.00,-12.94,0.78,0.00,0.00,2.80
90926821,-3.88,3.88,9.69,-0.06,-0.12,1.38,0.57,-0.76,-5.80,2.50,5.60,0.52,-10000.00,-10000.00,-12.92,0.78,0.00,0.00,2.80
90939661,-3.88,3.88,9.69,0.56,-0.94,2.56,-2.69,2.99,-3.45,2.50,5.60,0.53,-10000.00,-10000.00,-12.95,0.78,0.00,0.00,2.45
90949665,-3.88,3.88,9.75,0.25,-0.06,1.81,1.99,-0.88,-8.64,2.50,5.60,0.52,-10000.00,-10000.00,-12.89,0.78,0.00,0.00,2.80
90962323,-3.88,3.88,9.75,0.19,-0.56,1.62,-0.19,2.40,-8.29,2.50,5.60,0.53,-10000.00,-10000.00,-12.99,0.78,0.00,0.00,2.45
90973496,-3.88,3.88,9.75,-0.06,-0.81,1.62,-0.85,5.24,-5.01,2.50,5.60,0.51,-10000.00,-10000.00,-13.11,0.78,0.00,0.00,3.15
90983630,-3.88,3.88,9.75,0.88,-1.25,1.69,0.87,-0.55,-8.49,2.50,5.60,0.53,-10000.00,-10000.00,-13.09,0.78,0.00,0.00,2.45
90993635,-3.88,3.88,9.81,0.00,0.81,2.50,-0.54,3.50,-8.27,2.50,5.60,0.54,-10000.00,-10000.00,-13.08,0.78,0.00,0.00,2.10
91005804,-3.88,3.88,9.81,-0.31,0.31,2.62,0.96,0.86,-9.22,2.50,5.60,0.53,-10000.00,-10000.00,-13.09,0.78,0.00,0.00,2.45
91017138,-3.88,3.88,9.81,0.12,1.19,2.19,-2.16,4.41,-6.80,2.50,5.60,0.52,-10000.00,-10000.00,-13.17,0.78,0.00,0.00,2.80
91028503,-3.88,3.88,9.88,0.44,0.06,2.12,-2.56,4.23,-4.57,2.50,5.60,0.52,-10000.00,-10000.00,-13.23,0.78,0.00,0.00,2.80
91038505,-3.88,3.88,9.88,0.25,-0.44,3.25,2.15,0.78,-8.03,2.50,5.60,0.51,-10000.00,-10000.00,-13.32,0.78,0.00,0.00,3.15
91049021,-3.88,3.88,9.94,-0.19,0.62,2.62,-2.47,5.86,-3.69,2.50,5.60,0.51,-10000.00,-10000.00,-13.38,0.78,0.00,0.00,3.15
91059025,-3.88,3.88,9.94,0.19,-0.81,2.44,1.15,2.00,-4.90,2.50,5.60,0.53,-10000.00,-10000.00,-13.25,0.78,0.00,0.00,2.45
91069344,-3.88,3.88,10.00,-0.38,-0.81,1.62,1.22,0.29,-8.96,2.50,5.60,0.52,-10000.00,-10000.00,-13.39,0.78,0.00,0.00,2.80
91079346,-3.94,3.88,10.00,0.25,-0.75,2.12,-1.77,3.96,-7.28,2.50,5.60,0.52,-10000.00,-10000.00,-13.33,0.79,0.00,0.00,3.15
91090431,-3.94,3.88,10.00,0.50,-0.62,1.44,1.94,2.22,-7.35,2.50,5.60,0.53,-10000.00,-10000.00,-13.43,0.79,0.00,0.00,2.80
91100435,-3.94,3.88,10.06,-0.06,-0.50,1.12,-0.34,1.37,-9.06,2.50,5.60,0.51,-10000.00,-10000.00,-13.62,0.79,0.00,0.00,3.50
91110617,-3.94,3.88,10.06,0.38,-0.50,0.81,-2.91,3.40,-5.58,2.50,5.60,0.51,-10000.00,-10000.00,-13.61,0.79,0.00,0.00,3.50
91120621,-3.94,3.88,10.06,-0.19,-0.62,1.69,-1.09,3.17,-4.24,2.50,5.60,0.51,-10000.00,-10000.00,-13.58,0.79,0.00,0.00,3.50
91130626,-3.94,3.88,10.06,0.00,-0.88,2.75,-0.75,3.66,-8.49,2.50,5.60,0.52,-10000.00,-10000.00,-13.58,0.79,0.00,0.00,3.15
91140997,-3.94,3.88,10.12,0.06,0.56,2.31,-2.74,2.34,-4.05,2.50,5.60,0.50,-10000.00,-10000.00,-13.64,0.79,0.00,0.00,3.85
91151001,-3.94,3.88,10.12,0.19,-0.31,1.81,1.26,0.78,-5.83,2.50,5.60,0.52,-10000.00,-10000.00,-13.57,0.79,0.00,0.00,3.15
