Time,Pitch,Roll,Yaw,xGyro,yGyro,ZGyro,xAcc,yAcc,zAcc,latitude,longitude,alt,xSpeed,ySpeed,zSpeed,cP,cR,cY,cP
177033013,-2.50,5.19,-0.44,0.12,0.06,0.81,-0.33,-0.35,-0.13,0.00,0.00,0.55,-10000.00,-10000.00,-10000.00,0.00,-0.00,0.00,0.00
177043016,-2.50,5.19,-0.44,0.25,-0.31,0.19,-1.13,0.13,-0.15,0.00,0.00,0.57,-10000.00,-10000.00,-10000.00,0.00,0.00,0.00,-0.40
177053020,-2.50,5.19,-0.44,-0.06,-0.44,0.00,-1.57,-0.02,-0.14,0.00,0.00,0.57,-10000.00,-10000.00,-10000.00,0.00,0.00,0.00,-0.40
177063022,-2.50,5.19,-0.44,-0.12,-0.31,-0.31,0.16,0.01,-0.22,0.00,0.00,0.56,-10000.00,-10000.00,-10000.00,0.00,0.00,0.00,-0.20
177073027,-2.50,5.19,-0.44,-0.06,-0.19,-0.12,1.01,0.14,-0.13,0.00,0.00,0.58,-10000.00,-10000.00,-10000.00,0.00,0.00,0.00,-0.60
177083029,-2.50,5.19,-0.44,0.00,0.12,0.25,0.56,-0.09,-0.11,0.00,0.00,0.57,-10000.00,-10000.00,-10000.00,0.00,-0.00,0.00,-0.40
177093676,-2.50,5.19,-0.44,0.12,0.31,-0.06,-0.20,0.15,-0.14,0.00,0.00,0.58,-10000.00,-10000.00,-10000.00,0.00,-0.00,0.00,-0.60
177104062,-2.50,5.19,-0.44,0.00,0.25,-0.31,-0.74,-0.00,-0.20,0.00,0.00,0.58,-10000.00,-10000.00,-10000.00,0.00,-0.00,0.00,-0.60
177118140,-2.50,5.19,-0.44,0.19,0.06,-0.50,0.46,-0.04,-0.13,0.00,0.00,0.52,-10000.00,-10000.00,-10000.00,0.00,-0.00,0.00,0.600
177128447,-2.50,5.19,-0.44,0.12,0.06,0.12,0.32,0.31,-0.16,0.00,0.00,0.53,-10000.00,-10000.00,-10000.00,0.00,-0.00,0.00,0.4000
177142752,-2.50,5.19,-0.44,-0.19,-0.38,0.19,0.19,-0.38,-0.03,0.00,0.00,0.54,-10000.00,-10000.00,-10000.00,0.00,0.00,0.00,0.200
177152755,-2.50,5.19,-0.44,-0.12,-0.12,-0.19,0.06,0.57,-0.29,0.00,0.00,0.52,-10000.00,-10000.00,-10000.00,0.00,0.00,0.00,0.600
177166019,-2.50,5.19,-0.44,-0.06,-0.06,-0.31,-1.18,0.22,-0.08,0.00,0.00,0.51,-10000.00,-10000.00,-10000.00,0.00,0.00,0.00,0.80
177179312,-2.50,5.19,-0.44,0.06,0.31,0.06,0.25,0.12,-0.16,0.00,0.00,0.51,-10000.00,-10000.00,-10000.00,0.00,-0.00,0.00,0.8080
177193933,-2.50,5.19,-0.44,0.12,0.06,0.31,-0.17,0.15,-0.23,0.00,0.00,0.52,-10000.00,-10000.00,-10000.00,0.00,-0.00,0.00,0.600
177208705,-2.50,5.19,-0.44,-0.06,-0.12,0.06,0.06,0.26,-0.17,0.00,0.00,0.56,-10000.00,-10000.00,-10000.00,0.00,0.00,0.00,-0.20
177224134,-2.50,5.19,-0.44,-0.06,-0.56,-0.38,-0.17,-0.02,-0.23,0.00,0.00,0.51,-10000.00,-10000.00,-10000.00,0.00,0.00,0.00,0.80
177239026,-2.50,5.19,-0.44,0.19,-0.50,0.00,-0.41,0.30,-0.10,0.00,0.00,0.54,-10000.00,-10000.00,-10000.00,0.00,0.00,0.00,0.2080
177253904,-2.50,5.19,-0.44,0.00,-0.06,-0.06,-0.62,0.06,-0.16,0.00,0.00,0.53,-10000.00,-10000.00,-10000.00,0.00,0.00,0.00,0.400
177267473,-2.50,5.19,-0.44,0.06,0.25,0.06,0.24,0.29,-0.10,0.00,0.00,0.49,-10000.00,-10000.00,-10000.00,0.00,-0.00,0.00,1.2000
177281362,-2.50,5.19,-0.44,-0.19,-0.19,0.19,0.17,-0.18,-0.11,0.00,0.00,0.53,-10000.00,-10000.00,-10000.00,0.00,0.00,0.00,0.400
177293967,-2.50,5.19,-0.44,0.06,-0.12,0.06,0.46,-0.20,-0.17,0.00,0.00,0.54,-10000.00,-10000.00,-10000.00,0.00,0.00,0.00,0.200
177303971,-2.50,5.19,-0.44,0.12,-0.19,-0.31,-0.56,0.07,-0.05,0.00,0.00,0.53,-10000.00,-10000.00,-10000.00,0.00,0.00,0.00,0.400
177313974,-2.50,5.19,-0.44,0.06,-0.44,-0.19,0.33,-0.33,-0.04,0.00,0.00,0.51,-10000.00,-10000.00,-10000.00,0.00,0.00,0.00,0.800
177323978,-2.50,5.19,-0.44,0.25,-0.19,0.25,-0.88,-0.37,-0.10,0.00,0.00,0.51,-10000.00,-10000.00,-10000.00,0.00,0.00,0.00,0.800
177337898,-2.50,5.19,-0.44,0.00,-0.44,0.00,0.30,-0.22,-0.08,0.00,0.00,0.52,-10000.00,-10000.00,-10000.00,0.00,0.00,0.00,0.600
177353250,-2.50,5.19,-0.44,0.06,0.50,-0.19,0.89,-0.22,-0.30,0.00,0.00,0.51,-10000.00,-10000.00,-10000.00,0.00,-0.00,0.00,0.800
177363254,-2.50,5.19,-0.44,0.06,0.25,-0.19,1.00,-0.06,-0.34,0.00,0.00,0.53,-10000.00,-10000.00,-10000.00,0.00,-0.00,0.00,0.400
177373257,-2.50,5.19,-0.44,0.06,-0.00,0.19,0.95,-0.38,-0.30,0.00,0.00,0.51,-10000.00,-10000.00,-10000.00,0.00,0.00,0.00,0.800
177384430,-2.50,5.19,-0.44,0.12,-0.00,0.12,-0.04,-0.83,0.00,0.00,0.00,0.51,-10000.00,-10000.00,-10000.00,0.00,0.00,0.00,0.800
177394433,-2.50,5.19,-0.44,0.12,-0.31,0.06,0.02,-0.68,0.14,0.00,0.00,0.51,-10000.00,-10000.00,-10000.00,0.00,0.00,0.00,0.800
177406022,-2.50,5.19,-0.44,0.00,-0.50,0.19,-1.14,-0.33,0.18,0.00,0.00,0.51,-10000.00,-10000.00,-10000.00,0.00,0.00,0.00,0.800
177417888,-2.50,5.19,-0.44,-0.19,-0.50,0.25,-1.24,0.48,-0.17,0.00,0.00,0.53,-10000.00,-10000.00,-10000.00,0.00,0.00,0.00,0.400
177428687,-2.50,5.19,-0.44,0.00,-0.19,0.19,1.26,-0.55,0.01,0.00,0.00,0.51,-10000.00,-10000.00,-10000.00,0.00,0.00,0.00,0.8000
177439845,-2.50,5.19,-0.44,-0.12,-0.19,0.38,-0.61,-0.69,0.33,0.00,0.00,0.49,-10000.00,-10000.00,-10000.00,0.00,0.00,0.00,1.200
177451304,-2.50,5.19,-0.44,-0.19,0.19,0.75,-0.92,0.73,-0.32,0.00,0.00,0.50,-10000.00,-10000.00,-10000.00,0.00,-0.00,0.00,1.000
177461314,-2.50,5.19,-0.44,-0.06,-0.25,0.62,1.39,-0.69,0.13,0.00,0.00,0.51,-10000.00,-10000.00,-10000.00,0.00,0.00,0.00,0.800
177472616,-2.50,5.19,-0.44,-0.06,-0.25,0.25,-1.98,0.69,0.43,0.00,0.00,0.52,-10000.00,-10000.00,-10000.00,0.00,0.00,0.00,0.600
177482620,-2.50,5.19,-0.44,-0.06,-0.44,0.50,1.00,0.20,-1.10,0.00,0.00,0.56,-10000.00,-10000.00,-10000.00,0.00,0.00,0.00,-0.200
177492631,-2.50,5.19,-0.44,0.00,-0.44,0.19,0.98,-0.77,0.18,0.00,0.00,0.51,-10000.00,-10000.00,-10000.00,0.00,0.00,0.00,0.8000
177503420,-2.50,5.19,-0.44,0.12,-0.75,0.25,2.59,-1.17,-1.01,0.00,0.00,0.53,-10000.00,-10000.00,-10000.00,0.00,0.00,0.00,0.400
177513424,-2.50,5.19,-0.44,0.12,0.12,0.00,-1.93,1.21,0.88,0.00,0.00,0.53,-10000.00,-10000.00,-10000.00,0.00,-0.00,0.00,0.400
177525627,-2.50,5.19,-0.44,0.25,0.12,0.25,2.14,-0.71,-1.30,0.00,0.00,0.51,-10000.00,-10000.00,-10000.00,0.00,-0.00,0.00,0.800
177536319,-2.50,5.19,-0.44,0.19,0.19,0.31,-2.45,0.72,1.00,0.00,0.00,0.53,-10000.00,-10000.00,-10000.00,0.00,-0.00,0.00,0.400
177550167,-2.50,5.19,-0.44,0.19,-0.12,0.69,3.24,-1.82,-1.16,0.00,0.00,0.52,-10000.00,-10000.00,-10000.00,0.00,0.00,0.00,0.600
177561188,-2.50,5.19,-0.44,0.38,-0.06,0.75,-3.98,2.85,1.24,0.00,0.00,0.53,-10000.00,-10000.00,-10000.00,0.00,0.00,0.00,0.400
177571699,-2.50,5.19,-0.44,0.12,0.38,0.62,2.28,-3.66,-1.30,0.00,0.00,0.53,-10000.00,-10000.00,-10000.00,0.00,-0.00,0.00,0.400
177581742,-2.50,5.19,-0.44,-0.38,-0.31,0.31,-2.87,0.13,0.15,0.00,0.00,0.54,-10000.00,-10000.00,-10000.00,0.00,0.00,0.00,0.200
177591744,-2.50,5.19,-0.44,-0.69,-0.44,0.00,3.11,-1.95,-1.26,0.00,0.00,0.53,-10000.00,-10000.00,-10000.00,0.00,0.00,0.00,0.400
177601859,-2.50,5.19,-0.44,-0.44,-0.31,-0.31,-0.45,3.24,0.54,0.00,0.00,0.55,-10000.00,-10000.00,-10000.00,0.00,0.00,0.00,0.000
177612007,-2.50,5.19,-0.44,0.00,-0.00,-0.31,-4.19,0.60,-0.03,0.00,0.00,0.52,-10000.00,-10000.00,-10000.00,0.00,0.00,0.00,0.600
177623537,-2.50,5.19,-0.44,0.50,0.38,-0.06,2.93,1.30,0.01,0.00,0.00,0.51,-10000.00,-10000.00,-10000.00,0.00,-0.00,0.00,0.8000
177633540,-2.50,5.19,-0.44,0.56,0.19,0.00,-1.83,2.31,0.50,0.00,0.00,0.51,-10000.00,-10000.00,-10000.00,0.00,-0.00,0.00,0.8000
177645157,-2.50,5.19,-0.44,0.50,0.12,0.38,-1.95,-0.61,-0.02,0.00,0.00,0.51,-10000.00,-10000.00,-10000.00,0.00,-0.00,0.00,0.800
177655161,-2.50,5.19,-0.44,-0.12,0.12,-0.12,0.78,-1.87,-0.59,0.00,0.00,0.54,-10000.00,-10000.00,-10000.00,0.00,-0.00,0.00,0.20
177668107,-2.50,5.19,-0.44,-0.25,0.06,0.25,0.39,0.66,0.07,0.00,0.00,0.50,-10000.00,-10000.00,-10000.00,0.00,-0.00,0.00,1.0020
177678110,-2.50,5.19,-0.44,-0.38,-0.25,0.00,0.05,1.49,-0.09,0.00,0.00,0.53,-10000.00,-10000.00,-10000.00,0.00,0.00,0.00,0.400
177694348,-2.50,5.19,-0.44,0.12,-1.12,0.38,-1.95,-0.05,-0.35,0.00,0.00,0.54,-10000.00,-10000.00,-10000.00,0.00,0.00,0.00,0.20
177706942,-2.50,5.19,-0.44,0.44,-1.06,0.38,-0.43,-0.39,-0.13,0.00,0.00,0.51,-10000.00,-10000.00,-10000.00,0.00,0.00,0.00,0.80
177717624,-2.50,5.19,-0.44,0.44,-0.06,0.50,-0.57,-0.28,0.00,0.00,0.00,0.54,-10000.00,-10000.00,-10000.00,0.00,0.00,0.00,0.20
177727626,-2.50,5.19,-0.44,0.19,0.56,0.00,0.38,-0.86,-0.39,0.00,0.00,0.51,-10000.00,-10000.00,-10000.00,0.00,-0.00,0.00,0.80
177739576,-2.50,5.19,-0.44,-0.19,-0.00,-0.19,0.82,-1.17,-0.45,0.00,0.00,0.52,-10000.00,-10000.00,-10000.00,0.00,0.00,0.00,0.60
177752983,-2.56,5.19,-0.44,-0.25,-1.62,0.62,-1.13,0.73,0.34,0.00,0.00,0.53,-10000.00,-10000.00,-10000.00,0.00,0.00,0.00,0.400
177763000,-2.56,5.19,-0.38,0.31,-1.06,1.06,-1.03,1.60,-0.49,0.00,0.00,0.52,-10000.00,-10000.00,-10000.00,0.00,0.00,0.00,0.600
177776820,-2.56,5.19,-0.38,0.25,-0.81,1.06,2.22,2.40,-1.58,0.00,0.00,0.51,-10000.00,-10000.00,-10000.00,0.00,0.00,0.00,0.800
177787118,-2.56,5.19,-0.38,0.81,-0.81,1.56,-2.37,-1.81,1.07,0.00,0.00,0.51,-10000.00,-10000.00,-10000.00,0.00,0.00,0.00,0.800
177802416,-2.56,5.19,-0.38,-0.12,-0.12,1.19,2.69,3.55,-3.03,0.00,0.00,0.50,-10000.00,-10000.00,-10000.00,0.00,0.00,0.00,1.000
177817333,-2.62,5.19,-0.31,-0.06,-1.69,1.12,-4.41,2.06,2.12,0.00,0.00,0.52,-10000.00,-10000.00,-10000.00,0.00,0.00,0.00,0.600
177830639,-2.62,5.19,-0.31,-0.38,-0.88,0.00,-0.89,-3.62,-0.53,0.00,0.00,0.51,-10000.00,-10000.00,-10000.00,0.00,0.00,0.00,0.80
177846506,-2.62,5.19,-0.38,0.38,-1.00,-0.69,-1.78,3.95,1.41,0.00,0.00,0.54,-10000.00,-10000.00,-10000.00,0.00,0.00,0.00,0.200
177860106,-2.62,5.19,-0.38,0.62,-0.44,-1.50,-3.67,-0.75,2.09,0.00,0.00,0.54,-10000.00,-10000.00,-10000.00,0.00,0.00,0.00,0.20
177874532,-2.62,5.19,-0.38,0.06,-1.12,-0.12,-4.66,-0.46,1.41,0.00,0.00,0.53,-10000.00,-10000.00,-10000.00,0.00,0.00,0.00,0.40
177884536,-2.62,5.19,-0.38,-0.25,-1.56,0.25,4.04,-0.16,-6.14,0.00,0.00,0.53,-10000.00,-10000.00,-10000.00,0.00,0.00,0.00,0.40
177894538,-2.69,5.19,-0.38,0.44,-1.62,1.00,2.58,-1.73,-6.08,0.00,0.00,0.52,-10000.00,-10000.00,-10000.00,0.00,0.00,0.00,0.60
177905505,-2.69,5.19,-0.38,0.50,-2.94,0.19,-3.53,0.85,0.45,0.00,0.00,0.50,-10000.00,-10000.00,-10000.00,0.00,0.00,0.00,1.00
177915509,-2.75,5.19,-0.31,0.62,-2.31,0.75,2.03,-3.50,-4.60,0.00,0.00,0.52,-10000.00,-10000.00,-10000.00,0.00,0.00,0.00,0.60
177925519,-2.75,5.19,-0.31,0.94,-1.44,1.19,-2.68,2.32,-2.55,0.00,0.00,0.53,-10000.00,-10000.00,-10000.00,0.00,0.00,0.00,0.40
177935523,-2.75,5.12,-0.31,1.00,-1.56,1.06,2.68,-2.68,-5.85,0.00,0.00,0.55,-10000.00,-10000.00,-10000.00,0.00,0.00,0.00,0.00
177945526,-2.75,5.12,-0.31,0.62,-0.62,0.44,-1.38,1.81,-1.69,0.00,0.00,0.53,-10000.00,-10000.00,-10000.00,0.00,0.00,0.00,0.40
177955530,-2.81,5.12,-0.31,0.25,-1.69,0.19,-1.83,-2.08,-2.36,0.00,0.00,0.54,-10000.00,-10000.00,-10000.00,0.00,0.00,0.00,0.20
177966859,-2.81,5.12,-0.31,0.06,-2.81,-0.12,2.22,-3.35,-4.29,0.00,0.00,0.52,-10000.00,-10000.00,-10000.00,0.00,0.00,0.00,0.60
177976863,-2.81,5.12,-0.31,-0.88,-2.62,0.25,-2.01,0.06,-1.65,0.00,0.00,0.52,-10000.00,-10000.00,-10000.00,0.00,0.00,0.00,0.60
177986898,-2.88,5.19,-0.31,-1.38,-1.00,1.19,0.37,-1.97,-2.03,0.00,0.00,0.54,-10000.00,-10000.00,-10000.00,0.00,0.00,0.00,0.20
177996902,-2.88,5.19,-0.31,-0.75,-0.00,1.06,1.97,-2.05,-5.69,0.00,0.00,0.54,-10000.00,-10000.00,-10000.00,0.00,0.00,0.00,0.20
178008084,-2.88,5.19,-0.31,0.38,-0.94,1.69,0.74,-0.49,-6.41,0.00,0.00,0.53,-10000.00,-10000.00,-10000.00,0.00,0.00,0.00,0.40
178018655,-2.88,5.12,-0.25,2.06,-0.88,1.44,-1.80,1.14,-3.84,0.00,0.00,0.51,-10000.00,-10000.00,-10000.00,0.00,0.00,0.00,0.80
178028658,-2.88,5.12,-0.25,2.81,-3.25,1.38,-0.69,-0.73,-4.56,0.00,0.00,0.54,-10000.00,-10000.00,-10000.00,0.00,0.00,0.00,0.20
178038661,-2.94,5.06,-0.25,3.19,-4.25,0.50,-0.27,-0.25,-5.21,0.00,0.00,0.52,-10000.00,-10000.00,-10000.00,0.00,0.00,0.00,0.60
178049548,-3.00,5.06,-0.25,3.75,-5.69,-0.56,0.26,0.72,-6.41,0.00,0.00,0.54,-10000.00,-10000.00,-10000.00,0.00,0.00,0.00,0.20
178061664,-3.06,5.00,-0.31,4.00,-8.00,-1.75,0.30,0.72,-7.27,0.00,0.00,0.53,-10000.00,-10000.00,-10000.00,0.00,0.00,0.00,0.40
178075460,-3.12,5.00,-0.31,2.69,-10.00,-4.31,0.49,0.59,-7.30,0.00,0.00,0.53,-10000.00,-10000.00,-10000.00,0.00,0.00,0.00,0.40
178085465,-3.25,4.94,-0.38,1.31,-13.12,-4.56,0.61,0.68,-8.36,0.00,0.00,0.53,-10000.00,-10000.00,-10000.00,0.00,0.00,0.00,0.40
178098908,-3.56,4.94,-0.50,0.31,-17.31,-4.75,1.41,0.11,-7.32,0.00,0.00,0.52,-10000.00,-10000.00,-10000.00,0.00,0.00,0.00,0.60
178114510,-3.75,5.00,-0.56,-2.75,-23.88,-7.31,-1.41,0.68,-4.93,0.00,0.00,0.55,-10000.00,-10000.00,-10000.00,0.00,0.00,0.00,0.00
178127493,-4.19,5.06,-0.69,-3.00,-27.62,-8.00,-1.02,1.94,-6.27,0.00,0.00,0.55,-10000.00,-10000.00,-10000.00,0.00,0.00,0.00,0.00
178137496,-4.50,5.06,-0.81,-3.25,-29.94,-8.69,-2.27,-0.47,-3.44,0.00,0.00,0.54,-10000.00,-10000.00,-10000.00,0.00,0.00,0.00,0.20
178149287,-4.81,5.12,-0.94,-4.44,-33.12,-9.81,-1.93,1.07,-4.77,0.00,0.00,0.53,-10000.00,-10000.00,-10000.00,0.00,0.00,0.00,0.40
178160143,-5.12,5.19,-1.00,-5.19,-36.25,-9.38,1.85,0.87,-7.82,0.00,0.00,0.52,-10000.00,-10000.00,-10000.00,0.00,0.00,0.00,0.60
178175546,-5.50,5.25,-1.12,-5.75,-38.00,-10.62,1.97,0.69,-7.72,0.00,0.00,0.56,-10000.00,-10000.00,-10000.00,0.00,0.00,0.00,-0.20
178185549,-5.88,5.31,-1.25,-7.25,-46.94,-10.56,-0.85,0.72,-3.17,0.00,0.00,0.53,-10000.00,-10000.00,-10000.00,0.00,0.00,0.00,0.40
178198376,-6.81,5.50,-1.50,-8.62,-49.31,-12.19,-0.79,0.63,-6.48,4713.44,849.07,0.57,-10000.00,-10000.00,-10000.00,0.00,0.00,0.00,-0.40
178208379,-7.31,5.62,-1.62,-9.19,-52.62,-12.44,1.67,1.00,-8.15,4713.44,849.07,0.57,-10000.00,-10000.00,-10000.00,0.00,0.00,0.00,-0.40
178222062,-7.81,5.75,-1.81,-10.00,-56.12,-12.62,-1.24,0.64,-7.55,4713.44,849.07,0.59,-10000.00,-10000.00,-10000.00,0.00,0.00,0.00,-0.80
178235286,-8.38,5.88,-1.94,-10.81,-64.31,-13.19,-1.80,-1.58,-3.51,4713.44,849.07,0.58,-10000.00,-10000.00,-10000.00,0.00,0.00,0.00,-0.60
178248786,-9.62,6.19,-2.25,-12.25,-66.62,-14.06,2.16,0.02,-9.42,4713.44,849.07,0.57,-10000.00,-10000.00,-10000.00,0.00,0.00,0.00,-0.400
178258790,-10.31,6.38,-2.44,-13.44,-68.62,-13.50,-0.43,0.43,-3.58,4713.44,849.07,0.57,-10000.00,-10000.00,-10000.00,0.00,0.00,0.00,-0.40
178272590,-11.00,6.50,-2.56,-14.94,-73.44,-11.31,0.82,0.37,-7.01,4713.44,849.07,0.58,-10000.00,-10000.00,-10000.00,0.00,0.00,0.00,-0.60
178284751,-11.69,6.75,-2.69,-16.50,-75.62,-9.88,1.99,1.15,-7.12,4713.44,849.07,0.58,-10000.00,-10000.00,-10000.00,0.00,0.00,0.00,-0.60
178294755,-12.44,6.94,-2.75,-18.19,-79.06,-2.50,-0.53,0.45,-4.48,4713.44,849.07,0.60,-10000.00,-10000.00,-10000.00,0.00,0.00,0.00,-1.00
178304759,-13.19,7.12,-2.81,-18.94,-81.00,1.94,0.29,0.26,-6.25,4713.44,849.07,0.60,-10000.00,-10000.00,-10000.00,0.00,0.00,0.00,-1.000
178316137,-14.00,7.31,-2.81,-20.00,-82.62,8.69,1.21,0.66,-7.11,4713.44,849.07,0.60,-10000.00,-10000.00,-10000.00,0.00,0.00,0.00,-1.000
178326141,-14.81,7.50,-2.75,-20.00,-82.62,8.69,1.71,0.44,-5.47,4713.44,849.07,0.61,-10000.00,-10000.00,-10000.00,0.00,0.00,0.00,-1.200
178337120,-16.44,7.88,-2.44,-21.88,-84.62,22.19,0.23,0.57,-5.82,4713.44,849.07,0.61,-10000.00,-10000.00,-10000.00,0.00,0.00,0.00,-1.20
178347124,-17.31,8.06,-2.19,-22.31,-84.88,28.50,0.80,1.50,-7.60,4713.44,849.07,0.63,-10000.00,-10000.00,-10000.00,0.00,0.00,0.00,-1.60
178357765,-18.12,8.19,-1.94,-21.00,-83.50,32.62,2.41,1.14,-7.72,4713.44,849.07,0.63,-10000.00,-10000.00,-10000.00,0.00,0.00,0.00,-1.60
178367768,-19.00,8.31,-1.62,-20.06,-81.06,33.81,2.93,0.23,-8.07,4713.44,849.07,0.64,-10000.00,-10000.00,-10000.00,0.00,0.00,0.00,-1.80
178377772,-19.75,8.44,-1.31,-19.31,-75.19,34.50,2.78,0.56,-5.42,4713.44,849.07,0.64,-10000.00,-10000.00,-10000.00,0.00,0.00,0.00,-1.80
178387775,-20.44,8.56,-1.00,-19.25,-70.12,34.19,1.83,0.80,-6.29,4713.44,849.07,0.66,-10000.00,-10000.00,-10000.00,0.00,0.00,0.00,-2.20
178397777,-21.12,8.69,-0.69,-19.88,-61.56,31.94,2.24,0.40,-4.96,4713.44,849.07,0.66,-10000.00,-10000.00,-10000.00,0.00,0.00,0.00,-2.20
178410653,-21.69,8.81,-0.38,-21.06,-54.31,28.75,1.67,1.07,-6.12,4713.44,849.07,0.66,-10000.00,-10000.00,-10000.00,0.00,0.00,0.00,-2.20
178426044,-22.12,8.94,-0.12,-21.25,-43.44,25.25,1.89,3.29,-5.96,4713.44,849.07,0.68,-10000.00,-10000.00,-10000.00,0.00,0.00,0.00,-2.60
178438981,-22.69,9.19,0.25,-18.06,-21.50,15.06,1.51,5.58,-6.93,4713.44,849.07,0.69,-10000.00,-10000.00,-10000.00,0.00,0.00,-0.00,-2.80
178451945,-22.81,9.31,0.31,-14.12,-8.62,8.38,2.37,4.87,-6.47,4713.44,849.07,0.69,-10000.00,-10000.00,-10000.00,0.00,0.00,-0.00,-2.800
178468250,-22.75,9.38,0.56,-7.25,7.50,9.38,2.95,2.60,-7.13,4713.44,849.07,0.70,-10000.00,-10000.00,-10000.00,0.00,0.00,-0.00,-3.0000
178480424,-22.62,9.38,0.69,-5.25,16.56,12.19,2.65,1.34,-8.03,4713.44,849.07,0.70,-10000.00,-10000.00,-10000.00,0.00,0.00,-0.00,-3.000
178490433,-22.44,9.38,0.88,-5.31,20.88,17.31,2.13,2.37,-7.06,4713.44,849.07,0.70,-10000.00,-10000.00,-10000.00,0.00,0.00,-0.00,-3.000
178500435,-22.25,9.31,1.12,-4.94,25.25,21.69,1.85,4.05,-6.46,4713.44,849.07,0.70,-10000.00,-10000.00,-10000.00,0.00,0.00,-0.00,-3.000
178510493,-22.00,9.19,1.38,-2.75,30.75,23.69,1.65,5.66,-6.77,4713.44,849.07,0.73,-10000.00,-10000.00,-10000.00,0.00,0.00,-0.00,-3.600
178522823,-21.69,9.12,1.62,-0.62,34.12,25.31,1.37,5.68,-6.33,4713.44,849.07,0.72,-10000.00,-10000.00,-10000.00,0.00,0.00,-0.00,-3.400
178532827,-21.38,8.94,1.88,3.50,37.00,25.06,1.42,5.71,-5.87,4713.44,849.07,0.73,-10000.00,-10000.00,-10000.00,0.00,0.00,-0.00,-3.600
178544090,-21.00,8.75,2.12,8.12,40.94,22.00,0.01,4.68,-5.67,4713.44,849.07,0.73,-10000.00,-10000.00,-10000.00,0.00,0.00,-0.00,-3.600
178554813,-20.62,8.56,2.31,11.81,44.88,16.19,-0.07,4.58,-5.01,4713.44,849.07,0.73,-10000.00,-10000.00,-10000.00,0.00,0.00,-0.00,-3.60
178568793,-19.69,8.12,2.50,16.88,51.75,8.75,0.68,3.75,-4.78,4713.44,849.07,0.75,-10000.00,-10000.00,-10000.00,0.00,0.00,-0.00,-4.000
178578797,-19.19,7.94,2.56,19.62,54.88,7.25,1.58,3.70,-5.56,4713.44,849.07,0.75,-10000.00,-10000.00,-10000.00,0.00,0.00,-0.00,-4.000
178591641,-18.62,7.62,2.69,21.06,57.44,6.69,2.07,4.52,-6.13,4713.44,849.07,0.76,-10000.00,-10000.00,-10000.00,0.00,0.00,-0.00,-4.200
178607236,-18.06,7.38,2.75,25.38,60.00,9.44,2.25,4.02,-8.66,4713.44,849.07,0.77,-10000.00,-10000.00,-10000.00,0.00,0.00,-0.00,-4.400
178620806,-16.94,6.75,2.94,28.19,63.12,10.56,1.35,4.31,-8.42,4713.44,849.07,0.76,-10000.00,-10000.00,-10000.00,0.00,0.00,-0.00,-4.20
178630810,-16.31,6.44,3.00,30.12,65.56,11.38,0.10,5.49,-7.06,4713.44,849.07,0.78,-10000.00,-10000.00,-10000.00,0.00,0.00,-0.00,-4.60
178641279,-15.62,6.06,3.12,32.19,69.19,11.06,-0.54,5.07,-7.08,4713.44,849.07,0.77,-10000.00,-10000.00,-10000.00,0.00,0.00,-0.00,-4.40
178651479,-14.94,5.69,3.19,34.69,74.81,10.12,0.01,4.40,-5.91,4713.44,849.07,0.76,-10000.00,-10000.00,-10000.00,0.00,0.00,-0.00,-4.20
178662829,-14.19,5.25,3.31,36.44,81.94,9.75,0.34,3.41,-5.99,4713.44,849.07,0.78,-10000.00,-10000.00,-10000.00,0.00,0.00,-0.00,-4.60
178674868,-13.38,4.88,3.38,37.94,85.12,9.50,1.65,3.43,-7.42,4713.44,849.07,0.79,-10000.00,-10000.00,-10000.00,0.00,0.00,-0.00,-4.80
178685849,-12.50,4.44,3.44,39.75,88.56,8.88,2.03,2.79,-8.04,4713.44,849.07,0.79,-10000.00,-10000.00,-10000.00,0.00,0.00,-0.00,-4.80
178695851,-11.62,4.00,3.56,40.50,90.50,8.81,0.35,3.11,-7.88,4713.44,849.07,0.79,-10000.00,-10000.00,-10000.00,0.00,0.00,-0.00,-4.80
178710467,-9.94,3.19,3.69,42.31,89.38,7.62,-0.87,3.21,-5.41,4713.44,849.07,0.80,-10000.00,-10000.00,-10000.00,0.00,0.00,-0.00,-5.00
178723339,-9.06,2.75,3.75,41.44,85.75,6.31,-0.83,2.75,-5.08,4713.44,849.07,0.79,-10000.00,-10000.00,-10000.00,0.00,0.00,-0.00,-4.80
178735021,-8.31,2.31,3.75,40.94,82.69,6.00,2.42,0.20,-7.43,4713.44,849.07,0.82,-10000.00,-10000.00,-10000.00,0.00,0.00,-0.00,-5.40
178745023,-7.50,1.94,3.81,40.88,81.12,5.12,0.20,2.45,-6.97,4713.44,849.07,0.82,-10000.00,-10000.00,-10000.00,0.00,0.00,-0.00,-5.40
178758269,-6.75,1.50,3.81,40.00,74.50,3.88,-1.44,2.60,-6.08,4713.44,849.07,0.83,-10000.00,-10000.00,-10000.00,0.00,0.00,-0.00,-5.60
178768272,-6.06,1.12,3.88,39.19,70.31,3.88,-0.37,0.37,-5.53,4713.44,849.07,0.83,-10000.00,-10000.00,-10000.00,0.00,0.00,-0.00,-5.60
178778364,-5.38,0.75,3.88,38.44,66.00,3.94,1.79,0.62,-7.27,4713.44,849.07,0.84,-10000.00,-10000.00,-10000.00,0.00,0.00,-0.00,-5.80
178788367,-4.75,0.38,3.94,37.56,62.50,4.69,1.62,0.14,-8.28,4713.44,849.07,0.83,-10000.00,-10000.00,-10000.00,0.00,0.00,-0.00,-5.60
178798371,-4.12,0.00,3.94,36.94,59.50,5.81,0.11,3.28,-8.21,4713.44,849.07,0.85,-10000.00,-10000.00,-10000.00,0.00,0.00,-0.00,-6.00
178808375,-3.56,-0.31,4.00,36.44,54.94,6.75,-2.15,2.03,-5.48,4713.44,849.07,0.84,-10000.00,-10000.00,-10000.00,0.00,0.00,-0.00,-5.80
178818379,-3.00,-0.69,4.06,35.88,49.94,7.50,-0.44,-0.22,-4.51,4713.44,849.07,0.86,-10000.00,-10000.00,-10000.00,0.00,0.00,-0.00,-6.20
178828381,-2.50,-1.00,4.12,35.88,49.94,7.50,1.43,-0.14,-7.10,4713.44,849.07,0.85,-10000.00,-10000.00,-10000.00,0.00,0.00,-0.00,-6.00
178838385,-2.06,-1.38,4.19,35.56,42.81,7.44,0.21,1.60,-8.03,4713.44,849.07,0.88,-10000.00,-10000.00,-10000.00,0.00,0.00,-0.00,-6.60
178848388,-1.62,-1.69,4.25,35.06,40.00,7.38,-1.90,1.71,-3.86,4713.44,849.07,0.85,-10000.00,-10000.00,-10000.00,0.00,0.00,-0.00,-6.00
178859208,-0.88,-2.38,4.31,34.69,36.44,6.81,0.22,-0.36,-4.44,4713.44,849.07,0.86,-10000.00,-10000.00,-10000.00,0.00,0.00,-0.00,-6.20
178869211,-0.56,-2.69,4.38,33.25,33.56,6.62,1.37,-0.14,-8.66,4713.44,849.07,0.87,-10000.00,-10000.00,-10000.00,0.00,0.00,-0.00,-6.40
178880642,-0.31,-3.00,4.44,30.62,26.06,6.38,-0.76,3.09,-6.87,4713.44,849.07,0.86,-10000.00,-10000.00,-10000.00,0.00,0.00,-0.00,-6.20
178890645,-0.06,-3.31,4.50,30.62,26.06,6.38,-1.20,-0.10,-3.24,4713.44,849.07,0.87,-10000.00,-10000.00,-10000.00,0.00,0.00,-0.00,-6.40
178901735,0.06,-3.56,4.56,26.31,18.94,7.19,1.30,-1.62,-7.01,4713.44,849.07,0.88,-10000.00,-10000.00,-10000.00,0.00,0.00,-0.00,-6.600
178911739,0.19,-3.81,4.62,23.38,14.75,8.19,0.74,1.22,-7.28,4713.44,849.07,0.89,-10000.00,-10000.00,-10000.00,0.00,0.00,-0.00,-6.800
178921952,0.31,-4.00,4.75,20.50,11.62,9.44,-2.79,2.99,-3.84,4713.44,849.07,0.89,-10000.00,-10000.00,-10000.00,0.00,0.00,-0.00,-6.800
178931955,0.44,-4.19,4.81,18.62,8.94,11.50,0.63,-0.55,-4.61,4713.44,849.07,0.90,-10000.00,-10000.00,-10000.00,0.00,0.00,-0.00,-7.000
178941995,0.50,-4.31,5.00,16.62,4.06,14.88,1.18,0.25,-7.93,4713.44,849.07,0.90,-10000.00,-10000.00,-10000.00,0.00,0.00,-0.00,-7.000
178951999,0.50,-4.44,5.19,14.44,0.19,19.50,-1.54,2.83,-5.16,4713.44,849.07,0.90,-10000.00,-10000.00,-10000.00,0.00,0.00,-0.00,-7.000
178962867,0.50,-4.56,5.44,12.00,-2.44,23.94,-2.56,1.52,-3.06,4713.44,849.07,0.91,-10000.00,-10000.00,-10000.00,0.00,0.00,-0.00,-7.20
178973131,0.44,-4.69,5.69,8.88,-6.50,28.38,1.87,-1.38,-5.85,4713.44,849.07,0.91,-10000.00,-10000.00,-10000.00,0.00,0.00,-0.00,-7.20
178984094,0.38,-4.69,6.00,4.81,-10.50,33.19,-2.02,2.20,-4.96,4713.44,849.07,0.91,-10000.00,-10000.00,-10000.00,0.00,0.00,-0.00,-7.20
178994097,0.25,-4.69,6.38,0.75,-14.56,36.44,-2.10,-0.23,-2.26,4713.44,849.07,0.92,-10000.00,-10000.00,-10000.00,0.00,0.00,-0.00,-7.40
179008695,0.12,-4.69,6.75,-6.88,-24.19,41.19,-3.14,1.60,-1.68,4713.44,849.07,0.91,-10000.00,-10000.00,-10000.00,0.00,0.00,-0.00,-7.20
179018698,-0.06,-4.62,7.19,-11.88,-29.06,43.81,-0.64,-2.15,-3.02,4713.44,849.07,0.92,-10000.00,-10000.00,-10000.00,0.00,0.00,-0.00,-7.40
179033073,-0.62,-4.31,8.06,-17.12,-35.44,44.81,1.84,-2.96,-6.10,4713.44,849.07,0.93,-10000.00,-10000.00,-10000.00,0.00,0.00,-0.00,-7.60
179045980,-0.94,-4.12,8.50,-21.31,-40.19,44.88,-1.51,1.16,-4.55,4713.44,849.07,0.93,-10000.00,-10000.00,-10000.00,0.00,0.00,-0.00,-7.60
179061559,-1.81,-3.62,9.38,-29.06,-49.81,41.19,1.43,-0.23,-6.72,4713.44,849.07,0.93,-10000.00,-10000.00,-10000.00,0.00,0.00,-0.00,-7.60
179071562,-2.31,-3.31,9.75,-32.06,-54.44,38.12,-2.37,1.70,-3.22,4713.44,849.07,0.93,-10000.00,-10000.00,-10000.00,0.00,0.00,-0.00,-7.60
179083519,-2.88,-3.00,10.12,-33.88,-59.81,34.31,-1.49,-1.74,-2.31,4713.44,849.07,0.94,-10000.00,-10000.00,-10000.00,0.00,0.00,-0.00,-7.80
179093521,-3.50,-2.69,10.44,-36.06,-65.19,31.06,0.09,1.31,-6.42,4713.44,849.07,0.94,-10000.00,-10000.00,-10000.00,0.00,0.00,-0.00,-7.800
179108109,-4.12,-2.31,10.75,-38.25,-69.12,27.00,1.45,-3.14,-5.53,4713.44,849.07,0.94,-10000.00,-10000.00,-10000.00,0.00,0.00,-0.00,-7.80
179118114,-4.88,-1.94,11.00,-40.62,-73.19,23.50,2.22,-1.33,-6.81,4713.44,849.07,0.95,-10000.00,-10000.00,-10000.00,0.00,0.00,-0.00,-8.00
179133005,-6.31,-1.12,11.44,-45.31,-78.19,17.94,-0.75,-2.00,-2.09,4713.44,849.07,0.95,-10000.00,-10000.00,-10000.00,0.00,0.00,-0.00,-8.00
179145849,-7.12,-0.69,11.62,-47.62,-80.25,16.44,2.68,-2.71,-7.10,4713.44,849.07,0.94,-10000.00,-10000.00,-10000.00,0.00,0.00,-0.00,-7.80
179160687,-8.75,0.19,11.94,-52.00,-84.38,14.75,-0.71,-0.86,-1.24,4713.44,849.07,0.95,-10000.00,-10000.00,-10000.00,0.00,0.00,-0.00,-8.00
179170691,-9.56,0.69,12.12,-52.25,-83.56,15.25,-0.13,2.83,-5.17,4713.44,849.07,0.95,-10000.00,-10000.00,-10000.00,0.00,0.00,-0.00,-8.00
179180695,-10.31,1.12,12.38,-52.00,-82.81,16.31,-0.10,-0.21,-0.35,4713.44,849.07,0.96,-10000.00,-10000.00,-10000.00,0.00,0.00,-0.00,-8.20
179190699,-10.31,1.12,12.38,-51.81,-81.19,18.00,3.38,-2.60,-6.55,4713.44,849.07,0.97,-10000.00,-10000.00,-10000.00,0.00,0.00,-0.00,-8.40
179200701,-11.12,1.62,12.56,-51.19,-78.44,18.75,-0.19,2.41,-4.10,4713.44,849.07,0.97,-10000.00,-10000.00,-10000.00,0.00,0.00,-0.00,-8.40
179210703,-11.88,2.06,12.75,-51.25,-76.31,18.00,3.59,-2.52,-6.04,4713.44,849.07,0.97,-10000.00,-10000.00,-10000.00,0.00,0.00,-0.00,-8.40
179220706,-12.62,2.56,13.00,-51.31,-74.81,15.12,0.03,1.97,-2.82,4713.44,849.07,0.98,-10000.00,-10000.00,-10000.00,0.00,0.00,-0.00,-8.60
179230709,-13.38,3.00,13.19,-52.00,-72.75,10.12,-0.07,-1.94,-2.18,4713.44,849.07,0.99,-10000.00,-10000.00,-10000.00,0.00,0.00,-0.00,-8.80
179240712,-14.06,3.50,13.31,-52.88,-70.25,4.88,4.04,-2.53,-4.21,4713.44,849.07,0.99,-10000.00,-10000.00,-10000.00,0.00,0.00,-0.00,-8.800
179250716,-14.75,4.00,13.44,-53.25,-66.44,-0.88,0.06,-2.19,-1.65,4713.44,849.07,1.00,-10000.00,-10000.00,-10000.00,0.00,0.00,0.00,-9.000
179260720,-15.38,4.56,13.44,-53.81,-63.38,-6.38,4.55,-2.50,-4.88,4713.44,849.07,1.00,-10000.00,-10000.00,-10000.00,0.00,0.00,0.00,-9.000
179270723,-16.00,5.12,13.44,-53.88,-59.56,-12.19,-0.22,1.79,-3.16,4713.44,849.07,1.01,-10000.00,-10000.00,-10000.00,0.00,0.00,0.00,-9.20
179280806,-16.56,5.69,13.38,-53.88,-59.56,-12.19,0.74,-2.84,-0.75,4713.44,849.07,1.01,-10000.00,-10000.00,-10000.00,0.00,0.00,0.00,-9.20
179290811,-17.06,6.25,13.25,-50.56,-51.56,-22.69,-2.11,2.43,-2.98,4713.44,849.07,1.02,-10000.00,-10000.00,-10000.00,0.00,0.00,0.00,-9.40
179301042,-17.56,6.81,13.06,-47.56,-46.62,-26.50,4.26,-3.63,-1.26,4713.44,849.07,1.02,-10000.00,-10000.00,-10000.00,0.00,0.00,0.00,-9.40
179311046,-18.00,7.38,12.88,-43.62,-40.50,-28.62,3.75,0.78,-4.31,4713.44,849.07,1.03,-10000.00,-10000.00,-10000.00,0.00,0.00,0.00,-9.60
179324226,-18.62,8.44,12.38,-39.38,-35.88,-30.00,5.80,-5.28,-3.87,4713.44,849.07,1.04,-10000.00,-10000.00,-10000.00,0.00,0.00,0.00,-9.80
179334230,-18.88,8.88,12.12,-36.06,-31.69,-30.25,1.82,1.86,-1.46,4713.44,849.07,1.04,-10000.00,-10000.00,-10000.00,0.00,0.00,0.00,-9.80
179346794,-19.12,9.31,11.88,-33.31,-26.31,-28.81,2.19,-2.99,-0.48,4713.44,849.07,1.05,-10000.00,-10000.00,-10000.00,0.00,0.00,0.00,-10.00
179358300,-19.25,9.69,11.62,-31.38,-22.38,-26.75,6.92,-5.31,-2.68,4713.44,849.07,1.05,-10000.00,-10000.00,-10000.00,0.00,0.00,0.00,-10.00
179372794,-19.56,10.50,11.19,-29.06,-17.56,-24.31,1.05,2.16,-1.08,4713.44,849.07,1.06,-10000.00,-10000.00,-10000.00,0.00,0.00,0.00,-10.20
179382798,-19.62,10.81,11.00,-28.00,-13.50,-23.25,1.59,-3.28,-0.13,4713.44,849.07,1.07,-10000.00,-10000.00,-10000.00,0.00,0.00,0.00,-10.40
179395592,-19.69,11.19,10.88,-27.25,-12.00,-22.31,2.73,-0.65,-2.78,4713.44,849.07,1.09,-10000.00,-10000.00,-10000.00,0.00,0.00,0.00,-10.80
179407784,-19.75,11.50,10.62,-26.62,-8.00,-24.06,4.44,-3.87,-3.54,4713.44,849.07,1.08,-10000.00,-10000.00,-10000.00,0.00,0.00,0.00,-10.60
179418930,-19.75,11.88,10.44,-26.56,-4.06,-25.25,4.85,-4.37,-2.73,4713.44,849.07,1.08,-10000.00,-10000.00,-10000.00,0.00,0.00,0.00,-10.60
179433397,-19.56,12.56,10.00,-25.19,3.00,-29.38,1.25,1.02,0.00,4713.44,849.07,1.09,-10000.00,-10000.00,-10000.00,0.00,0.00,0.00,-10.8060
179443401,-19.44,12.88,9.75,-24.81,6.31,-31.56,3.84,-0.69,-2.18,4713.44,849.07,1.10,-10000.00,-10000.00,-10000.00,0.00,0.00,0.00,-11.000
179454972,-19.25,13.25,9.50,-23.62,11.50,-32.50,1.06,-4.50,0.53,4713.44,849.07,1.09,-10000.00,-10000.00,-10000.00,0.00,0.00,0.00,-10.800
179464974,-19.06,13.56,9.19,-21.69,14.81,-35.00,3.76,-2.24,-3.65,4713.44,849.07,1.10,-10000.00,-10000.00,-10000.00,0.00,0.00,0.00,-11.00
179474977,-18.81,13.81,8.88,-19.56,20.69,-36.25,-2.04,-1.38,0.97,4713.44,849.07,1.10,-10000.00,-10000.00,-10000.00,0.00,0.00,0.00,-11.00
179484980,-18.44,14.06,8.62,-17.00,24.69,-34.81,-0.40,1.06,0.73,4713.44,849.07,1.10,-10000.00,-10000.00,-10000.00,0.00,0.00,0.00,-11.00
179495735,-18.12,14.31,8.31,-13.69,28.69,-34.25,7.14,-7.04,-3.19,4713.44,849.07,1.10,-10000.00,-10000.00,-10000.00,0.00,0.00,0.00,-11.00
179506230,-17.75,14.50,8.06,-11.06,33.50,-32.44,0.14,0.28,0.15,4713.44,849.07,1.09,-10000.00,-10000.00,-10000.00,0.00,0.00,0.00,-10.800
179521208,-17.31,14.62,7.88,-3.94,43.38,-25.12,0.99,-3.51,-1.35,4713.44,849.07,1.11,-10000.00,-10000.00,-10000.00,0.00,0.00,0.00,-11.20
179531211,-16.81,14.69,7.69,-3.94,43.38,-25.12,3.69,-0.17,-3.80,4713.44,849.07,1.11,-10000.00,-10000.00,-10000.00,0.00,0.00,0.00,-11.20
179541214,-16.31,14.69,7.50,-0.56,47.25,-21.94,0.80,-3.42,0.16,4713.44,849.07,1.11,-10000.00,-10000.00,-10000.00,0.00,0.00,0.00,-11.20
179553584,-15.25,14.62,7.38,7.25,54.88,-13.75,6.73,-3.56,-5.68,4713.44,849.07,1.10,-10000.00,-10000.00,-10000.00,0.00,0.00,0.00,-11.00
179563589,-14.69,14.50,7.31,11.19,59.12,-11.31,4.10,-5.02,-5.42,4713.44,849.07,1.10,-10000.00,-10000.00,-10000.00,0.00,0.00,0.00,-11.00
179573592,-14.06,14.31,7.25,15.00,61.38,-7.38,-2.00,1.73,0.29,4713.44,849.07,1.11,-10000.00,-10000.00,-10000.00,0.00,0.00,0.00,-11.200
179586267,-13.44,14.12,7.25,18.75,63.62,-5.62,6.05,-6.01,-5.36,4713.44,849.07,1.11,-10000.00,-10000.00,-10000.00,0.00,0.00,0.00,-11.20
179596271,-12.81,13.88,7.25,21.88,65.12,-5.25,-2.68,1.47,0.13,4713.44,849.07,1.11,-10000.00,-10000.00,-10000.00,0.00,0.00,0.00,-11.20
179607522,-12.19,13.62,7.31,25.44,65.94,-2.94,-2.77,1.96,0.32,4713.44,849.07,1.13,-10000.00,-10000.00,-10000.00,0.00,0.00,0.00,-11.60
179618995,-11.56,13.31,7.31,29.19,65.94,-4.00,-2.83,1.56,0.02,4713.44,849.07,1.11,-10000.00,-10000.00,-10000.00,0.00,0.00,0.00,-11.20
179632256,-10.94,13.00,7.31,32.50,67.31,-2.94,4.06,-4.86,-4.41,4713.44,849.07,1.11,-10000.00,-10000.00,-10000.00,0.00,0.00,0.00,-11.20
179642260,-10.31,12.62,7.38,38.25,65.12,-0.75,2.92,-5.36,-3.87,4713.44,849.07,1.11,-10000.00,-10000.00,-10000.00,0.00,0.00,0.00,-11.20
179652526,-9.69,12.19,7.38,40.88,64.69,1.56,-0.29,0.87,-0.12,4713.44,849.07,1.12,-10000.00,-10000.00,-10000.00,0.00,0.00,-0.00,-11.40
179662529,-9.12,11.81,7.44,44.06,65.19,2.56,3.39,-5.48,-5.11,4713.44,849.07,1.11,-10000.00,-10000.00,-10000.00,0.00,0.00,-0.00,-11.20
179674016,-7.88,10.88,7.50,46.75,63.94,2.44,-1.85,1.89,-0.32,4713.44,849.07,1.11,-10000.00,-10000.00,-10000.00,0.00,0.00,-0.00,-11.20
179684019,-7.31,10.38,7.62,49.38,62.69,4.19,-2.58,2.13,-0.28,4713.44,849.07,1.11,-10000.00,-10000.00,-10000.00,0.00,0.00,-0.00,-11.20
179696459,-6.69,9.88,7.62,50.94,61.69,3.38,5.03,-5.46,-4.53,4713.44,849.07,1.11,-10000.00,-10000.00,-10000.00,0.00,0.00,-0.00,-11.20
179706754,-6.12,9.31,7.69,52.50,60.44,4.88,-3.32,2.30,0.28,4713.44,849.07,1.15,-10000.00,-10000.00,-10000.00,0.00,0.00,-0.00,-12.00
179722099,-5.62,8.81,7.81,53.75,57.81,5.31,4.34,-4.70,-5.17,4713.44,849.07,1.14,-10000.00,-10000.00,-10000.00,0.00,0.00,-0.00,-11.80
179732103,-5.06,8.25,7.88,53.75,57.81,5.31,-2.52,0.42,1.30,4713.44,849.07,1.12,-10000.00,-10000.00,-10000.00,0.00,0.00,-0.00,-11.40
179745220,-4.00,7.19,8.00,53.94,55.38,6.56,3.71,-3.54,-4.90,4713.44,849.07,1.13,-10000.00,-10000.00,-10000.00,0.00,0.00,-0.00,-11.60
179758079,-3.50,6.69,8.12,53.44,51.19,8.31,-2.47,0.06,0.86,4713.44,849.07,1.14,-10000.00,-10000.00,-10000.00,0.00,0.00,-0.00,-11.80
179773072,-3.06,6.12,8.19,53.25,49.38,7.31,4.76,-2.41,-4.25,4713.44,849.07,1.13,-10000.00,-10000.00,-10000.00,0.00,0.00,-0.00,-11.60
179783075,-2.56,5.62,8.31,52.25,46.44,8.06,-4.11,-0.29,0.58,4713.44,849.07,1.12,-10000.00,-10000.00,-10000.00,0.00,0.00,-0.00,-11.40
179793301,-2.12,5.12,8.38,52.00,43.50,5.44,4.39,-1.62,-4.62,4713.44,849.07,1.13,-10000.00,-10000.00,-10000.00,0.00,0.00,-0.00,-11.40
179803303,-1.69,4.62,8.44,51.25,42.25,4.94,2.45,-0.38,-3.99,4713.44,849.07,1.15,-10000.00,-10000.00,-10000.00,0.00,0.00,-0.00,-11.80
179814905,-0.94,3.62,8.56,50.25,38.88,3.38,-1.85,-2.37,-0.48,4713.44,849.07,1.13,-10000.00,-10000.00,-10000.00,0.00,0.00,-0.00,-11.40
179824907,-0.62,3.12,8.56,49.06,35.25,1.88,1.57,0.82,-3.30,4713.44,849.07,1.17,-10000.00,-10000.00,-10000.00,0.00,0.00,-0.00,-12.200
179837748,-0.25,2.69,8.62,47.38,33.31,2.19,-0.81,-3.13,-0.08,4713.44,849.07,1.15,-10000.00,-10000.00,-10000.00,0.00,0.00,-0.00,-11.80
179850657,0.00,2.25,8.62,45.12,29.94,0.06,1.39,0.55,-1.55,4713.44,849.07,1.16,-10000.00,-10000.00,-10000.00,0.00,0.00,-0.00,-12.0080
179861333,0.25,1.81,8.62,43.31,27.75,0.62,-0.75,-3.97,-1.37,4713.44,849.07,1.16,-10000.00,-10000.00,-10000.00,0.00,0.00,-0.00,-12.00
179871562,0.44,1.44,8.62,42.12,23.88,-1.06,-0.70,2.31,-1.05,4713.44,849.07,1.15,-10000.00,-10000.00,-10000.00,0.00,0.00,0.00,-11.80
179881763,0.62,1.06,8.62,39.44,19.81,-1.56,-0.70,2.31,-1.05,4713.44,849.07,1.15,-10000.00,-10000.00,-10000.00,0.00,0.00,0.00,-11.80
179891765,0.81,0.69,8.56,37.50,17.38,-1.62,-2.69,3.17,-0.06,4713.44,849.07,1.14,-10000.00,-10000.00,-10000.00,0.00,0.00,0.00,-11.60
179903246,0.94,0.31,8.56,33.06,10.69,-4.62,-3.80,2.37,1.18,4713.44,849.07,1.14,-10000.00,-10000.00,-10000.00,0.00,0.00,0.00,-11.60
179913248,1.06,0.00,8.50,30.00,8.31,-8.75,2.92,-3.10,-3.96,4713.44,849.07,1.14,-10000.00,-10000.00,-10000.00,0.00,0.00,0.00,-11.60
179923250,1.12,-0.19,8.44,26.06,5.94,-10.00,3.48,-3.06,-4.59,4713.44,849.07,1.14,-10000.00,-10000.00,-10000.00,0.00,0.00,0.00,-11.60
179937465,1.19,-0.69,8.19,22.12,2.62,-13.38,-4.59,0.02,1.47,4713.44,849.07,1.15,-10000.00,-10000.00,-10000.00,0.00,0.00,0.00,-11.80
179947468,1.19,-0.88,8.06,18.06,0.38,-15.19,3.81,-2.07,-4.25,4713.44,849.07,1.14,-10000.00,-10000.00,-10000.00,0.00,0.00,0.00,-11.60
179961113,1.19,-1.00,7.88,15.19,-3.31,-15.88,-2.66,-1.64,-0.68,4713.44,849.07,1.15,-10000.00,-10000.00,-10000.00,0.00,0.00,0.00,-11.80
179971795,1.12,-1.12,7.75,13.12,-5.94,-18.50,1.30,1.55,-3.29,4713.44,849.07,1.14,-10000.00,-10000.00,-10000.00,0.00,0.00,0.00,-11.600
179983185,1.00,-1.25,7.56,11.31,-8.62,-17.06,-1.90,-2.30,-0.69,4713.44,849.07,1.15,-10000.00,-10000.00,-10000.00,0.00,0.00,0.00,-11.80
179993187,0.94,-1.38,7.38,9.50,-12.12,-18.12,0.98,1.81,-3.34,4713.44,849.07,1.14,-10000.00,-10000.00,-10000.00,0.00,0.00,0.00,-11.600
180003190,0.75,-1.44,7.25,6.50,-18.00,-15.94,1.42,2.26,-3.14,4713.44,849.07,1.14,-10000.00,-10000.00,-10000.00,0.00,0.00,0.00,-11.600
180014795,0.38,-1.56,6.94,4.62,-20.75,-16.38,-1.58,-3.04,-1.95,4713.44,849.07,1.14,-10000.00,-10000.00,-10000.00,0.00,0.00,0.00,-11.60
180024799,0.12,-1.56,6.81,3.25,-24.56,-13.56,1.02,2.34,-1.67,4713.44,849.07,1.14,-10000.00,-10000.00,-10000.00,0.00,0.00,0.00,-11.600
180037726,-0.06,-1.56,6.62,0.94,-27.50,-13.69,-0.25,-4.32,-2.25,4713.44,849.07,1.14,-10000.00,-10000.00,-10000.00,0.00,0.00,0.00,-11.60
180047729,-0.38,-1.56,6.56,-0.88,-28.62,-12.31,1.45,-3.76,-3.41,4713.44,849.07,1.14,-10000.00,-10000.00,-10000.00,0.00,0.00,0.00,-11.60
180059581,-0.69,-1.56,6.44,-2.50,-31.12,-12.38,-2.20,3.49,-1.09,4713.44,849.07,1.14,-10000.00,-10000.00,-10000.00,0.00,0.00,0.00,-11.60
180071228,-1.00,-1.50,6.31,-4.62,-34.31,-13.31,-1.71,3.57,-1.12,4713.44,849.07,1.14,-10000.00,-10000.00,-10000.00,0.00,0.00,0.00,-11.60
180082452,-1.31,-1.44,6.19,-6.06,-35.12,-11.94,-1.71,3.57,-1.12,4713.44,849.07,1.13,-10000.00,-10000.00,-10000.00,0.00,0.00,0.00,-11.40
180092454,-1.69,-1.38,6.06,-7.25,-37.31,-13.75,-1.93,3.10,0.01,4713.44,849.07,1.12,-10000.00,-10000.00,-10000.00,0.00,0.00,0.00,-11.20
180102456,-2.06,-1.31,5.94,-8.19,-39.38,-12.94,-2.38,3.10,0.23,4713.44,849.07,1.13,-10000.00,-10000.00,-10000.00,0.00,0.00,0.00,-11.40
180113111,-2.50,-1.19,5.81,-8.88,-42.81,-12.75,3.82,-3.34,-5.40,4713.44,849.07,1.13,-10000.00,-10000.00,-10000.00,0.00,0.00,0.00,-11.40
180123135,-2.88,-1.12,5.69,-9.38,-45.56,-10.56,4.62,-4.16,-4.72,4713.44,849.07,1.12,-10000.00,-10000.00,-10000.00,0.00,0.00,0.00,-11.20
180136406,-3.81,-0.94,5.50,-9.88,-46.69,-10.56,-4.17,4.05,0.44,4713.44,849.07,1.11,-10000.00,-10000.00,-10000.00,0.00,0.00,0.00,-11.00
180146408,-4.25,-0.81,5.44,-9.81,-49.06,-8.00,4.69,-3.57,-6.17,4713.44,849.07,1.13,-10000.00,-10000.00,-10000.00,0.00,0.00,0.00,-11.40
180159350,-4.75,-0.69,5.38,-9.94,-50.94,-6.44,4.03,-2.16,-5.45,4713.44,849.07,1.14,-10000.00,-10000.00,-10000.00,0.00,0.00,0.00,-11.60
180170939,-5.25,-0.62,5.38,-10.69,-52.31,-4.62,-2.29,1.09,1.07,4713.44,849.07,1.15,-10000.00,-10000.00,-10000.00,0.00,0.00,0.00,-11.80
180185186,-5.81,-0.50,5.38,-11.25,-54.56,-0.06,-2.68,1.11,0.29,4713.44,849.07,1.12,-10000.00,-10000.00,-10000.00,0.00,0.00,0.00,-11.20
180195191,-6.31,-0.38,5.38,-11.44,-55.31,4.00,4.98,-1.85,-4.66,4713.44,849.07,1.12,-10000.00,-10000.00,-10000.00,0.00,0.00,-0.00,-11.20
180207219,-7.38,-0.19,5.44,-11.12,-56.62,5.69,5.16,-0.47,-5.39,4713.44,849.07,1.13,-10000.00,-10000.00,-10000.00,0.00,0.00,-0.00,-11.40
180217221,-7.94,-0.06,5.56,-11.31,-57.81,7.75,-2.67,-0.30,0.26,4713.44,849.07,1.11,-10000.00,-10000.00,-10000.00,0.00,0.00,-0.00,-11.00
180227224,-8.50,0.00,5.62,-10.88,-58.00,10.00,3.73,-0.35,-3.85,4713.44,849.07,1.11,-10000.00,-10000.00,-10000.00,0.00,0.00,-0.00,-11.00
180237227,-9.06,0.06,5.75,-12.50,-57.50,6.62,2.17,-0.03,-1.50,4713.44,849.07,1.10,-10000.00,-10000.00,-10000.00,0.00,0.00,-0.00,-10.80
180247229,-9.62,0.19,5.81,-15.00,-53.56,5.69,-0.73,-2.48,1.07,4713.44,849.07,1.11,-10000.00,-10000.00,-10000.00,0.00,0.00,-0.00,-11.00
180257231,-10.06,0.38,5.81,-16.62,-50.75,2.00,2.21,0.56,-1.93,4713.44,849.07,1.10,-10000.00,-10000.00,-10000.00,0.00,0.00,-0.00,-10.80
180267234,-10.56,0.56,5.81,-18.19,-47.44,-1.12,-0.14,-2.32,0.59,4713.44,849.07,1.10,-10000.00,-10000.00,-10000.00,0.00,0.00,0.00,-10.80
180277237,-10.94,0.69,5.81,-18.06,-42.94,-3.06,0.02,-1.81,0.99,4713.44,849.07,1.10,-10000.00,-10000.00,-10000.00,0.00,0.00,0.00,-10.80
180287240,-11.38,0.88,5.75,-17.31,-39.62,-6.25,2.43,0.17,-4.18,4713.44,849.07,1.10,-10000.00,-10000.00,-10000.00,0.00,0.00,0.00,-10.80
180297243,-11.69,1.06,5.75,-16.94,-37.12,-5.75,-2.35,0.19,1.79,4713.44,849.07,1.10,-10000.00,-10000.00,-10000.00,0.00,0.00,0.00,-10.80
180307245,-12.06,1.25,5.69,-16.44,-33.75,-6.19,5.75,-1.61,-2.63,4713.44,849.07,1.10,-10000.00,-10000.00,-10000.00,0.00,0.00,0.00,-10.80
180317249,-12.31,1.44,5.62,-16.81,-29.69,-7.31,3.27,-3.47,-3.09,4713.44,849.07,1.11,-10000.00,-10000.00,-10000.00,0.00,0.00,0.00,-11.00
180327251,-12.56,1.62,5.56,-18.12,-26.69,-5.25,-3.44,3.61,2.26,4713.44,849.07,1.11,-10000.00,-10000.00,-10000.00,0.00,0.00,0.00,-11.00
180337255,-12.81,1.81,5.56,-18.31,-24.56,-4.38,5.01,-4.03,-2.51,4713.44,849.07,1.10,-10000.00,-10000.00,-10000.00,0.00,0.00,0.00,-10.80
180347258,-13.00,2.00,5.56,-18.88,-21.81,-4.44,0.08,1.61,1.28,4713.44,849.07,1.09,-10000.00,-10000.00,-10000.00,0.00,0.00,0.00,-10.600
180357261,-13.19,2.19,5.50,-19.38,-18.50,-2.38,-0.99,2.13,-0.58,4713.44,849.07,1.08,-10000.00,-10000.00,-10000.00,0.00,0.00,0.00,-10.40
180367265,-13.38,2.38,5.56,-20.00,-15.69,-1.12,-0.32,-2.42,1.51,4713.44,849.07,1.08,-10000.00,-10000.00,-10000.00,0.00,0.00,0.00,-10.40
180377268,-13.50,2.62,5.56,-21.12,-12.88,-0.69,2.71,1.63,-1.50,4713.44,849.07,1.08,-10000.00,-10000.00,-10000.00,0.00,0.00,0.00,-10.40
180387272,-13.56,2.81,5.56,-21.94,-8.94,1.44,0.76,-2.19,2.03,4713.44,849.07,1.07,-10000.00,-10000.00,-10000.00,0.00,0.00,-0.00,-10.20
180397275,-13.62,3.00,5.62,-22.88,-6.56,2.44,-3.01,0.44,1.14,4713.44,849.07,1.07,-10000.00,-10000.00,-10000.00,0.00,0.00,-0.00,-10.20
180408090,-13.69,3.25,5.69,-23.06,-3.81,2.06,3.84,-2.13,-2.44,4713.44,849.07,1.08,-10000.00,-10000.00,-10000.00,0.00,0.00,-0.00,-10.40
180418092,-13.69,3.44,5.75,-22.94,-0.06,3.56,-1.93,3.75,2.57,4713.44,849.07,1.08,-10000.00,-10000.00,-10000.00,0.00,0.00,-0.00,-10.40
180429700,-13.62,3.69,5.81,-22.69,2.69,4.00,6.12,-4.15,-1.88,4713.44,849.07,1.07,-10000.00,-10000.00,-10000.00,0.00,0.00,-0.00,-10.20
180439703,-13.62,3.88,5.88,-22.25,5.44,2.88,2.65,-4.70,-0.66,4713.44,849.07,1.07,-10000.00,-10000.00,-10000.00,0.00,0.00,-0.00,-10.20
180449706,-13.50,4.06,5.94,-22.12,8.12,3.69,-1.61,1.86,-0.06,4713.44,849.07,1.06,-10000.00,-10000.00,-10000.00,0.00,0.00,-0.00,-10.00
180459774,-13.38,4.25,6.00,-21.62,12.19,4.25,0.95,-2.54,0.13,4713.44,849.07,1.05,-10000.00,-10000.00,-10000.00,0.00,0.00,-0.00,-9.80
180472446,-13.25,4.50,6.06,-20.69,16.00,3.06,3.66,2.16,-1.87,4713.44,849.07,1.04,-10000.00,-10000.00,-10000.00,0.00,0.00,-0.00,-9.60
180484011,-13.06,4.69,6.12,-20.50,19.44,4.25,4.31,-2.02,-2.57,4713.44,849.07,1.05,-10000.00,-10000.00,-10000.00,0.00,0.00,-0.00,-9.80
180496057,-12.88,4.81,6.19,-20.19,22.19,5.50,4.24,-2.27,-2.84,4713.44,849.07,1.04,-10000.00,-10000.00,-10000.00,0.00,0.00,-0.00,-9.60
180506060,-12.62,5.00,6.31,-18.19,28.75,7.00,-1.44,2.67,1.52,4713.44,849.07,1.04,-10000.00,-10000.00,-10000.00,0.00,0.00,-0.00,-9.60
180517308,-12.06,5.31,6.50,-16.94,32.94,7.44,0.36,2.16,1.09,4713.44,849.07,1.05,-10000.00,-10000.00,-10000.00,0.00,0.00,-0.00,-9.80
180527311,-11.69,5.44,6.62,-15.50,34.88,7.12,4.27,-3.80,-1.00,4713.44,849.07,1.03,-10000.00,-10000.00,-10000.00,0.00,0.00,-0.00,-9.40
180540619,-11.38,5.56,6.69,-14.06,36.50,8.31,3.37,1.49,-2.39,4713.44,849.07,1.04,-10000.00,-10000.00,-10000.00,0.00,0.00,-0.00,-9.60
180550623,-11.00,5.62,6.81,-12.50,37.12,9.00,-0.82,0.09,1.14,4713.44,849.07,1.03,-10000.00,-10000.00,-10000.00,0.00,0.00,-0.00,-9.40
180565790,-10.62,5.75,6.94,-9.62,39.12,9.06,2.57,-4.40,-1.28,4713.44,849.07,1.03,-10000.00,-10000.00,-10000.00,0.00,0.00,-0.00,-9.40
180575794,-10.31,5.81,7.06,-8.25,39.06,9.94,1.66,0.46,-2.31,4713.44,849.07,1.03,-10000.00,-10000.00,-10000.00,0.00,0.00,-0.00,-9.40
180588827,-9.56,5.88,7.31,-6.62,38.75,10.38,0.42,-1.74,1.01,4713.44,849.07,1.04,-10000.00,-10000.00,-10000.00,0.00,0.00,-0.00,-9.60
180598830,-9.19,5.94,7.44,-5.56,38.88,10.19,-3.00,2.98,0.26,4713.44,849.07,1.02,-10000.00,-10000.00,-10000.00,0.00,0.00,-0.00,-9.20
180611994,-8.81,5.94,7.56,-4.12,39.88,10.31,1.71,-3.67,-2.33,4713.44,849.07,1.03,-10000.00,-10000.00,-10000.00,0.00,0.00,-0.00,-9.40
180628343,-8.12,5.94,7.81,-1.94,37.25,11.50,0.38,-2.69,1.10,4713.44,849.07,1.02,-10000.00,-10000.00,-10000.00,0.00,0.00,-0.00,-9.20
180640062,-7.75,5.94,7.94,-1.12,36.19,10.69,-2.43,2.63,0.25,4713.44,849.07,1.03,-10000.00,-10000.00,-10000.00,0.00,0.00,-0.00,-9.40
180650066,-7.44,5.94,8.06,-0.88,34.19,10.56,1.63,-3.54,-2.34,4713.44,849.07,1.02,-10000.00,-10000.00,-10000.00,0.00,0.00,-0.00,-9.20
180660979,-7.19,5.94,8.19,-0.38,32.12,11.12,-0.56,1.76,-3.91,4713.44,849.07,1.01,-10000.00,-10000.00,-10000.00,0.00,0.00,-0.00,-9.00
180671638,-6.88,5.88,8.31,0.06,29.88,10.62,-0.18,-3.03,0.26,4713.44,849.07,1.03,-10000.00,-10000.00,-10000.00,0.00,0.00,-0.00,-9.40
180684947,-6.62,5.88,8.44,0.81,29.31,9.50,-1.99,2.51,0.12,4713.44,849.07,1.02,-10000.00,-10000.00,-10000.00,0.00,0.00,-0.00,-9.200
180694951,-6.38,5.88,8.50,1.00,27.06,9.69,2.24,-3.69,-2.59,4713.44,849.07,1.01,-10000.00,-10000.00,-10000.00,0.00,0.00,-0.00,-9.00
180706900,-6.12,5.81,8.62,2.25,25.94,9.50,-0.72,-2.47,0.46,4713.44,849.07,0.99,-10000.00,-10000.00,-10000.00,0.00,0.00,-0.00,-8.60
180716904,-5.88,5.81,8.75,2.62,24.00,9.56,-1.16,1.14,0.83,4713.44,849.07,0.99,-10000.00,-10000.00,-10000.00,0.00,0.00,-0.00,-8.60
180729786,-5.44,5.69,8.94,3.38,22.88,10.69,3.55,-3.79,-3.08,4713.44,849.07,0.99,-10000.00,-10000.00,-10000.00,0.00,0.00,-0.00,-8.60
180739794,-5.25,5.62,9.06,4.12,20.69,11.75,-1.90,3.29,-2.06,4713.44,849.07,0.99,-10000.00,-10000.00,-10000.00,0.00,0.00,-0.00,-8.60
180751165,-5.06,5.56,9.19,5.06,19.25,12.06,-1.63,-1.99,-1.12,4713.44,849.07,0.99,-10000.00,-10000.00,-10000.00,0.00,0.00,-0.00,-8.60
180761649,-4.94,5.50,9.31,5.38,17.88,12.38,-1.65,2.36,-0.64,4713.44,849.07,0.99,-10000.00,-10000.00,-10000.00,0.00,0.00,-0.00,-8.60
180776842,-4.81,5.44,9.44,6.31,14.50,14.06,2.42,0.99,-3.42,4713.44,849.07,1.00,-10000.00,-10000.00,-10000.00,0.00,0.00,-0.00,-8.80
180791054,-4.56,5.31,9.75,6.44,12.12,13.44,-3.20,1.12,-0.95,4713.44,849.07,0.99,-10000.00,-10000.00,-10000.00,0.00,0.00,-0.00,-8.60
180801057,-4.44,5.25,9.88,6.06,10.19,12.94,-0.99,1.88,-3.06,4713.44,849.07,1.00,-10000.00,-10000.00,-10000.00,0.00,0.00,-0.00,-8.80
180813489,-4.38,5.19,10.00,6.12,9.19,12.44,-1.54,-0.57,-0.46,4713.44,849.07,1.00,-10000.00,-10000.00,-10000.00,0.00,0.00,-0.00,-8.80
180825091,-4.31,5.12,10.06,5.94,8.31,11.62,-1.19,3.03,-3.77,4713.44,849.07,0.98,-10000.00,-10000.00,-10000.00,0.00,0.00,-0.00,-8.40
180836401,-4.25,5.06,10.19,5.38,7.00,10.00,-1.19,3.03,-3.77,4713.44,849.07,0.99,-10000.00,-10000.00,-10000.00,0.00,0.00,-0.00,-8.60
180846405,-4.19,5.00,10.25,4.44,5.00,8.25,2.73,-2.05,-5.38,4713.44,849.07,0.98,-10000.00,-10000.00,-10000.00,0.00,0.00,-0.00,-8.40
180856409,-4.19,4.94,10.31,3.12,3.06,6.88,-0.29,-2.30,-0.86,4713.44,849.07,0.97,-10000.00,-10000.00,-10000.00,0.00,0.00,-0.00,-8.20
180866412,-4.19,4.94,10.38,2.50,3.19,5.62,3.49,-1.03,-5.38,4713.44,849.07,0.99,-10000.00,-10000.00,-10000.00,0.00,0.00,-0.00,-8.60
180879598,-4.12,4.88,10.50,2.12,0.75,4.31,2.35,-3.51,-0.49,4713.44,849.07,0.98,-10000.00,-10000.00,-10000.00,0.00,0.00,-0.00,-8.40
180889601,-4.12,4.88,10.50,2.25,-0.50,3.62,1.37,0.72,-5.82,4713.44,849.07,0.97,-10000.00,-10000.00,-10000.00,0.00,0.00,-0.00,-8.20
180902437,-4.19,4.81,10.56,2.00,-2.31,3.19,-1.30,1.49,-0.06,4713.44,849.07,0.97,-10000.00,-10000.00,-10000.00,0.00,0.00,-0.00,-8.20
180913416,-4.19,4.81,10.56,2.19,-3.88,3.06,1.71,-2.81,-1.92,4713.44,849.07,0.96,-10000.00,-10000.00,-10000.00,0.00,0.00,-0.00,-8.00
180928495,-4.25,4.75,10.62,2.94,-7.25,3.12,3.02,-3.07,-3.61,4713.44,849.07,0.96,-10000.00,-10000.00,-10000.00,0.00,0.00,-0.00,-8.00
180938498,-4.31,4.75,10.62,3.38,-9.62,2.81,0.13,1.95,-3.74,4713.44,849.07,0.96,-10000.00,-10000.00,-10000.00,0.00,0.00,-0.00,-8.00
180948770,-4.44,4.69,10.62,3.00,-12.50,2.44,-1.99,0.44,-0.39,4713.44,849.07,0.96,-10000.00,-10000.00,-10000.00,0.00,0.00,-0.00,-8.00
180958772,-4.56,4.69,10.69,2.81,-14.44,2.31,-1.72,2.51,-2.96,4713.44,849.07,0.95,-10000.00,-10000.00,-10000.00,0.00,0.00,-0.00,-7.80
180970118,-4.88,4.62,10.69,2.25,-16.06,1.75,-0.73,-2.16,0.16,4713.44,849.07,0.95,-10000.00,-10000.00,-10000.00,0.00,0.00,-0.00,-7.80
180980122,-5.00,4.62,10.69,1.38,-17.38,1.12,2.33,-2.33,-6.25,4713.44,849.07,0.95,-10000.00,-10000.00,-10000.00,0.00,0.00,-0.00,-7.80
180991854,-5.19,4.62,10.69,0.75,-20.12,-0.25,-1.66,-1.51,-0.58,4713.44,849.07,0.95,-10000.00,-10000.00,-10000.00,0.00,0.00,0.00,-7.80
181001858,-5.44,4.62,10.69,0.31,-21.81,-1.44,3.87,-2.13,-5.73,4713.44,849.07,0.95,-10000.00,-10000.00,-10000.00,0.00,0.00,0.00,-7.80
181012810,-5.62,4.62,10.62,-0.25,-21.69,-2.19,-2.60,2.36,-1.76,4713.44,849.07,0.94,-10000.00,-10000.00,-10000.00,0.00,0.00,0.00,-7.60
181023592,-5.81,4.62,10.62,-0.44,-21.88,-2.81,1.39,-1.92,-1.49,4713.44,849.07,0.96,-10000.00,-10000.00,-10000.00,0.00,0.00,0.00,-8.00
181038502,-6.06,4.62,10.56,-0.88,-23.75,-3.50,2.27,-3.59,-2.79,4713.44,849.07,0.95,-10000.00,-10000.00,-10000.00,0.00,0.00,0.00,-7.60
181048505,-6.31,4.62,10.50,-1.25,-23.56,-3.88,1.94,1.62,-4.42,4713.44,849.07,0.95,-10000.00,-10000.00,-10000.00,0.00,0.00,0.00,-7.60
181062101,-6.75,4.69,10.44,-1.00,-24.12,-3.00,-1.39,1.57,-1.73,4713.44,849.07,0.96,-10000.00,-10000.00,-10000.00,0.00,0.00,0.00,-7.80
181075614,-6.94,4.69,10.38,-1.19,-23.62,-2.25,-2.43,1.18,-2.17,4713.44,849.07,0.95,-10000.00,-10000.00,-10000.00,0.00,0.00,0.00,-7.60
181086942,-7.19,4.69,10.38,-0.69,-24.06,-1.50,-2.43,1.18,-2.17,4713.44,849.07,0.94,-10000.00,-10000.00,-10000.00,0.00,0.00,0.00,-7.40
181097459,-7.44,4.75,10.38,-1.75,-22.88,-1.62,4.08,-2.63,-3.86,4713.44,849.07,0.93,-10000.00,-10000.00,-10000.00,0.00,0.00,0.00,-7.20
181107463,-7.62,4.75,10.31,-1.75,-22.88,-1.62,3.39,-2.37,-4.04,4713.44,849.07,0.94,-10000.00,-10000.00,-10000.00,0.00,0.00,0.00,-7.40
181120172,-8.06,4.81,10.31,-2.62,-20.62,-1.06,1.44,1.33,-5.61,4713.44,849.07,0.93,-10000.00,-10000.00,-10000.00,0.00,0.00,0.00,-7.20
181130176,-8.25,4.88,10.25,-2.81,-19.12,-2.12,-2.13,0.92,-0.71,4713.44,849.07,0.94,-10000.00,-10000.00,-10000.00,0.00,0.00,0.00,-7.40
181141156,-8.38,4.88,10.25,-2.94,-17.12,-2.75,3.43,-2.37,-3.99,4713.44,849.07,0.94,-10000.00,-10000.00,-10000.00,0.00,0.00,0.00,-7.40
181151160,-8.56,4.94,10.19,-2.50,-15.94,-2.94,-1.92,2.05,-0.77,4713.44,849.07,0.93,-10000.00,-10000.00,-10000.00,0.00,0.00,0.00,-7.20
181161164,-8.69,4.94,10.19,-2.25,-14.38,-3.19,2.77,-2.64,-3.17,4713.44,849.07,0.92,-10000.00,-10000.00,-10000.00,0.00,0.00,0.00,-7.00
181171167,-8.81,4.94,10.12,-1.94,-12.62,-3.31,2.86,0.29,-5.61,4713.44,849.07,0.91,-10000.00,-10000.00,-10000.00,0.00,0.00,0.00,-6.80
181181171,-8.94,5.00,10.06,-1.62,-12.19,-3.12,-1.83,2.21,-2.46,4713.44,849.07,0.92,-10000.00,-10000.00,-10000.00,0.00,0.00,0.00,-7.00
181191174,-9.00,5.00,10.06,-0.56,-11.12,-2.75,3.15,-1.74,-6.76,4713.44,849.07,0.92,-10000.00,-10000.00,-10000.00,0.00,0.00,0.00,-7.00
181201176,-9.12,5.00,10.00,-0.19,-10.38,-2.50,-0.75,2.65,-4.87,4713.44,849.07,0.92,-10000.00,-10000.00,-10000.00,0.00,0.00,0.00,-7.00
181211180,-9.25,5.00,10.00,0.00,-9.88,-2.50,-0.39,-0.74,-2.20,4713.44,849.07,0.91,-10000.00,-10000.00,-10000.00,0.00,0.00,0.00,-6.80
181221183,-9.31,5.00,10.00,0.81,-9.50,-2.38,3.87,-2.02,-4.87,4713.44,849.07,0.91,-10000.00,-10000.00,-10000.00,0.00,0.00,0.00,-6.80
181231188,-9.38,5.00,9.94,1.56,-9.69,-2.31,-1.24,1.08,-2.33,4713.44,849.07,0.92,-10000.00,-10000.00,-10000.00,0.00,0.00,0.00,-7.00
181241191,-9.50,5.00,9.94,2.06,-10.06,-2.62,3.03,-2.18,-3.62,4713.44,849.07,0.90,-10000.00,-10000.00,-10000.00,0.00,0.00,0.00,-6.60
181251194,-9.56,4.94,9.88,2.88,-9.19,-3.50,2.61,0.79,-6.18,4713.44,849.07,0.90,-10000.00,-10000.00,-10000.00,0.00,0.00,0.00,-6.600
181261196,-9.69,4.94,9.81,3.62,-8.81,-3.69,-1.52,2.08,-2.63,4713.44,849.07,0.90,-10000.00,-10000.00,-10000.00,0.00,0.00,0.00,-6.60
181271199,-9.75,4.88,9.75,4.50,-9.81,-4.44,3.47,-0.61,-6.94,4713.44,849.07,0.91,-10000.00,-10000.00,-10000.00,0.00,0.00,0.00,-6.80
181281203,-9.88,4.88,9.75,4.88,-9.88,-4.81,-0.57,2.53,-3.43,4713.44,849.07,0.90,-10000.00,-10000.00,-10000.00,0.00,0.00,0.00,-6.60
181291206,-9.94,4.81,9.69,6.00,-9.44,-5.12,-0.12,-0.61,-2.69,4713.44,849.07,0.89,-10000.00,-10000.00,-10000.00,0.00,0.00,0.00,-6.40
181304339,-10.00,4.75,9.62,7.00,-8.88,-5.06,3.83,-1.83,-4.81,4713.44,849.07,0.90,-10000.00,-10000.00,-10000.00,0.00,0.00,0.00,-6.60
181315054,-10.06,4.69,9.56,7.56,-8.38,-4.50,-1.54,0.93,-2.46,4713.44,849.07,0.90,-10000.00,-10000.00,-10000.00,0.00,0.00,0.00,-6.60
181326759,-10.19,4.62,9.50,8.19,-8.25,-3.88,2.73,-2.85,-4.16,4713.44,849.07,0.90,-10000.00,-10000.00,-10000.00,0.00,0.00,0.00,-6.60
181338081,-10.25,4.56,9.44,9.12,-5.81,-3.69,2.21,1.20,-6.38,4713.44,849.07,0.90,-10000.00,-10000.00,-10000.00,0.00,0.00,0.00,-6.60
181348084,-10.25,4.44,9.44,9.62,-4.38,-3.44,-0.96,2.34,-2.06,4713.44,849.07,0.89,-10000.00,-10000.00,-10000.00,0.00,0.00,0.00,-6.40
181358087,-10.31,4.38,9.38,10.00,-4.25,-2.94,-0.62,2.88,-2.65,4713.44,849.07,0.89,-10000.00,-10000.00,-10000.00,0.00,0.00,0.00,-6.40
181370835,-10.31,4.25,9.31,10.50,-2.06,-3.00,-0.26,-1.45,-1.70,4713.44,849.07,0.89,-10000.00,-10000.00,-10000.00,0.00,0.00,0.00,-6.40
181380839,-10.38,4.19,9.31,10.56,-1.19,-2.75,3.47,-2.06,-6.25,4713.44,849.07,0.88,-10000.00,-10000.00,-10000.00,0.00,0.00,0.00,-6.20
181393584,-10.38,3.94,9.19,11.00,1.19,-3.50,-0.63,1.45,-1.97,4713.44,849.07,0.88,-10000.00,-10000.00,-10000.00,0.00,0.00,0.00,-6.20
181403587,-10.31,3.88,9.19,11.19,1.19,-3.69,2.78,-2.02,-5.07,4713.44,849.07,0.89,-10000.00,-10000.00,-10000.00,0.00,0.00,0.00,-6.40
181416682,-10.31,3.75,9.12,11.31,3.25,-4.12,2.84,1.14,-6.10,4713.44,849.07,0.88,-10000.00,-10000.00,-10000.00,0.00,0.00,0.00,-6.20
181428010,-10.25,3.69,9.06,11.38,4.00,-4.62,3.50,-1.46,-6.86,4713.44,849.07,0.89,-10000.00,-10000.00,-10000.00,0.00,0.00,0.00,-6.40
181440591,-10.19,3.56,9.00,11.56,4.44,-5.25,1.72,1.90,-7.47,4713.44,849.07,0.88,-10000.00,-10000.00,-10000.00,0.00,0.00,0.00,-6.20
181450595,-10.19,3.44,8.94,11.50,5.94,-5.50,-1.18,2.18,-2.97,4713.44,849.07,0.87,-10000.00,-10000.00,-10000.00,0.00,0.00,0.00,-6.00
181460600,-10.12,3.38,8.88,10.75,5.19,-5.94,0.16,-1.01,-3.37,4713.44,849.07,0.87,-10000.00,-10000.00,-10000.00,0.00,0.00,0.00,-6.00
181470604,-10.06,3.25,8.81,10.88,5.94,-6.56,1.40,1.27,-6.54,4713.44,849.07,0.88,-10000.00,-10000.00,-10000.00,0.00,0.00,0.00,-6.20
181480606,-10.00,3.19,8.75,11.00,7.12,-6.75,-1.33,2.47,-3.78,4713.44,849.07,0.89,-10000.00,-10000.00,-10000.00,0.00,0.00,0.00,-6.40
181490608,-9.94,3.06,8.69,11.00,7.12,-6.75,0.77,-0.71,-3.71,4713.44,849.07,0.88,-10000.00,-10000.00,-10000.00,0.00,0.00,0.00,-6.20
181500612,-9.88,3.00,8.62,10.94,6.75,-6.88,3.06,-1.02,-6.97,4713.44,849.07,0.88,-10000.00,-10000.00,-10000.00,0.00,0.00,0.00,-6.20
181510994,-9.81,2.88,8.56,9.94,6.31,-6.25,-1.58,1.80,-3.43,4713.44,849.07,0.88,-10000.00,-10000.00,-10000.00,0.00,0.00,0.00,-6.20
181520996,-9.75,2.81,8.44,9.25,6.25,-5.44,0.97,-1.11,-3.77,4713.44,849.07,0.87,-10000.00,-10000.00,-10000.00,0.00,0.00,0.00,-6.00
181533741,-9.56,2.62,8.38,8.56,8.06,-4.94,3.06,-0.83,-6.23,4713.44,849.07,0.88,-10000.00,-10000.00,-10000.00,0.00,0.00,0.00,-6.20
181543745,-9.50,2.56,8.31,7.56,7.56,-4.00,1.37,2.57,-7.28,4713.44,849.07,0.88,-10000.00,-10000.00,-10000.00,0.00,0.00,0.00,-6.20
181556167,-9.44,2.50,8.25,6.50,8.00,-3.75,0.89,-1.00,-3.75,4713.44,849.07,0.87,-10000.00,-10000.00,-10000.00,0.00,0.00,0.00,-6.00
181567955,-9.38,2.44,8.25,5.19,7.69,-2.94,3.22,-1.80,-6.90,4713.44,849.07,0.89,-10000.00,-10000.00,-10000.00,0.00,0.00,0.00,-6.40
181582884,-9.19,2.38,8.19,3.94,9.44,-2.06,-1.50,1.91,-3.19,4713.44,849.07,0.87,-10000.00,-10000.00,-10000.00,0.00,0.00,0.00,-6.00
181592886,-9.06,2.38,8.19,2.69,8.75,-2.19,2.75,-0.91,-7.25,4713.44,849.07,0.87,-10000.00,-10000.00,-10000.00,0.00,0.00,0.00,-6.00
181604423,-9.00,2.31,8.12,2.75,10.69,-2.12,0.04,2.80,-6.10,4713.44,849.07,0.86,-10000.00,-10000.00,-10000.00,0.00,0.00,0.00,-5.80
181614426,-8.88,2.31,8.12,2.50,11.56,-1.69,-1.15,1.87,-2.23,4713.44,849.07,0.88,-10000.00,-10000.00,-10000.00,0.00,0.00,0.00,-6.00
181624430,-8.75,2.31,8.12,2.56,11.81,-1.75,1.84,-1.58,-3.99,4713.44,849.07,0.86,-10000.00,-10000.00,-10000.00,0.00,0.00,0.00,-5.60
181634662,-8.62,2.25,8.12,2.38,13.38,-2.00,-0.41,2.47,-6.74,4713.44,849.07,0.86,-10000.00,-10000.00,-10000.00,0.00,0.00,0.00,-5.60
181644666,-8.50,2.25,8.06,2.38,13.12,-1.75,-1.01,1.84,-2.30,4713.44,849.07,0.85,-10000.00,-10000.00,-10000.00,0.00,0.00,0.00,-5.40
181654670,-8.38,2.25,8.06,2.31,13.25,-1.69,2.29,-1.63,-3.96,4713.44,849.07,0.86,-10000.00,-10000.00,-10000.00,0.00,0.00,0.00,-5.60
181664673,-8.25,2.19,8.06,1.94,12.44,-2.00,2.42,-0.62,-6.87,4713.44,849.07,0.85,-10000.00,-10000.00,-10000.00,0.00,0.00,0.00,-5.40
181674675,-8.12,2.19,8.00,2.12,14.25,-2.44,-1.02,1.27,-2.40,4713.44,849.07,0.85,-10000.00,-10000.00,-10000.00,0.00,0.00,0.00,-5.40
181684677,-8.00,2.19,8.00,2.62,13.56,-2.56,2.26,-1.37,-6.09,4713.44,849.07,0.85,-10000.00,-10000.00,-10000.00,0.00,0.00,0.00,-5.40
181694681,-7.88,2.12,8.00,2.50,11.75,-3.00,2.34,-0.00,-6.89,4713.44,849.07,0.87,-10000.00,-10000.00,-10000.00,0.00,0.00,0.00,-5.80
181704683,-7.75,2.12,7.94,2.62,11.44,-3.31,-0.76,3.15,-5.47,4713.44,849.07,0.87,-10000.00,-10000.00,-10000.00,0.00,0.00,0.00,-5.80
181715464,-7.62,2.12,7.88,3.06,11.56,-4.00,1.14,-0.77,-4.20,4713.44,849.07,0.86,-10000.00,-10000.00,-10000.00,0.00,0.00,0.00,-5.60
181725468,-7.56,2.06,7.88,3.00,10.50,-4.12,2.79,-0.53,-7.10,4713.44,849.07,0.86,-10000.00,-10000.00,-10000.00,0.00,0.00,0.00,-5.60
181735472,-7.44,2.06,7.81,3.38,10.94,-4.75,1.28,3.04,-6.89,4713.44,849.07,0.86,-10000.00,-10000.00,-10000.00,0.00,0.00,0.00,-5.60
181745476,-7.31,2.00,7.75,3.38,11.00,-5.06,-0.97,1.51,-3.88,4713.44,849.07,0.85,-10000.00,-10000.00,-10000.00,0.00,0.00,0.00,-5.40
181755479,-7.19,2.00,7.69,2.94,11.94,-4.75,2.01,-0.60,-5.32,4713.44,849.07,0.86,-10000.00,-10000.00,-10000.00,0.00,0.00,0.00,-5.60
181765483,-7.06,2.00,7.69,2.31,10.62,-4.94,2.37,0.59,-7.57,4713.44,849.07,0.84,-10000.00,-10000.00,-10000.00,0.00,0.00,0.00,-5.20
181775487,-7.00,2.00,7.62,1.56,10.75,-5.31,-0.51,3.10,-5.91,4713.44,849.07,0.86,-10000.00,-10000.00,-10000.00,0.00,0.00,0.00,-5.60
181785491,-6.88,2.00,7.56,0.62,10.56,-5.88,2.09,-1.37,-4.69,4713.44,849.07,0.86,-10000.00,-10000.00,-10000.00,0.00,0.00,0.00,-5.60
181795493,-6.75,2.00,7.50,0.56,10.50,-7.00,2.02,-0.63,-7.06,4713.44,849.07,0.86,-10000.00,-10000.00,-10000.00,0.00,0.00,0.00,-5.60
181805496,-6.69,2.00,7.44,0.38,11.19,-8.38,-0.46,2.49,-6.09,4713.44,849.07,0.85,-10000.00,-10000.00,-10000.00,0.00,0.00,0.00,-5.40
181817034,-6.56,2.00,7.31,-0.38,9.69,-9.12,-1.38,2.59,-3.86,4713.44,849.07,0.85,-10000.00,-10000.00,-10000.00,0.00,0.00,0.00,-5.40
181828187,-6.50,2.00,7.25,-0.50,8.69,-9.56,2.19,0.01,-7.28,4713.44,849.07,0.85,-10000.00,-10000.00,-10000.00,0.00,0.00,0.00,-5.40
181843454,-6.38,2.06,7.12,-0.94,9.69,-8.19,-1.33,2.45,-5.07,4713.44,849.07,0.85,-10000.00,-10000.00,-10000.00,0.00,0.00,0.00,-5.40
181853457,-6.19,2.06,7.00,-1.25,9.31,-8.44,-1.25,0.19,-3.85,4713.44,849.07,0.86,-10000.00,-10000.00,-10000.00,0.00,0.00,0.00,-5.60
181865325,-6.12,2.12,6.94,-1.75,7.56,-7.31,1.94,1.02,-7.93,4713.44,849.07,0.86,-10000.00,-10000.00,-10000.00,0.00,0.00,0.00,-5.60
181875329,-6.06,2.12,6.88,-2.00,6.69,-6.44,-1.00,3.37,-6.36,4713.44,849.07,0.85,-10000.00,-10000.00,-10000.00,0.00,0.00,0.00,-5.40
181886124,-6.00,2.12,6.81,-2.56,5.75,-6.06,-1.41,2.19,-4.03,4713.44,849.07,0.86,-10000.00,-10000.00,-10000.00,0.00,0.00,0.00,-5.60
181896127,-5.94,2.19,6.75,-3.12,5.88,-5.38,0.25,-0.46,-3.95,4713.44,849.07,0.86,-10000.00,-10000.00,-10000.00,0.00,0.00,0.00,-5.60
181906131,-5.88,2.25,6.69,-4.00,4.38,-4.62,1.13,2.09,-7.15,4713.44,849.07,0.85,-10000.00,-10000.00,-10000.00,0.00,0.00,0.00,-5.40
181916134,-5.88,2.25,6.69,-4.50,2.50,-3.00,-1.67,3.09,-4.22,4713.44,849.07,0.86,-10000.00,-10000.00,-10000.00,0.00,0.00,0.00,-5.60
181929202,-5.88,2.31,6.69,-5.06,1.88,-2.31,-1.25,-0.04,-2.92,4713.44,849.07,0.84,-10000.00,-10000.00,-10000.00,0.00,0.00,0.00,-5.20
181940825,-5.81,2.38,6.69,-6.00,2.06,-1.69,2.60,-0.85,-5.36,4713.44,849.07,0.85,-10000.00,-10000.00,-10000.00,0.00,0.00,0.00,-5.40
181950829,-5.81,2.44,6.62,-6.56,-0.12,-0.81,-1.56,2.30,-4.55,4713.44,849.07,0.85,-10000.00,-10000.00,-10000.00,0.00,0.00,0.00,-5.40
181960832,-5.88,2.50,6.69,-7.00,-1.25,-0.44,2.31,-1.15,-5.89,4713.44,849.07,0.85,-10000.00,-10000.00,-10000.00,0.00,0.00,0.00,-5.40
181971549,-5.88,2.62,6.69,-8.25,-2.25,-0.25,2.14,0.79,-7.88,4713.44,849.07,0.84,-10000.00,-10000.00,-10000.00,0.00,0.00,0.00,-5.20
181981890,-5.88,2.69,6.69,-8.50,-3.75,1.38,-1.37,0.53,-2.76,4713.44,849.07,0.85,-10000.00,-10000.00,-10000.00,0.00,0.00,-0.00,-5.40
181991920,-5.94,2.75,6.69,-8.50,-3.75,1.38,-1.37,0.53,-2.76,4713.44,849.07,0.84,-10000.00,-10000.00,-10000.00,0.00,0.00,-0.00,-5.00
182002371,-6.00,2.88,6.69,-9.12,-3.88,2.06,2.05,0.43,-7.51,4713.44,849.07,0.84,-10000.00,-10000.00,-10000.00,0.00,0.00,-0.00,-5.00
182012373,-6.00,2.94,6.75,-9.75,-7.38,3.50,-0.82,3.16,-7.27,4713.44,849.07,0.83,-10000.00,-10000.00,-10000.00,0.00,0.00,-0.00,-4.80
182026079,-6.19,3.12,6.81,-9.94,-9.06,3.88,1.15,-1.17,-4.12,4713.44,849.07,0.83,-10000.00,-10000.00,-10000.00,0.00,0.00,-0.00,-4.80
182036081,-6.25,3.25,6.88,-10.31,-8.81,4.50,2.41,-0.37,-7.50,4713.44,849.07,0.84,-10000.00,-10000.00,-10000.00,0.00,0.00,-0.00,-5.00
182048472,-6.38,3.31,6.94,-9.81,-10.44,5.19,0.65,2.53,-6.99,4713.44,849.07,0.83,-10000.00,-10000.00,-10000.00,0.00,0.00,-0.00,-4.80
182058475,-6.50,3.44,7.00,-9.75,-11.31,6.12,-1.61,3.02,-5.09,4713.44,849.07,0.85,-10000.00,-10000.00,-10000.00,0.00,0.00,-0.00,-5.20
182072911,-6.62,3.50,7.06,-9.12,-14.31,7.62,1.96,0.66,-7.10,4713.44,849.07,0.83,-10000.00,-10000.00,-10000.00,0.00,0.00,-0.00,-4.80
