Time,sensPitch,sensRoll,sensYaw,xGyro,yGyro,ZGyro,xAcc,yAcc,zAcc,latitude,longitude,altitude
6034,-86.88,177.31,-1.00,-3.94,-0.94,-0.12,0.05,-0.08,0.04,0.00,0.00,0.92
6042,-86.88,177.31,-1.00,-3.88,-0.88,0.00,0.06,-0.07,0.07,0.00,0.00,0.93
6049,-86.88,177.31,-1.00,-3.88,-0.88,0.00,0.06,-0.07,0.07,0.00,0.00,0.94
6061,-86.88,177.31,-1.06,-3.94,-0.94,-0.19,0.06,-0.09,0.05,0.00,0.00,0.94
6071,-86.88,177.31,-1.12,-3.75,-1.00,-0.31,0.11,-0.07,0.05,0.00,0.00,0.93
6083,-86.88,177.31,-1.12,-3.69,-1.00,-0.19,0.12,-0.10,0.05,0.00,0.00,0.93
6091,-86.88,177.31,-1.19,-3.62,-0.94,-0.19,0.14,-0.09,0.06,0.00,0.00,0.92
6101,-86.88,177.31,-1.19,-3.50,-0.75,-0.19,0.14,-0.09,0.06,0.00,0.00,0.92
6111,-86.88,177.31,-1.25,-3.50,-0.88,-0.19,0.16,-0.08,0.05,0.00,0.00,0.93
6125,-86.88,177.31,-1.31,-3.50,-0.81,-0.19,0.18,-0.07,0.05,0.00,0.00,0.93
6132,-86.88,177.31,-1.38,-3.31,-0.25,-0.19,0.17,-0.08,0.07,0.00,0.00,0.93
6140,-86.88,177.31,-1.38,-3.31,-0.25,-0.19,0.17,-0.08,0.07,0.00,0.00,0.92
6147,-86.88,177.31,-1.38,-3.25,-0.25,-0.25,0.21,-0.06,0.07,0.00,0.00,0.92
6282,-86.81,177.38,-1.75,-2.38,1.50,-0.19,0.08,-0.07,0.06,0.00,0.00,0.92
6290,-86.81,177.38,-1.81,-2.44,1.56,-0.31,0.08,-0.07,0.06,0.00,0.00,0.93
6297,-86.81,177.38,-1.81,-2.25,1.69,-0.12,0.04,-0.07,0.04,0.00,0.00,0.93
6304,-86.81,177.38,-1.81,-2.31,1.56,-0.19,0.06,-0.05,0.07,0.00,0.00,0.93
6313,-86.81,177.38,-1.81,-2.19,1.38,-0.19,0.03,-0.09,0.06,0.00,0.00,0.92
6323,-86.81,177.38,-1.88,-2.19,1.38,-0.19,0.01,-0.07,0.07,0.00,0.00,0.92
6333,-86.81,177.38,-1.88,-2.25,1.50,-0.25,0.00,-0.08,0.04,0.00,0.00,0.92
6340,-86.81,177.38,-1.88,-2.19,1.50,-0.31,0.00,-0.08,0.04,0.00,0.00,0.93
6348,-86.75,177.38,-1.94,-2.00,1.44,-0.19,-0.03,-0.08,0.08,0.00,0.00,0.93
6355,-86.75,177.38,-1.94,-2.00,1.06,-0.19,-0.02,-0.09,0.05,0.00,0.00,0.93
6363,-86.75,177.38,-1.94,-1.88,0.69,-0.19,-0.02,-0.06,0.07,0.00,0.00,0.93
6373,-86.75,177.38,-1.94,-1.88,0.69,-0.19,-0.03,-0.07,0.04,0.00,0.00,0.92
6383,-86.75,177.38,-1.94,-1.88,0.75,-0.25,-0.06,-0.08,0.05,0.00,0.00,0.93
6390,-86.75,177.38,-2.00,-1.88,0.44,-0.19,-0.06,-0.08,0.05,0.00,0.00,0.94
6414,-86.75,177.38,-2.00,-1.75,-0.31,-0.06,-0.07,-0.08,0.02,0.00,0.00,0.93
6423,-86.75,177.38,-2.06,-1.75,-0.31,-0.06,-0.05,-0.08,0.04,0.00,0.00,0.93
6433,-86.75,177.38,-2.06,-1.69,-0.44,-0.25,-0.06,-0.07,0.05,0.00,0.00,0.94
6443,-86.75,177.38,-2.06,-1.44,-0.75,-0.06,-0.06,-0.07,0.05,0.00,0.00,0.94
6451,-86.75,177.38,-2.06,-1.31,-0.94,-0.31,-0.08,-0.07,0.05,0.00,0.00,0.94
6462,-86.75,177.38,-2.12,-1.31,-1.06,-0.19,-0.05,-0.08,0.02,0.00,0.00,0.94
6473,-86.81,177.38,-2.12,-1.31,-1.38,-0.19,-0.05,-0.07,0.06,0.00,0.00,0.94
6486,-86.81,177.38,-2.12,-1.25,-1.50,-0.12,-0.04,-0.07,0.03,0.00,0.00,0.95
6494,-86.81,177.38,-2.12,-1.19,-1.69,-0.12,-0.01,-0.05,0.06,0.00,0.00,0.95
6505,-86.81,177.38,-2.12,-1.00,-1.94,-0.19,-0.01,-0.05,0.06,0.00,0.00,0.96
6514,-86.81,177.38,-2.19,-1.06,-2.00,-0.19,0.00,-0.07,0.04,0.00,0.00,0.95
6526,-86.81,177.38,-2.19,-1.00,-2.25,-0.19,0.02,-0.05,0.02,0.00,0.00,0.96
6535,-86.88,177.38,-2.19,-0.69,-2.38,-0.06,0.02,-0.07,0.05,0.00,0.00,0.97
6556,-86.88,177.38,-2.19,-0.56,-2.50,-0.12,0.07,-0.06,0.07,0.00,0.00,0.95
6565,-86.88,177.38,-2.19,-0.50,-2.75,-0.06,0.08,-0.08,0.05,0.00,0.00,0.97
6576,-86.94,177.38,-2.19,-0.50,-2.75,-0.06,0.09,-0.06,0.04,0.00,0.00,0.97
6585,-86.94,177.38,-2.19,-0.50,-2.75,-0.12,0.12,-0.07,0.06,0.00,0.00,0.97
6596,-86.94,177.38,-2.19,-0.50,-2.75,-0.12,0.12,-0.07,0.06,0.00,0.00,0.98
6604,-86.94,177.38,-2.19,-0.44,-2.75,-0.06,0.15,-0.06,0.06,0.00,0.00,0.96
6616,-86.94,177.38,-2.19,-0.31,-2.69,-0.19,0.14,-0.05,0.03,0.00,0.00,0.98
6625,-87.00,177.38,-2.19,-0.12,-2.38,-0.06,0.17,-0.05,0.04,0.00,0.00,0.98
6638,-87.00,177.38,-2.19,-0.12,-2.38,-0.06,0.18,-0.05,0.05,0.00,0.00,1.02
6646,-87.00,177.38,-2.19,-0.06,-2.12,0.00,0.20,-0.04,0.03,0.00,0.00,1.12
6657,-87.00,177.38,-2.19,-0.06,-2.12,0.00,0.20,-0.04,0.03,0.00,0.00,1.44
6666,-87.00,177.38,-2.19,0.12,-1.69,0.00,0.21,-0.05,0.02,0.00,0.00,1.49
6677,-87.00,177.38,-2.19,0.12,-1.69,0.00,0.21,-0.05,0.02,0.00,0.00,1.52
6686,-87.00,177.38,-2.19,0.25,-1.50,-0.12,0.21,-0.04,0.03,0.00,0.00,1.52
6708,-87.06,177.38,-2.19,0.56,-0.88,-0.12,0.20,-0.05,0.00,0.00,0.00,1.52
6717,-87.06,177.38,-2.19,0.50,-0.75,-0.06,0.20,-0.06,0.01,0.00,0.00,1.51
6727,-87.06,177.38,-2.19,0.62,-0.50,0.00,0.18,-0.06,0.03,0.00,0.00,1.51
6736,-87.06,177.38,-2.19,0.69,-0.50,-0.19,0.18,-0.04,0.02,0.00,0.00,1.52
6751,-87.06,177.38,-2.19,0.69,-0.50,-0.19,0.17,-0.04,0.03,0.00,0.00,1.53
6760,-87.06,177.38,-2.19,0.81,-0.12,-0.12,0.15,-0.04,0.01,0.00,0.00,1.51
6768,-87.06,177.38,-2.19,1.06,-0.12,-0.19,0.16,-0.04,0.00,0.00,0.00,1.51
6778,-87.06,177.38,-2.19,1.06,0.19,0.00,0.13,-0.07,0.00,0.00,0.00,1.52
6787,-87.06,177.38,-2.19,1.12,0.25,-0.06,0.12,-0.03,0.02,0.00,0.00,1.51
6796,-87.06,177.38,-2.12,1.12,0.25,-0.06,0.10,-0.05,0.01,0.00,0.00,1.52
6806,-87.06,177.38,-2.12,1.12,0.31,0.06,0.08,-0.03,0.01,0.00,0.00,1.51
6821,-87.06,177.38,-2.12,1.25,0.25,-0.25,0.09,-0.06,0.00,0.00,0.00,1.51
6833,-87.06,177.38,-2.12,1.50,0.38,-0.06,0.07,-0.07,-0.02,0.00,0.00,1.51
6841,-87.06,177.38,-2.06,1.44,0.50,-0.25,0.04,-0.04,0.00,0.00,0.00,1.50
6871,-87.06,177.38,-2.06,1.69,0.38,0.00,0.01,-0.06,-0.01,0.00,0.00,1.51
6882,-87.06,177.38,-2.00,1.88,-0.06,-0.19,0.00,-0.04,-0.04,0.00,0.00,1.51
6890,-87.06,177.38,-2.00,1.81,-0.25,-0.06,-0.01,-0.03,0.00,0.00,0.00,1.52
6900,-87.06,177.38,-2.00,2.06,-0.38,-0.06,-0.03,-0.02,-0.02,0.00,0.00,1.51
6908,-87.06,177.38,-2.00,2.06,-0.50,0.06,-0.02,-0.05,0.00,0.00,0.00,1.52
6918,-87.06,177.38,-1.94,2.00,-0.56,0.00,-0.01,-0.02,-0.04,0.00,0.00,1.49
6927,-87.06,177.38,-1.94,2.00,-0.56,0.00,-0.03,-0.02,-0.04,0.00,0.00,1.50
6939,-87.06,177.38,-1.94,2.12,-0.69,-0.12,-0.01,-0.05,-0.02,0.00,0.00,1.52
6947,-87.06,177.38,-1.88,2.06,-1.00,-0.06,-0.01,-0.05,-0.02,0.00,0.00,1.51
6956,-87.06,177.38,-1.88,2.31,-1.19,0.00,-0.01,-0.03,-0.01,0.00,0.00,1.51
6967,-87.06,177.38,-1.88,2.38,-1.31,0.12,-0.01,-0.04,-0.04,0.00,0.00,1.51
6982,-87.06,177.38,-1.81,2.19,-1.56,-0.06,0.00,-0.05,-0.04,0.00,0.00,1.51
6994,-87.06,177.38,-1.81,2.38,-1.81,0.19,0.00,-0.04,-0.02,0.00,0.00,1.51
7006,-87.12,177.38,-1.75,2.56,-1.94,0.06,0.01,-0.03,-0.05,0.00,0.00,1.51
7029,-87.12,177.38,-1.69,2.62,-2.50,0.19,0.06,-0.05,-0.07,0.00,0.00,1.52
7041,-87.12,177.38,-1.69,2.62,-2.50,0.19,0.08,-0.02,-0.04,0.00,0.00,1.52
7049,-87.12,177.38,-1.69,2.81,-2.44,0.19,0.08,-0.01,-0.04,0.00,0.00,1.51
7057,-87.12,177.38,-1.62,2.81,-2.44,0.19,0.08,-0.01,-0.04,0.00,0.00,1.50
7068,-87.12,177.38,-1.62,2.81,-2.62,0.06,0.07,-0.03,-0.03,0.00,0.00,1.50
7080,-87.19,177.38,-1.56,3.00,-2.62,0.06,0.16,-0.04,-0.03,0.00,0.00,1.50
7089,-87.19,177.31,-1.56,2.94,-2.44,0.12,0.16,-0.03,-0.04,0.00,0.00,1.51
7102,-87.19,177.31,-1.50,2.94,-2.44,0.12,0.16,-0.03,-0.04,0.00,0.00,1.53
7114,-87.19,177.31,-1.44,3.19,-1.94,0.06,0.18,-0.02,-0.04,0.00,0.00,1.50
7126,-87.19,177.31,-1.44,3.19,-1.81,0.12,0.19,-0.03,-0.08,0.00,0.00,1.53
7135,-87.19,177.31,-1.38,3.19,-1.62,0.12,0.19,-0.02,-0.07,0.00,0.00,1.52
7145,-87.19,177.31,-1.38,3.31,-1.56,0.06,0.21,-0.04,-0.06,0.00,0.00,1.51
7153,-87.19,177.31,-1.31,3.31,-1.25,0.12,0.23,-0.02,-0.03,0.00,0.00,1.52
7179,-87.19,177.31,-1.25,3.44,-1.12,0.12,0.21,-0.02,-0.06,0.00,0.00,1.52
7189,-87.19,177.31,-1.25,3.50,-0.88,0.12,0.24,-0.02,-0.03,0.00,0.00,1.54
7200,-87.19,177.31,-1.19,3.69,-0.81,0.12,0.24,-0.02,-0.03,0.00,0.00,1.52
7208,-87.19,177.31,-1.19,3.62,-0.44,0.12,0.23,-0.04,-0.05,0.00,0.00,1.53
7219,-87.19,177.31,-1.12,3.69,-0.44,0.12,0.23,-0.06,-0.05,0.00,0.00,1.52
7229,-87.19,177.31,-1.06,3.69,0.00,0.19,0.23,-0.01,-0.05,0.00,0.00,1.54
7242,-87.19,177.31,-1.06,3.75,0.19,0.25,0.21,-0.04,-0.05,0.00,0.00,1.53
7250,-87.19,177.31,-1.00,3.88,0.56,0.12,0.20,-0.02,-0.04,0.00,0.00,1.54
7262,-87.19,177.31,-1.00,3.88,0.69,0.25,0.20,-0.02,-0.04,0.00,0.00,1.53
7271,-87.19,177.31,-0.94,4.06,1.00,0.19,0.18,-0.01,-0.08,0.00,0.00,1.53
7283,-87.19,177.31,-0.88,4.06,1.00,0.19,0.16,-0.03,-0.06,0.00,0.00,1.51
7291,-87.19,177.31,-0.88,3.94,1.31,0.12,0.15,-0.02,-0.05,0.00,0.00,1.52
7302,-87.19,177.31,-0.81,3.94,1.31,0.12,0.13,-0.06,-0.05,0.00,0.00,1.51
7310,-87.19,177.31,-0.75,4.12,1.69,0.19,0.13,-0.02,-0.06,0.00,0.00,1.51
7333,-87.19,177.31,-0.62,4.19,1.75,0.19,0.09,-0.03,-0.08,0.00,0.00,1.48
7342,-87.19,177.31,-0.62,4.25,1.62,0.06,0.09,-0.02,-0.06,0.00,0.00,1.47
7350,-87.19,177.31,-0.62,4.25,1.62,0.06,0.06,-0.02,-0.06,0.00,0.00,1.48
7358,-87.19,177.31,-0.56,4.19,1.56,0.12,0.06,-0.02,-0.06,0.00,0.00,1.46
7369,-87.19,177.31,-0.50,4.19,1.56,0.19,0.06,-0.04,-0.07,0.00,0.00,1.46
7380,-87.19,177.31,-0.50,4.12,1.56,0.19,0.06,-0.01,-0.06,0.00,0.00,1.46
7393,-87.19,177.31,-0.44,4.38,1.56,0.12,0.00,-0.04,-0.05,0.00,0.00,1.43
7402,-87.12,177.31,-0.38,4.44,1.50,0.19,0.00,-0.02,-0.07,0.00,0.00,1.42
7415,-87.12,177.31,-0.38,4.44,1.50,0.19,0.00,-0.02,-0.07,0.00,0.00,1.41
7423,-87.12,177.31,-0.25,4.50,1.12,0.12,0.00,-0.04,-0.10,0.00,0.00,1.41
7432,-87.12,177.31,-0.25,4.50,1.06,0.19,0.00,-0.03,-0.05,0.00,0.00,1.41
7442,-87.12,177.31,-0.19,4.44,0.88,0.19,0.00,-0.03,-0.06,0.00,0.00,1.40
7453,-87.12,177.31,-0.19,4.44,0.88,0.19,0.00,-0.03,-0.06,0.00,0.00,1.41
7461,-87.12,177.31,-0.12,4.50,0.75,0.19,-0.02,-0.04,-0.09,0.00,0.00,1.42
7487,-87.12,177.31,0.00,4.56,0.31,0.19,0.00,-0.04,-0.10,0.00,0.00,1.43
7495,-87.12,177.31,0.06,4.44,0.12,0.12,0.00,-0.03,-0.05,0.00,0.00,1.42
7505,-87.12,177.31,0.06,4.50,-0.31,0.25,0.01,-0.03,-0.05,0.00,0.00,1.37
7514,-87.12,177.31,0.12,4.62,-0.31,0.31,0.01,-0.04,-0.04,0.00,0.00,1.38
7524,-87.12,177.31,0.12,4.69,-0.19,0.19,0.02,-0.03,-0.08,0.00,0.00,1.38
7533,-87.12,177.31,0.19,4.62,-0.06,0.12,0.05,-0.01,-0.06,0.00,0.00,1.38
7544,-87.12,177.31,0.25,4.81,-0.44,0.12,0.05,-0.04,-0.05,0.00,0.00,1.37
7552,-87.12,177.31,0.31,4.81,-0.44,0.12,0.04,-0.02,-0.03,0.00,0.00,1.36
7564,-87.12,177.31,0.31,4.75,-0.75,0.38,0.04,-0.02,-0.03,0.00,0.00,1.40
7573,-87.12,177.31,0.38,4.75,-0.38,0.19,0.08,-0.04,-0.08,0.00,0.00,1.37
7586,-87.12,177.31,0.44,4.75,-0.38,0.19,0.12,-0.05,-0.06,0.00,0.00,1.32
7594,-87.12,177.31,0.50,4.69,-0.75,0.25,0.12,-0.03,-0.05,0.00,0.00,1.26
7603,-87.12,177.31,0.50,4.69,-0.75,0.25,0.13,-0.01,-0.03,0.00,0.00,1.25
7612,-87.12,177.31,0.56,4.69,-0.56,0.12,0.13,-0.01,-0.03,0.00,0.00,1.19
7635,-87.12,177.31,0.69,4.75,-0.50,0.12,0.16,-0.03,-0.02,0.00,0.00,1.07
7645,-87.12,177.31,0.69,4.88,-0.12,0.06,0.19,-0.01,-0.02,0.00,0.00,1.08
7655,-87.12,177.31,0.75,4.88,-0.12,0.06,0.18,-0.04,-0.02,0.00,0.00,1.01
7663,-87.12,177.31,0.81,4.62,-0.12,0.25,0.20,-0.04,-0.06,0.00,0.00,0.95
7674,-87.12,177.31,0.88,4.81,0.19,0.12,0.20,-0.03,-0.03,0.00,0.00,0.92
7685,-87.12,177.31,0.88,4.69,0.00,0.25,0.19,-0.06,-0.03,0.00,0.00,0.86
7694,-87.12,177.31,0.94,4.69,0.62,0.12,0.21,-0.04,-0.05,0.00,0.00,0.86
7703,-87.12,177.31,1.00,4.69,0.62,0.12,0.21,-0.04,0.00,0.00,0.00,0.80
7711,-87.12,177.31,1.06,4.69,0.75,0.12,0.21,-0.04,0.00,0.00,0.00,0.83
7722,-87.12,177.31,1.06,4.69,0.81,0.12,0.21,-0.03,-0.01,0.00,0.00,0.76
7733,-87.12,177.31,1.12,4.75,1.00,0.12,0.19,-0.04,-0.05,0.00,0.00,0.77
7745,-87.12,177.31,1.19,4.75,1.31,0.06,0.19,-0.04,-0.01,0.00,0.00,0.73
7754,-87.12,177.31,1.25,4.69,1.44,0.12,0.17,-0.02,-0.01,0.00,0.00,0.69
7762,-87.12,177.31,1.25,4.62,1.81,0.06,0.17,-0.02,-0.01,0.00,0.00,0.68
7774,-87.12,177.31,1.31,4.62,1.81,0.06,0.16,-0.02,-0.01,0.00,0.00,0.66
7796,-87.06,177.31,1.44,4.62,2.25,0.12,0.13,-0.04,-0.04,0.00,0.00,0.64
7808,-87.06,177.31,1.44,4.62,2.44,0.06,0.11,-0.03,-0.01,0.00,0.00,0.63
7816,-87.06,177.31,1.56,4.62,2.44,0.06,0.10,-0.04,-0.03,0.00,0.00,0.63
7829,-87.06,177.31,1.56,4.62,2.25,0.19,0.07,-0.04,-0.03,0.00,0.00,0.60
7837,-87.06,177.31,1.62,4.56,2.25,0.00,0.08,-0.03,-0.05,0.00,0.00,0.63
7851,-87.06,177.31,1.69,4.69,2.31,0.12,0.05,-0.03,-0.02,0.00,0.00,0.63
7862,-87.00,177.31,1.75,4.56,2.19,0.12,0.03,-0.02,0.00,0.00,0.00,0.61
7872,-87.00,177.31,1.81,4.50,2.12,0.12,0.01,-0.02,-0.02,0.00,0.00,0.63
7887,-87.00,177.31,1.81,4.62,2.19,0.19,-0.01,-0.02,-0.03,0.00,0.00,0.61
7896,-87.00,177.31,1.88,4.44,1.88,0.06,-0.04,-0.03,0.00,0.00,0.00,0.60
7906,-87.00,177.31,1.94,4.44,1.88,0.06,-0.04,-0.03,0.00,0.00,0.00,0.61
7914,-87.00,177.31,2.00,4.44,1.56,0.06,-0.02,-0.04,0.00,0.00,0.00,0.64
7927,-87.00,177.31,2.00,4.38,1.38,0.12,-0.03,-0.01,0.00,0.00,0.00,0.60
7936,-87.00,177.31,2.06,4.31,1.19,0.12,-0.04,-0.02,-0.02,0.00,0.00,0.61
7961,-86.94,177.25,2.19,4.19,0.62,0.19,-0.06,-0.01,0.00,0.00,0.00,0.64
7970,-86.94,177.25,2.25,4.06,0.38,0.12,-0.06,-0.01,0.00,0.00,0.00,0.68
7981,-86.94,177.25,2.25,4.19,0.31,0.00,-0.05,-0.02,-0.04,0.00,0.00,0.68
7990,-86.94,177.25,2.31,4.12,-0.06,0.12,-0.05,-0.01,-0.02,0.00,0.00,0.66
8000,-86.94,177.25,2.38,3.94,-0.25,0.12,-0.01,0.00,0.00,0.00,0.00,0.71
8008,-86.94,177.25,2.38,4.19,-0.06,0.00,-0.04,-0.02,0.00,0.00,0.00,0.65
8019,-86.94,177.25,2.38,3.88,-0.50,0.06,-0.01,-0.01,0.00,0.00,0.00,0.66
8027,-86.94,177.25,2.50,4.12,-0.56,0.19,-0.03,0.00,-0.02,0.00,0.00,0.66
8037,-86.94,177.25,2.50,3.88,-0.81,0.06,0.01,0.00,0.00,0.00,0.00,0.60
8046,-86.94,177.25,2.50,3.94,-0.81,0.06,0.00,-0.01,-0.01,0.00,0.00,0.62
8056,-87.00,177.25,2.56,3.94,-0.81,0.06,0.00,-0.01,-0.01,0.00,0.00,0.64
8064,-87.00,177.25,2.62,4.00,-1.19,0.06,0.01,0.01,0.00,0.00,0.00,0.60
8078,-87.00,177.25,2.62,3.69,-1.12,0.12,0.03,0.00,0.00,0.00,0.00,0.69
8087,-87.00,177.25,2.69,3.62,-1.31,0.06,0.05,0.00,0.00,0.00,0.00,0.72
8112,-87.00,177.25,2.75,3.62,-1.06,0.00,0.09,0.01,0.00,0.00,0.00,0.90
8121,-87.00,177.25,2.81,3.56,-1.38,0.06,0.10,0.00,-0.01,0.00,0.00,0.93
8132,-87.00,177.25,2.88,3.44,-1.25,0.00,0.13,0.00,-0.01,0.00,0.00,1.00
8140,-87.00,177.25,2.88,3.38,-1.25,0.00,0.13,0.00,-0.01,0.00,0.00,1.03
8152,-87.00,177.25,2.94,3.50,-1.31,0.12,0.13,0.00,-0.02,0.00,0.00,1.08
8160,-87.00,177.25,2.94,3.38,-1.25,0.00,0.14,0.03,0.00,0.00,0.00,1.09
8172,-87.00,177.25,3.00,3.25,-1.00,0.06,0.16,0.00,0.00,0.00,0.00,1.11
8179,-87.06,177.25,3.00,3.25,-0.81,-0.06,0.17,0.01,-0.02,0.00,0.00,1.09
8189,-87.06,177.25,3.00,3.19,-1.00,0.06,0.16,0.01,0.00,0.00,0.00,1.10
8197,-87.06,177.25,3.06,3.06,-0.75,0.00,0.16,0.00,-0.01,0.00,0.00,1.12
8205,-87.06,177.25,3.06,3.06,-0.75,0.00,0.16,0.00,-0.01,0.00,0.00,1.09
8214,-87.06,177.25,3.12,3.06,-0.25,-0.06,0.17,0.02,-0.02,0.00,0.00,1.14
8224,-87.06,177.25,3.12,3.00,-0.38,-0.06,0.18,0.03,0.03,0.00,0.00,1.12
8234,-87.06,177.25,3.19,3.00,-0.31,-0.06,0.19,0.04,-0.01,0.00,0.00,1.10
8259,-87.06,177.25,3.19,2.69,0.06,-0.06,0.20,0.03,-0.01,0.00,0.00,1.09
8267,-87.06,177.25,3.25,2.88,0.12,-0.12,0.18,0.05,0.00,0.00,0.00,1.07
8279,-87.06,177.25,3.25,2.62,0.50,-0.06,0.18,0.04,-0.02,0.00,0.00,1.08
8288,-87.06,177.25,3.31,2.50,0.81,-0.19,0.14,0.06,-0.01,0.00,0.00,1.07
8301,-87.06,177.25,3.31,2.50,0.81,-0.19,0.15,0.06,0.00,0.00,0.00,1.06
8309,-87.00,177.25,3.38,2.25,0.94,0.00,0.13,0.05,0.00,0.00,0.00,1.06
8319,-87.00,177.25,3.38,2.25,0.94,0.00,0.13,0.05,0.00,0.00,0.00,1.06
8328,-87.00,177.25,3.38,2.00,1.12,0.06,0.08,0.08,-0.03,0.00,0.00,1.05
8338,-87.00,177.25,3.44,2.00,1.12,0.06,0.09,0.11,-0.01,0.00,0.00,1.04
8348,-87.00,177.25,3.44,1.69,1.06,0.06,0.01,0.13,-0.01,0.00,0.00,1.06
8361,-87.00,177.25,3.44,1.69,0.94,0.00,0.01,0.13,-0.01,0.00,0.00,1.07
8371,-87.00,177.25,3.44,0.75,0.50,-0.31,0.01,0.43,0.06,0.00,0.00,1.07
8379,-87.00,177.25,3.50,0.00,0.50,-0.56,0.38,0.36,0.10,0.00,0.00,1.07
8388,-87.00,177.25,3.50,-0.56,1.06,-1.50,0.25,0.52,0.10,0.00,0.00,1.08
8398,-87.00,177.25,3.50,-0.56,1.06,-1.50,0.41,0.70,0.17,0.00,0.00,1.08
8423,-86.94,177.19,3.44,-3.81,2.19,-1.12,0.67,0.57,0.13,0.00,0.00,1.07
8431,-86.88,177.19,3.44,-4.81,3.00,-1.44,0.54,0.69,0.15,0.00,0.00,1.09
8443,-86.88,177.19,3.44,-5.81,4.12,-1.75,1.22,0.54,0.08,0.00,0.00,1.00
8451,-86.81,177.12,3.31,-6.50,5.56,-1.44,0.77,0.22,0.01,0.00,0.00,0.89
8465,-86.81,177.12,3.31,-7.19,6.62,-0.25,0.28,0.17,-0.01,0.00,0.00,0.80
8476,-86.81,177.19,3.19,-7.50,6.12,1.00,0.23,0.23,-0.01,0.00,0.00,0.80
8487,-86.75,177.19,3.06,-7.94,6.31,2.38,-0.13,-0.03,-0.05,0.00,0.00,0.81
8500,-86.75,177.25,3.00,-7.81,5.56,3.31,-0.57,-0.14,-0.13,0.00,0.00,0.71
8509,-86.75,177.25,2.88,-7.62,4.69,3.31,-0.76,-0.02,-0.07,0.00,0.00,0.66
8519,-86.81,177.31,2.75,-7.69,3.69,2.69,-0.77,0.07,-0.07,0.00,0.00,0.64
8529,-86.81,177.31,2.69,-7.62,2.69,1.81,-1.19,-0.28,-0.14,0.00,0.00,0.70
8541,-86.81,177.31,2.62,-7.38,1.56,0.69,-1.03,0.00,-0.08,0.00,0.00,0.69
8550,-86.75,177.31,2.56,-7.06,-1.06,-2.62,-0.84,0.13,-0.04,0.00,0.00,0.69
8562,-86.75,177.31,2.50,-7.06,-1.06,-2.62,-0.84,0.13,-0.04,0.00,0.00,0.73
8587,-86.69,177.19,2.38,-7.19,-4.31,-3.50,-0.37,0.15,-0.07,0.00,0.00,0.76
8601,-86.75,177.12,2.31,-7.38,-5.50,-2.25,-0.35,0.16,-0.07,0.00,0.00,0.80
8609,-86.75,177.12,2.25,-7.62,-6.50,-0.75,-0.17,-0.04,-0.08,0.00,0.00,0.77
8618,-86.75,177.12,2.19,-7.69,-7.12,0.56,-0.12,0.06,-0.06,0.00,0.00,0.77
8629,-86.81,177.19,2.06,-7.69,-8.12,1.81,-0.28,0.16,-0.03,0.00,0.00,0.70
8640,-86.88,177.19,2.00,-7.94,-8.75,2.81,-0.18,-0.03,-0.08,0.00,0.00,0.67
8650,-86.94,177.25,1.88,-7.88,-9.38,3.12,-0.34,0.11,-0.05,0.00,0.00,0.69
8659,-87.00,177.25,1.75,-7.88,-9.69,2.25,-0.34,0.11,-0.05,0.00,0.00,0.80
8668,-87.06,177.25,1.69,-7.88,-9.94,0.88,-0.45,0.12,-0.07,0.00,0.00,0.81
8680,-87.12,177.25,1.56,-7.81,-10.06,-0.56,-0.26,-0.03,-0.09,0.00,0.00,0.91
8693,-87.12,177.25,1.50,-7.81,-10.19,-1.62,0.05,0.20,-0.04,0.00,0.00,1.05
8703,-87.12,177.19,1.44,-7.88,-10.06,-3.31,0.28,0.17,-0.02,0.00,0.00,1.09
8715,-87.12,177.19,1.44,-7.88,-10.06,-3.31,0.66,-0.07,-0.05,0.00,0.00,1.19
8740,-87.12,177.12,1.25,-7.69,-8.44,-1.12,0.77,0.21,0.00,0.00,0.00,1.40
8753,-87.12,177.12,1.19,-7.88,-7.50,0.31,0.79,-0.02,-0.06,0.00,0.00,1.48
8761,-87.12,177.12,1.06,-8.12,-6.31,1.38,0.73,0.10,-0.06,0.00,0.00,1.50
8768,-87.19,177.19,0.94,-7.94,-5.62,2.06,0.73,0.10,-0.06,0.00,0.00,1.53
8780,-87.19,177.19,0.88,-7.81,-4.69,2.44,0.75,0.11,-0.03,0.00,0.00,1.53
8790,-87.19,177.25,0.75,-7.94,-3.75,2.19,0.74,0.03,-0.03,0.00,0.00,1.54
8800,-87.25,177.25,0.69,-7.62,-2.38,1.25,0.60,0.08,-0.02,0.00,0.00,1.54
8808,-87.25,177.25,0.62,-7.69,-1.50,0.12,0.63,0.12,-0.06,0.00,0.00,1.54
8815,-87.19,177.25,0.56,-7.75,-0.19,-1.12,0.65,0.01,-0.07,0.00,0.00,1.55
8823,-87.19,177.19,0.50,-7.62,1.06,-1.88,0.63,-0.06,-0.07,0.00,0.00,1.54
8832,-87.19,177.19,0.50,-7.44,1.69,-2.50,0.83,0.18,-0.03,0.00,0.00,1.54
8841,-87.19,177.19,0.44,-7.44,1.69,-2.50,0.88,0.18,-0.01,0.00,0.00,1.53
8851,-87.12,177.12,0.38,-7.38,2.88,-2.50,0.82,-0.01,-0.05,0.00,0.00,1.51
8859,-87.12,177.12,0.31,-7.69,3.94,-2.12,0.82,-0.01,-0.05,0.00,0.00,1.46
8883,-87.12,177.12,0.19,-7.25,6.38,0.75,0.65,0.17,-0.05,0.00,0.00,1.36
8894,-87.12,177.12,0.12,-7.38,7.19,1.50,0.46,0.02,-0.09,0.00,0.00,1.38
8903,-87.12,177.12,0.06,-7.25,7.50,1.62,0.35,-0.09,-0.09,0.00,0.00,1.45
8913,-87.12,177.19,-0.06,-7.25,7.50,1.62,0.35,-0.09,-0.09,0.00,0.00,1.52
8921,-87.12,177.19,-0.12,-7.25,7.81,1.56,0.09,0.10,-0.06,0.00,0.00,1.51
8933,-87.06,177.19,-0.19,-7.25,8.19,1.12,-0.13,-0.03,-0.09,0.00,0.00,1.50
8942,-87.06,177.19,-0.25,-7.12,8.25,-0.88,-0.11,-0.01,-0.10,0.00,0.00,1.51
8957,-87.06,177.19,-0.31,-7.12,8.25,-0.88,-0.26,0.03,-0.08,0.00,0.00,1.51
8965,-86.94,177.12,-0.44,-7.12,7.81,-2.00,-0.23,-0.02,-0.10,0.00,0.00,1.53
8973,-86.88,177.12,-0.44,-7.00,7.44,-2.38,-0.14,0.00,-0.09,0.00,0.00,1.53
8983,-86.88,177.12,-0.44,-6.88,6.88,-2.19,-0.23,0.12,-0.11,0.00,0.00,1.55
8992,-86.88,177.12,-0.50,-6.88,6.88,-2.19,-0.31,0.03,-0.10,0.00,0.00,1.54
9003,-86.81,177.12,-0.56,-7.12,6.06,-1.44,-0.29,-0.06,-0.12,0.00,0.00,1.54
9011,-86.81,177.06,-0.62,-7.12,5.25,-0.69,-0.29,-0.06,-0.12,0.00,0.00,1.55
9034,-86.75,177.12,-0.81,-7.06,2.69,1.19,-0.56,0.00,-0.11,0.00,0.00,1.55
9043,-86.75,177.12,-0.81,-7.06,2.69,1.19,-0.63,-0.09,-0.13,0.00,0.00,1.53
9053,-86.75,177.12,-0.94,-7.00,1.81,1.19,-0.70,-0.05,-0.10,0.00,0.00,1.54
9061,-86.75,177.12,-1.00,-7.00,0.81,0.94,-0.70,-0.05,-0.10,0.00,0.00,1.51
9069,-86.75,177.12,-1.06,-6.81,-0.38,0.38,-0.72,0.03,-0.08,0.00,0.00,1.51
9078,-86.75,177.12,-1.12,-6.88,-1.25,-0.19,-0.66,0.00,-0.10,0.00,0.00,1.47
9087,-86.75,177.12,-1.19,-6.69,-2.31,-1.00,-0.65,-0.06,-0.12,0.00,0.00,1.38
9095,-86.75,177.12,-1.25,-6.75,-3.19,-1.44,-0.62,0.01,-0.12,0.00,0.00,1.04
9104,-86.75,177.12,-1.25,-6.81,-4.19,-1.75,-0.42,0.00,-0.11,0.00,0.00,0.61
9112,-86.75,177.12,-1.31,-6.81,-4.19,-1.75,-0.42,0.00,-0.11,0.00,0.00,0.61
9119,-86.81,177.12,-1.38,-6.69,-5.06,-1.50,-0.35,-0.01,-0.11,0.00,0.00,0.61
9127,-86.81,177.06,-1.44,-6.62,-5.69,-1.25,-0.27,0.01,-0.10,0.00,0.00,0.61
9134,-86.81,177.06,-1.50,-6.62,-6.62,-0.62,-0.19,0.05,-0.12,0.00,0.00,0.62
9143,-86.81,177.06,-1.50,-6.62,-6.62,-0.62,-0.12,-0.06,-0.07,0.00,0.00,0.63
9167,-86.94,177.12,-1.69,-6.75,-8.25,1.19,-0.06,0.03,-0.08,0.00,0.00,0.62
9176,-86.94,177.12,-1.81,-6.62,-8.62,1.06,-0.02,0.05,-0.09,0.00,0.00,0.61
9184,-86.94,177.12,-1.81,-6.56,-8.56,1.00,0.00,-0.07,-0.14,0.00,0.00,0.62
9194,-87.00,177.12,-1.88,-6.56,-8.56,1.00,0.03,-0.06,-0.08,0.00,0.00,0.63
9203,-87.00,177.12,-1.94,-6.44,-8.50,0.56,0.13,0.02,-0.06,0.00,0.00,0.63
9213,-87.06,177.12,-2.00,-6.31,-8.56,-0.06,0.13,0.02,-0.06,0.00,0.00,0.59
9220,-87.06,177.12,-2.06,-6.44,-8.19,-0.50,0.19,0.01,-0.04,0.00,0.00,0.61
9229,-87.06,177.12,-2.12,-6.25,-8.06,-1.00,0.37,-0.07,-0.09,0.00,0.00,0.61
9237,-87.06,177.12,-2.19,-6.12,-7.69,-1.31,0.49,-0.03,-0.08,0.00,0.00,0.61
9245,-87.06,177.12,-2.19,-5.94,-6.81,-1.06,0.58,0.03,-0.07,0.00,0.00,0.60
9254,-87.06,177.12,-2.25,-5.94,-6.81,-1.06,0.66,0.04,-0.05,0.00,0.00,0.60
9261,-87.06,177.06,-2.25,-5.88,-6.12,-0.88,0.66,0.04,-0.05,0.00,0.00,0.58
9268,-87.06,177.06,-2.31,-5.88,-5.31,-0.44,0.79,-0.04,-0.06,0.00,0.00,0.59
9293,-87.06,177.06,-2.44,-5.62,-3.62,0.56,0.81,0.02,-0.08,0.00,0.00,0.60
9304,-87.06,177.12,-2.50,-5.56,-2.56,0.81,0.81,-0.05,-0.07,0.00,0.00,0.61
9311,-87.12,177.12,-2.56,-5.50,-1.56,1.12,0.76,-0.03,-0.06,0.00,0.00,0.60
9319,-87.12,177.12,-2.62,-5.19,-0.50,0.88,0.70,-0.01,-0.02,0.00,0.00,0.61
9326,-87.12,177.12,-2.69,-5.06,0.44,0.62,0.72,0.00,-0.05,0.00,0.00,0.61
9335,-87.12,177.12,-2.69,-5.12,1.50,0.25,0.66,-0.07,-0.06,0.00,0.00,0.60
9344,-87.12,177.12,-2.75,-5.12,1.50,0.25,0.63,-0.03,-0.02,0.00,0.00,0.62
9354,-87.12,177.12,-2.81,-5.00,2.62,-0.44,0.63,0.00,-0.03,0.00,0.00,0.61
9364,-87.12,177.12,-2.81,-4.69,3.69,-0.81,0.63,0.00,-0.03,0.00,0.00,0.62
9371,-87.06,177.12,-2.88,-4.81,4.50,-1.06,0.67,-0.06,-0.03,0.00,0.00,0.62
9379,-87.06,177.12,-2.88,-4.56,5.19,-1.06,0.63,-0.06,-0.06,0.00,0.00,0.60
9386,-87.06,177.06,-2.94,-4.38,6.06,-1.00,0.60,0.00,-0.05,0.00,0.00,0.61
9396,-87.06,177.06,-2.94,-4.38,6.06,-1.00,0.60,0.00,-0.05,0.00,0.00,0.62
9405,-87.06,177.06,-2.94,-4.31,7.56,-0.25,0.53,-0.04,-0.04,0.00,0.00,0.62
9429,-87.00,177.06,-3.06,-3.81,8.38,0.50,0.26,-0.02,-0.07,0.00,0.00,0.60
9437,-86.94,177.06,-3.12,-3.94,8.75,0.62,0.17,-0.04,-0.04,0.00,0.00,0.62
9447,-86.94,177.06,-3.12,-3.94,8.75,0.62,0.06,-0.10,-0.09,0.00,0.00,0.63
9456,-86.94,177.06,-3.12,-3.75,8.88,0.31,-0.10,-0.07,-0.10,0.00,0.00,0.61
9463,-86.94,177.06,-3.19,-3.75,8.88,0.31,-0.10,-0.07,-0.10,0.00,0.00,0.61
9473,-86.88,177.06,-3.19,-3.69,8.75,-0.12,-0.15,-0.06,-0.09,0.00,0.00,0.60
9484,-86.88,177.06,-3.25,-3.62,8.69,-0.44,-0.21,-0.07,-0.05,0.00,0.00,0.60
9496,-86.81,177.06,-3.25,-3.56,8.25,-0.75,-0.24,-0.08,-0.09,0.00,0.00,0.59
9506,-86.75,177.06,-3.31,-3.38,7.69,-1.00,-0.33,-0.10,-0.06,0.00,0.00,0.57
9515,-86.75,177.06,-3.31,-3.44,7.25,-1.12,-0.33,-0.10,-0.06,0.00,0.00,0.60
9523,-86.69,177.06,-3.31,-3.31,6.19,-0.94,-0.35,-0.10,-0.07,0.00,0.00,0.59
9532,-86.69,177.06,-3.38,-3.19,5.75,-0.62,-0.34,-0.09,-0.06,0.00,0.00,0.56
9541,-86.62,177.06,-3.38,-2.94,4.94,-0.44,-0.44,-0.06,-0.10,0.00,0.00,0.58
9550,-86.62,177.06,-3.38,-3.06,4.19,0.00,-0.49,-0.11,-0.11,0.00,0.00,0.59
9572,-86.56,177.06,-3.44,-2.88,2.12,0.50,-0.52,-0.11,-0.04,0.00,0.00,0.58
9580,-86.56,177.06,-3.50,-2.75,1.25,0.62,-0.57,-0.07,-0.06,0.00,0.00,0.58
9588,-86.56,177.06,-3.50,-2.75,0.38,0.38,-0.59,-0.10,-0.06,0.00,0.00,0.57
9599,-86.56,177.06,-3.50,-2.75,0.38,0.38,-0.61,-0.14,-0.08,0.00,0.00,0.60
9608,-86.62,177.06,-3.56,-2.50,-1.44,-0.06,-0.56,-0.08,-0.06,0.00,0.00,0.58
9617,-86.62,177.06,-3.56,-2.50,-1.44,-0.06,-0.56,-0.08,-0.06,0.00,0.00,0.62
9625,-86.62,177.06,-3.62,-2.44,-2.62,-0.31,-0.51,-0.07,-0.08,0.00,0.00,0.59
9634,-86.62,177.06,-3.62,-2.38,-3.50,-0.44,-0.43,-0.13,-0.03,0.00,0.00,0.60
9643,-86.62,177.06,-3.62,-2.12,-4.06,-0.75,-0.37,-0.12,-0.07,0.00,0.00,0.60
9651,-86.69,177.06,-3.69,-2.12,-4.69,-0.56,-0.26,-0.10,-0.02,0.00,0.00,0.58
9658,-86.69,177.06,-3.69,-2.00,-5.50,-0.31,-0.20,-0.10,-0.04,0.00,0.00,0.59
9665,-86.69,177.06,-3.69,-2.00,-5.50,-0.31,-0.20,-0.10,-0.04,0.00,0.00,0.59
9673,-86.75,177.06,-3.69,-2.00,-5.94,-0.06,-0.14,-0.11,-0.01,0.00,0.00,0.58
9697,-86.75,177.06,-3.75,-1.62,-6.75,0.44,0.03,-0.12,-0.03,0.00,0.00,0.58
9707,-86.81,177.06,-3.75,-1.81,-7.19,0.62,0.09,-0.13,-0.03,0.00,0.00,0.59
9716,-86.81,177.06,-3.81,-1.56,-7.06,0.69,0.09,-0.13,-0.03,0.00,0.00,0.60
9723,-86.88,177.06,-3.81,-1.62,-7.00,0.62,0.14,-0.07,-0.01,0.00,0.00,0.58
9733,-86.88,177.06,-3.88,-1.44,-7.19,0.50,0.23,-0.11,-0.03,0.00,0.00,0.58
9740,-86.94,177.06,-3.88,-1.25,-6.88,0.19,0.31,-0.14,-0.04,0.00,0.00,0.58
9748,-86.94,177.06,-3.88,-1.06,-6.19,-0.06,0.36,-0.11,-0.02,0.00,0.00,0.59
9759,-86.94,177.06,-3.88,-1.06,-6.19,-0.06,0.43,-0.07,0.00,0.00,0.00,0.59
9766,-86.94,177.06,-3.88,-1.12,-5.88,-0.19,0.43,-0.07,0.00,0.00,0.00,0.59
9774,-86.94,177.06,-3.88,-1.06,-5.06,-0.38,0.56,-0.09,-0.01,0.00,0.00,0.59
9783,-87.00,177.06,-3.94,-0.81,-4.38,-0.44,0.60,-0.10,0.01,0.00,0.00,0.58
9793,-87.00,177.06,-3.94,-0.75,-3.75,-0.31,0.67,-0.11,-0.01,0.00,0.00,0.57
9801,-87.00,177.06,-3.94,-0.50,-2.81,-0.19,0.69,-0.08,-0.03,0.00,0.00,0.58
9810,-87.00,177.06,-3.94,-0.44,-2.06,0.06,0.73,-0.06,0.00,0.00,0.00,0.58
9832,-87.00,177.06,-3.94,0.00,-0.31,0.31,0.72,-0.09,0.00,0.00,0.00,0.58
9840,-87.00,177.06,-3.94,0.00,0.62,0.50,0.71,-0.09,-0.01,0.00,0.00,0.58
9849,-87.00,177.06,-3.94,0.19,1.56,0.44,0.66,-0.09,0.00,0.00,0.00,0.57
9863,-87.00,177.06,-3.94,0.19,1.56,0.44,0.64,-0.07,0.01,0.00,0.00,0.59
9870,-87.00,177.06,-3.94,0.38,3.44,0.00,0.59,-0.06,0.00,0.00,0.00,0.58
9881,-87.00,177.06,-3.94,0.38,3.44,0.00,0.58,-0.07,-0.01,0.00,0.00,0.58
9889,-87.00,177.06,-3.94,0.62,4.88,-0.44,0.53,-0.09,-0.02,0.00,0.00,0.58
9901,-86.94,177.06,-3.94,0.62,4.88,-0.44,0.51,-0.06,0.01,0.00,0.00,0.58
9909,-86.94,177.06,-3.88,1.00,6.38,-0.50,0.47,-0.07,0.00,0.00,0.00,0.59
9917,-86.94,177.06,-3.88,1.00,6.38,-0.50,0.47,-0.07,0.00,0.00,0.00,0.58
9925,-86.88,177.06,-3.88,1.12,7.25,-0.50,0.38,-0.10,0.00,0.00,0.00,0.59
9933,-86.88,177.06,-3.88,1.38,7.31,-0.38,0.33,-0.10,-0.03,0.00,0.00,0.59
9940,-86.88,177.06,-3.81,1.50,7.81,-0.19,0.25,-0.06,0.00,0.00,0.00,0.59
9949,-86.88,177.06,-3.81,1.50,7.81,-0.19,0.20,-0.08,-0.01,0.00,0.00,0.61
9971,-86.75,177.06,-3.75,1.62,8.25,0.19,-0.02,-0.10,0.00,0.00,0.00,0.61
9978,-86.75,177.06,-3.75,1.62,8.25,0.19,-0.08,-0.08,-0.03,0.00,0.00,0.61
9989,-86.69,177.06,-3.75,1.62,8.06,0.31,-0.08,-0.08,-0.03,0.00,0.00,0.60
9999,-86.69,177.06,-3.75,1.75,7.81,0.06,-0.27,-0.08,-0.04,0.00,0.00,0.61
10009,-86.62,177.06,-3.69,2.00,7.50,0.00,-0.27,-0.08,-0.04,0.00,0.00,0.60
10017,-86.62,177.06,-3.69,2.06,6.88,-0.19,-0.34,-0.09,-0.02,0.00,0.00,0.61
10026,-86.56,177.06,-3.69,2.19,6.38,-0.38,-0.35,-0.10,0.00,0.00,0.00,0.61
10035,-86.56,177.06,-3.62,2.31,5.81,-0.44,-0.39,-0.11,0.00,0.00,0.00,0.61
10045,-86.50,177.06,-3.62,2.50,5.12,-0.38,-0.44,-0.07,-0.02,0.00,0.00,0.61
10052,-86.50,177.06,-3.56,2.44,4.38,-0.38,-0.43,-0.06,-0.04,0.00,0.00,0.60
10061,-86.50,177.06,-3.56,2.56,3.50,-0.31,-0.48,-0.09,-0.02,0.00,0.00,0.60
10068,-86.50,177.06,-3.56,2.56,3.50,-0.31,-0.48,-0.09,-0.02,0.00,0.00,0.61
10079,-86.50,177.06,-3.50,2.75,2.62,-0.06,-0.51,-0.09,-0.01,0.00,0.00,0.59
10101,-86.44,177.06,-3.44,2.94,0.00,0.31,-0.54,-0.09,-0.02,0.00,0.00,0.57
10112,-86.44,177.06,-3.44,2.94,0.00,0.31,-0.54,-0.08,-0.04,0.00,0.00,0.57
10120,-86.44,177.06,-3.44,3.12,-1.19,0.38,-0.52,-0.07,-0.01,0.00,0.00,0.58
10127,-86.50,177.06,-3.38,2.94,-2.06,0.44,-0.52,-0.07,-0.01,0.00,0.00,0.61
10139,-86.50,177.06,-3.38,3.00,-2.75,0.31,-0.49,-0.08,0.00,0.00,0.00,0.60
10152,-86.50,177.06,-3.31,3.31,-3.56,0.06,-0.47,-0.07,-0.03,0.00,0.00,0.61
10161,-86.50,177.06,-3.31,3.44,-5.31,0.00,-0.32,-0.05,-0.01,0.00,0.00,0.62
10170,-86.56,177.06,-3.25,3.44,-5.31,0.00,-0.32,-0.05,-0.01,0.00,0.00,0.63
10177,-86.56,177.06,-3.25,3.38,-5.94,-0.06,-0.25,-0.03,0.01,0.00,0.00,0.62
10185,-86.62,177.06,-3.19,3.50,-6.38,-0.12,-0.19,-0.05,0.00,0.00,0.00,0.61
10192,-86.62,177.06,-3.19,3.56,-6.75,-0.12,-0.14,-0.05,-0.02,0.00,0.00,0.63
10201,-86.62,177.06,-3.19,3.56,-6.75,-0.12,-0.02,-0.04,0.00,0.00,0.00,0.63
10211,-86.69,177.06,-3.12,3.75,-7.00,0.00,0.03,-0.04,0.00,0.00,0.00,0.62
10218,-86.69,177.06,-3.06,3.88,-7.56,0.12,0.03,-0.04,0.00,0.00,0.00,0.61
10243,-86.75,177.06,-3.00,4.00,-7.69,0.44,0.24,-0.01,-0.02,0.00,0.00,0.65
10252,-86.81,177.06,-3.00,4.00,-7.25,0.25,0.30,-0.02,-0.01,0.00,0.00,0.65
10263,-86.81,177.06,-2.94,4.00,-7.25,0.25,0.31,0.00,0.00,0.00,0.00,0.67
10271,-86.88,177.06,-2.94,4.38,-7.06,0.25,0.42,-0.02,0.00,0.00,0.00,0.68
10278,-86.88,177.06,-2.88,4.31,-6.81,0.19,0.42,-0.02,0.00,0.00,0.00,0.67
10289,-86.88,177.06,-2.81,4.31,-6.06,-0.06,0.47,-0.02,-0.01,0.00,0.00,0.66
10299,-86.94,177.06,-2.81,4.31,-5.56,0.00,0.51,-0.01,-0.01,0.00,0.00,0.66
10314,-86.94,177.06,-2.75,4.69,-4.88,-0.19,0.55,-0.01,-0.01,0.00,0.00,0.65
10321,-86.94,177.06,-2.69,4.75,-4.31,-0.19,0.64,0.01,0.04,0.00,0.00,0.63
10333,-86.94,177.06,-2.62,4.69,-3.56,0.00,0.64,0.01,0.04,0.00,0.00,0.62
10342,-86.94,177.06,-2.62,5.00,-2.69,-0.12,0.69,-0.01,-0.02,0.00,0.00,0.61
10355,-86.94,177.06,-2.56,5.12,-2.06,-0.06,0.66,0.00,0.00,0.00,0.00,0.62
10363,-86.94,177.06,-2.50,5.38,0.12,0.25,0.63,0.02,0.01,0.00,0.00,0.62
10372,-86.94,177.06,-2.44,5.38,0.12,0.25,0.63,0.02,0.01,0.00,0.00,0.60
10394,-86.94,177.06,-2.31,5.50,2.00,0.19,0.53,0.02,-0.04,0.00,0.00,0.62
10402,-86.94,177.06,-2.31,5.69,2.88,0.00,0.52,0.02,-0.01,0.00,0.00,0.63
10412,-86.94,177.06,-2.25,5.69,2.88,0.00,0.49,0.02,-0.04,0.00,0.00,0.63
10423,-86.94,177.06,-2.19,5.69,3.69,-0.12,0.49,0.02,-0.04,0.00,0.00,0.61
10431,-86.94,177.06,-2.12,5.69,4.38,-0.12,0.43,0.00,0.01,0.00,0.00,0.60
10444,-86.94,177.06,-2.06,5.94,5.00,-0.31,0.36,0.00,-0.06,0.00,0.00,0.60
10453,-86.88,177.06,-2.00,6.12,6.00,-0.06,0.27,0.02,-0.03,0.00,0.00,0.60
10466,-86.88,177.06,-1.94,6.12,6.00,-0.06,0.21,0.01,-0.02,0.00,0.00,0.61
10473,-86.88,177.06,-1.88,6.19,6.00,-0.06,0.08,0.02,-0.03,0.00,0.00,0.60
10484,-86.88,177.06,-1.81,6.31,6.06,-0.12,0.08,0.02,-0.03,0.00,0.00,0.62
10493,-86.81,177.06,-1.75,6.31,6.06,0.06,-0.03,0.03,-0.05,0.00,0.00,0.60
10504,-86.81,177.06,-1.69,6.44,6.12,0.12,-0.09,0.04,-0.05,0.00,0.00,0.62
10513,-86.75,177.06,-1.62,6.44,5.81,0.12,-0.20,0.00,-0.05,0.00,0.00,0.63
10536,-86.69,177.06,-1.38,6.31,4.75,0.06,-0.29,0.03,-0.06,0.00,0.00,0.61
10544,-86.69,177.06,-1.38,6.56,4.00,0.12,-0.36,0.04,-0.07,0.00,0.00,0.63
10556,-86.69,177.00,-1.31,6.56,4.00,0.12,-0.41,0.04,-0.06,0.00,0.00,0.63
10564,-86.69,177.00,-1.25,6.62,2.75,0.19,-0.43,0.04,-0.05,0.00,0.00,0.64
10574,-86.69,177.00,-1.19,6.62,2.75,0.19,-0.43,0.04,-0.05,0.00,0.00,0.63
10582,-86.69,177.00,-1.12,6.62,2.00,-0.06,-0.44,0.03,-0.07,0.00,0.00,0.63
10594,-86.69,177.00,-1.06,6.81,1.31,0.06,-0.47,0.04,-0.08,0.00,0.00,0.63
10603,-86.69,177.00,-1.00,6.62,0.31,0.06,-0.48,0.03,-0.08,0.00,0.00,0.61
10614,-86.69,177.00,-0.94,6.75,-0.56,0.25,-0.46,0.04,-0.07,0.00,0.00,0.61
10622,-86.69,177.00,-0.88,6.88,-1.12,0.31,-0.46,0.04,-0.07,0.00,0.00,0.62
10629,-86.69,177.00,-0.81,6.75,-2.12,0.31,-0.46,0.02,-0.06,0.00,0.00,0.61
10637,-86.69,177.00,-0.75,6.81,-3.00,0.56,-0.43,0.04,-0.08,0.00,0.00,0.61
10645,-86.69,177.00,-0.75,6.81,-3.81,0.38,-0.42,0.04,-0.08,0.00,0.00,0.60
10654,-86.69,177.00,-0.69,6.81,-3.81,0.38,-0.41,0.06,-0.10,0.00,0.00,0.60
10676,-86.75,177.00,-0.44,6.81,-6.00,0.25,-0.28,0.04,-0.09,0.00,0.00,0.60
10684,-86.75,177.00,-0.44,6.81,-6.00,0.25,-0.23,0.06,-0.07,0.00,0.00,0.61
10693,-86.81,177.00,-0.38,7.00,-6.44,0.25,-0.20,0.06,-0.13,0.00,0.00,0.62
10704,-86.81,177.00,-0.31,7.00,-7.31,0.31,-0.20,0.06,-0.13,0.00,0.00,0.62
10714,-86.81,177.00,-0.25,6.75,-7.56,0.19,-0.07,0.04,-0.09,0.00,0.00,0.63
10721,-86.88,177.00,-0.19,7.00,-7.88,0.25,-0.02,0.05,-0.10,0.00,0.00,0.62
10729,-86.88,177.00,-0.12,7.00,-7.94,0.25,0.03,0.06,-0.09,0.00,0.00,0.61
10736,-86.88,177.00,-0.06,6.75,-8.19,0.25,0.09,0.07,-0.08,0.00,0.00,0.62
10745,-86.88,177.00,-0.06,7.00,-8.12,0.38,0.19,0.07,-0.11,0.00,0.00,0.61
10755,-86.94,177.00,0.00,7.00,-8.12,0.38,0.25,0.04,-0.09,0.00,0.00,0.62
10765,-86.94,177.00,0.06,6.81,-8.25,0.44,0.28,0.08,-0.10,0.00,0.00,0.63
10772,-86.94,177.00,0.12,7.06,-8.00,0.44,0.28,0.08,-0.10,0.00,0.00,0.62
10782,-86.94,177.00,0.19,7.06,-7.50,0.38,0.34,0.07,-0.11,0.00,0.00,0.63
10793,-87.00,177.00,0.25,7.19,-7.25,0.31,0.42,0.08,-0.07,0.00,0.00,0.63
10817,-87.00,177.00,0.38,7.25,-5.31,0.25,0.56,0.07,-0.12,0.00,0.00,0.64
10825,-87.00,177.00,0.44,7.25,-5.31,0.25,0.59,0.08,-0.11,0.00,0.00,0.64
10833,-87.00,177.00,0.50,7.31,-4.69,0.06,0.59,0.08,-0.11,0.00,0.00,0.64
10840,-87.00,177.00,0.56,7.38,-3.69,0.19,0.63,0.06,-0.11,0.00,0.00,0.66
10848,-87.00,177.00,0.62,7.31,-2.94,0.00,0.65,0.08,-0.13,0.00,0.00,0.66
10856,-87.00,177.00,0.62,7.38,-2.12,-0.06,0.70,0.09,-0.10,0.00,0.00,0.67
10866,-87.00,177.00,0.75,7.38,-2.12,-0.06,0.68,0.10,-0.11,0.00,0.00,0.67
10874,-87.00,177.00,0.81,7.25,-1.44,0.25,0.68,0.10,-0.11,0.00,0.00,0.66
10881,-87.00,177.00,0.88,7.25,-0.56,0.31,0.67,0.08,-0.10,0.00,0.00,0.68
10889,-87.00,177.00,0.94,7.38,0.38,0.31,0.65,0.07,-0.10,0.00,0.00,0.66
10897,-87.00,177.00,0.94,7.31,1.25,0.31,0.61,0.08,-0.14,0.00,0.00,0.66
10906,-87.00,177.00,1.00,7.31,1.25,0.31,0.59,0.10,-0.15,0.00,0.00,0.66
10916,-87.00,177.00,1.06,7.50,1.88,0.38,0.53,0.08,-0.12,0.00,0.00,0.67
10923,-87.00,177.00,1.12,7.31,2.56,0.25,0.53,0.08,-0.12,0.00,0.00,0.70
10958,-87.00,177.00,1.38,7.38,5.31,0.12,0.32,0.08,-0.13,0.00,0.00,0.80
10969,-87.00,177.00,1.44,7.44,5.38,0.31,0.27,0.08,-0.12,0.00,0.00,0.81
10978,-87.00,177.00,1.50,7.31,5.75,0.12,0.18,0.07,-0.13,0.00,0.00,0.76
10986,-87.00,177.00,1.62,7.31,5.75,0.12,0.18,0.07,-0.13,0.00,0.00,0.73
10998,-87.00,177.00,1.69,7.44,6.12,0.06,0.05,0.06,-0.15,0.00,0.00,0.74
11008,-86.94,177.00,1.75,7.44,6.12,0.31,0.01,0.08,-0.14,0.00,0.00,0.69
11019,-86.94,177.00,1.81,7.44,6.12,0.31,-0.07,0.06,-0.17,0.00,0.00,0.63
11027,-86.94,177.00,1.88,7.31,6.12,0.38,-0.07,0.06,-0.17,0.00,0.00,0.62
11035,-86.94,177.00,2.00,7.25,5.69,0.38,-0.14,0.05,-0.12,0.00,0.00,0.61
11049,-86.94,177.00,2.06,7.38,5.44,0.38,-0.19,0.06,-0.15,0.00,0.00,0.57
11058,-86.94,177.00,2.12,7.25,4.69,0.44,-0.30,0.05,-0.18,0.00,0.00,0.56
11071,-86.88,177.00,2.19,7.25,4.69,0.44,-0.34,0.06,-0.18,0.00,0.00,0.57
11079,-86.88,177.00,2.25,7.06,3.62,0.38,-0.35,0.07,-0.17,0.00,0.00,0.61
11089,-86.88,177.00,2.31,7.06,3.62,0.38,-0.35,0.07,-0.17,0.00,0.00,0.65
11115,-86.88,177.00,2.56,7.00,1.31,0.19,-0.43,0.06,-0.16,0.00,0.00,0.60
11125,-86.88,177.00,2.62,6.88,0.62,0.12,-0.42,0.04,-0.17,0.00,0.00,0.65
11134,-86.88,177.00,2.69,6.81,-0.19,0.38,-0.43,0.05,-0.16,0.00,0.00,0.68
11144,-86.88,177.00,2.75,6.75,-0.88,0.31,-0.41,0.06,-0.17,0.00,0.00,0.86
11153,-86.88,177.00,2.81,6.50,-1.75,0.31,-0.40,0.05,-0.17,0.00,0.00,0.95
11163,-86.88,177.00,2.88,6.50,-2.38,0.38,-0.39,0.03,-0.18,0.00,0.00,1.08
11170,-86.88,177.00,2.94,6.62,-3.06,0.44,-0.31,0.03,-0.17,0.00,0.00,1.12
11180,-86.88,177.00,2.94,6.62,-3.06,0.44,-0.28,0.04,-0.14,0.00,0.00,1.13
11188,-86.88,177.00,3.00,6.31,-3.75,0.38,-0.25,0.08,-0.16,0.00,0.00,1.14
11198,-86.94,177.00,3.06,6.25,-4.56,0.38,-0.20,0.04,-0.20,0.00,0.00,1.12
11208,-86.94,177.00,3.12,6.38,-5.06,0.38,-0.10,0.06,-0.18,0.00,0.00,1.11
11218,-86.94,177.00,3.19,6.25,-5.38,0.31,-0.07,0.05,-0.16,0.00,0.00,1.07
11226,-86.94,177.00,3.25,6.19,-5.69,0.12,-0.07,0.05,-0.16,0.00,0.00,1.08
11235,-86.94,177.00,3.31,5.94,-6.19,0.19,-0.01,0.06,-0.16,0.00,0.00,1.06
11259,-86.94,177.00,3.38,5.94,-6.19,0.12,0.21,0.06,-0.15,0.00,0.00,1.04
11271,-86.94,177.00,3.44,5.81,-6.25,0.12,0.25,0.06,-0.15,0.00,0.00,1.04
11279,-87.00,177.00,3.50,5.94,-5.88,0.06,0.29,0.06,-0.15,0.00,0.00,1.05
11291,-87.00,177.00,3.56,5.94,-5.88,0.06,0.29,0.06,-0.15,0.00,0.00,1.04
11300,-87.00,177.00,3.62,5.56,-5.19,0.25,0.44,0.05,-0.17,0.00,0.00,1.06
11309,-87.00,177.00,3.69,5.56,-5.19,0.25,0.45,0.05,-0.15,0.00,0.00,1.04
11319,-87.00,2.94,3.75,5.62,-4.81,0.12,0.50,0.06,-0.17,0.00,0.00,1.05
11330,-87.00,2.94,3.75,5.50,-4.25,0.12,0.50,0.06,-0.17,0.00,0.00,1.03
11338,-87.00,2.94,3.81,5.50,-3.56,0.12,0.56,0.06,-0.15,0.00,0.00,1.07
11351,-87.00,2.94,3.88,5.50,-2.94,0.19,0.58,0.07,-0.15,0.00,0.00,1.05
11360,-87.00,2.94,3.94,5.50,-1.31,0.06,0.62,0.07,-0.16,0.00,0.00,1.04
11370,-87.00,2.94,4.00,5.50,-1.31,0.06,0.62,0.07,-0.09,0.00,0.00,1.06
11378,-86.94,2.94,4.06,5.31,-0.69,0.00,0.62,0.07,-0.09,0.00,0.00,1.05
11388,-86.94,2.94,4.06,5.12,0.12,0.06,0.64,0.08,-0.15,0.00,0.00,1.04
11412,-87.00,2.94,4.25,5.12,2.50,0.06,0.57,0.07,-0.12,0.00,0.00,1.05
11424,-87.00,2.94,4.25,5.00,3.56,0.25,0.55,0.07,-0.12,0.00,0.00,1.04
11432,-87.00,2.94,4.31,4.81,3.81,0.19,0.51,0.07,-0.14,0.00,0.00,1.06
11440,-87.00,2.94,4.31,4.81,3.81,0.19,0.47,0.06,-0.12,0.00,0.00,1.06
11452,-87.00,2.94,4.38,4.81,4.56,0.12,0.39,0.07,-0.18,0.00,0.00,1.06
11461,-87.00,2.94,4.44,4.62,5.88,0.25,0.33,0.07,-0.15,0.00,0.00,1.07
11475,-87.00,177.00,4.50,4.62,5.88,0.25,0.29,0.06,-0.16,0.00,0.00,1.01
11483,-87.00,177.00,4.56,4.69,6.44,0.00,0.19,0.05,-0.15,0.00,0.00,1.03
11495,-86.94,177.00,4.62,4.56,7.00,0.12,0.16,0.07,-0.19,0.00,0.00,1.07
11503,-86.94,177.00,4.69,4.38,7.19,0.12,0.09,0.05,-0.16,0.00,0.00,1.06
11514,-86.94,177.00,4.69,4.25,7.25,0.12,0.06,0.05,-0.17,0.00,0.00,1.07
11522,-86.94,177.00,4.75,4.19,7.12,0.06,-0.03,0.04,-0.16,0.00,0.00,1.04
11533,-86.94,177.00,4.75,4.19,7.12,0.06,-0.09,0.05,-0.16,0.00,0.00,1.06
11541,-86.94,177.00,4.81,3.81,6.69,0.12,-0.16,0.05,-0.17,0.00,0.00,1.06
11552,-86.94,177.00,4.88,3.81,6.69,0.12,-0.19,0.04,-0.14,0.00,0.00,1.06
11575,-86.88,177.00,5.00,3.69,5.50,0.19,-0.31,0.04,-0.14,0.00,0.00,1.06
11584,-86.88,177.00,5.00,3.62,5.12,0.12,-0.34,0.06,-0.13,0.00,0.00,1.04
11592,-86.88,177.00,5.00,3.44,4.44,0.00,-0.35,0.07,-0.14,0.00,0.00,1.05
11602,-86.88,177.00,5.06,3.50,3.94,0.06,-0.40,0.06,-0.17,0.00,0.00,1.06
11611,-86.88,177.00,5.06,3.50,3.94,0.06,-0.43,0.04,-0.17,0.00,0.00,1.06
11621,-86.88,177.00,5.12,3.19,2.88,0.06,-0.43,0.05,-0.16,0.00,0.00,1.04
11630,-86.81,177.00,5.12,3.12,2.31,-0.06,-0.43,0.05,-0.16,0.00,0.00,1.06
11638,-86.81,177.00,5.19,2.94,1.50,0.06,-0.44,0.04,-0.14,0.00,0.00,1.05
11648,-86.81,177.00,5.19,2.81,0.75,-0.12,-0.42,0.06,-0.15,0.00,0.00,1.04
11658,-86.81,177.00,5.25,2.75,0.00,0.00,-0.41,0.07,-0.17,0.00,0.00,1.07
11668,-86.81,177.00,5.25,2.62,-0.69,0.00,-0.39,0.04,-0.14,0.00,0.00,1.05
11676,-86.81,177.00,5.31,2.50,-1.44,0.00,-0.38,0.04,-0.15,0.00,0.00,1.04
11684,-86.88,176.94,5.31,2.12,-2.25,-0.19,-0.31,0.03,-0.15,0.00,0.00,1.06
11692,-86.88,176.94,5.31,2.31,-2.94,-0.06,-0.29,0.07,-0.14,0.00,0.00,1.04
11716,-86.88,176.94,5.38,2.06,-4.12,0.06,-0.20,0.05,-0.14,0.00,0.00,1.04
11724,-86.88,176.94,5.38,2.00,-4.50,-0.12,-0.13,0.06,-0.12,0.00,0.00,1.07
11732,-86.88,176.94,5.38,2.00,-4.50,-0.12,-0.10,0.07,-0.11,0.00,0.00,1.06
11741,-86.88,176.94,5.38,1.69,-4.81,0.06,-0.10,0.07,-0.11,0.00,0.00,1.06
11751,-86.88,176.94,5.44,1.62,-5.25,0.00,-0.03,0.06,-0.11,0.00,0.00,1.04
11761,-86.94,176.94,5.44,1.69,-5.38,-0.12,0.00,0.05,-0.12,0.00,0.00,1.03
11772,-86.94,176.94,5.44,1.50,-5.38,-0.31,0.19,0.14,-0.09,0.00,0.00,1.04
11780,-86.94,176.94,5.44,1.50,-5.44,-0.06,0.19,0.14,-0.09,0.00,0.00,1.04
11788,-86.94,176.94,5.44,1.25,-5.69,-0.12,0.28,0.29,-0.03,0.00,0.00,1.06
11800,-86.94,176.94,5.44,0.88,-5.31,0.12,0.43,0.35,-0.03,0.00,0.00,1.04
11811,-86.94,176.94,5.44,0.44,-5.00,0.12,0.58,0.39,0.00,0.00,0.00,1.06
11824,-86.94,176.94,5.44,-0.12,-4.31,0.25,0.67,0.43,0.00,0.00,0.00,1.04
11832,-86.94,176.94,5.44,-0.75,-3.25,0.06,0.63,0.42,0.00,0.00,0.00,1.04
11855,-86.94,176.94,5.38,-2.75,-0.69,-0.31,0.47,0.48,0.01,0.00,0.00,1.06
11864,-86.94,176.94,5.38,-3.38,-0.12,-0.25,0.33,0.43,0.00,0.00,0.00,1.01
11873,-87.00,177.00,5.31,-3.38,-0.12,-0.25,0.30,0.21,-0.05,0.00,0.00,1.05
11883,-87.00,177.00,5.25,-4.12,0.19,0.12,0.30,0.21,-0.05,0.00,0.00,1.04
11891,-87.00,177.00,5.25,-4.75,0.38,0.19,0.30,0.20,-0.05,0.00,0.00,1.04
11904,-87.00,177.00,5.19,-5.12,1.00,0.31,0.25,0.25,-0.04,0.00,0.00,1.05
11913,-87.00,177.00,5.12,-5.38,1.50,-0.25,0.28,0.19,-0.04,0.00,0.00,1.04
11923,-87.00,177.00,5.06,-5.56,1.69,-0.62,0.28,0.18,-0.07,0.00,0.00,1.04
11931,-87.00,177.00,5.00,-5.94,2.12,-0.94,0.28,0.18,-0.07,0.00,0.00,1.03
11941,-87.00,177.00,5.00,-6.06,2.62,-0.88,0.30,0.14,-0.11,0.00,0.00,1.04
11949,-86.94,177.00,4.94,-6.44,2.81,-1.06,0.36,0.11,-0.11,0.00,0.00,1.06
11961,-86.94,177.00,4.88,-6.62,3.06,-1.25,0.28,0.10,-0.11,0.00,0.00,1.04
11972,-86.94,177.00,4.81,-6.62,3.62,-1.06,0.24,0.11,-0.10,0.00,0.00,1.03
11980,-86.94,176.94,4.75,-6.69,4.00,-0.88,0.27,0.16,-0.08,0.00,0.00,1.03
12006,-86.94,177.00,4.62,-7.00,4.00,-0.25,0.09,0.08,-0.10,0.00,0.00,1.06
12015,-86.94,177.00,4.56,-7.12,4.38,0.19,0.07,0.10,-0.13,0.00,0.00,1.03
12025,-86.94,177.00,4.44,-7.12,4.38,0.19,0.03,0.10,-0.10,0.00,0.00,1.07
12032,-86.94,177.00,4.38,-7.25,4.25,0.25,0.03,0.10,-0.10,0.00,0.00,1.04
12041,-86.88,177.00,4.31,-7.31,4.19,0.06,-0.14,0.11,-0.10,0.00,0.00,1.04
12049,-86.88,177.00,4.25,-7.44,4.00,-0.12,-0.14,0.10,-0.11,0.00,0.00,1.06
12057,-86.88,177.00,4.19,-7.44,3.81,-0.50,-0.17,0.22,-0.10,0.00,0.00,1.04
12066,-86.88,177.00,4.19,-7.62,3.50,-0.69,-0.14,0.27,-0.05,0.00,0.00,1.06
12075,-86.88,177.00,4.12,-7.94,3.06,-0.69,-0.15,0.29,-0.06,0.00,0.00,1.03
12083,-86.88,177.00,4.00,-7.94,3.06,-0.69,-0.15,0.29,-0.06,0.00,0.00,1.04
12091,-86.88,177.00,3.94,-8.44,2.75,-0.56,-0.24,0.31,-0.04,0.00,0.00,1.04
12101,-86.88,177.06,3.81,-8.88,2.31,-0.56,-0.24,0.31,-0.03,0.00,0.00,1.06
12109,-86.88,177.06,3.69,-9.25,1.75,-0.44,-0.20,0.29,-0.06,0.00,0.00,1.06
12121,-86.88,177.06,3.62,-9.69,1.19,-0.25,-0.24,0.31,-0.02,0.00,0.00,1.09
12143,-86.94,177.12,3.38,-10.62,0.38,-0.31,-0.21,0.42,-0.01,0.00,0.00,0.86
12157,-86.94,177.12,3.25,-11.31,-0.25,-0.38,-0.17,0.30,-0.01,0.00,0.00,0.70
12166,-87.00,177.19,3.06,-12.19,-0.62,-0.69,-0.16,0.36,-0.04,0.00,0.00,0.68
12180,-87.00,177.19,2.94,-12.19,-0.62,-0.69,-0.08,0.37,-0.03,0.00,0.00,0.65
12188,-87.00,177.19,2.69,-13.31,-1.56,-1.06,-0.10,0.29,-0.06,0.00,0.00,0.62
12201,-87.00,177.19,2.69,-13.31,-1.56,-1.06,-0.11,0.30,-0.03,0.00,0.00,0.71
12209,-87.06,177.25,2.38,-14.31,-1.88,-1.12,-0.04,0.33,-0.06,0.00,0.00,0.74
12220,-87.06,177.25,2.25,-14.81,-2.25,-1.12,0.07,0.34,-0.04,0.00,0.00,0.71
12229,-87.06,177.25,2.06,-15.31,-2.44,-0.94,0.02,0.31,-0.02,0.00,0.00,0.75
12237,-87.06,177.25,1.88,-15.69,-2.44,-0.75,0.06,0.33,-0.01,0.00,0.00,0.78
12246,-87.06,177.25,1.88,-15.69,-2.44,-0.75,0.14,0.28,-0.03,0.00,0.00,0.82
12256,-87.12,177.25,1.75,-16.19,-2.62,-0.75,0.09,0.27,-0.08,0.00,0.00,0.77
12266,-87.12,177.31,1.56,-16.56,-2.62,-0.56,0.02,0.19,-0.07,0.00,0.00,0.79
12288,-87.19,177.31,1.00,-17.56,-2.56,-0.88,0.01,0.11,-0.07,0.00,0.00,0.73
12296,-87.19,177.31,1.00,-17.56,-2.56,-0.88,0.00,0.07,-0.09,0.00,0.00,0.76
12308,-87.19,177.31,0.88,-17.69,-2.50,-0.81,0.02,0.05,-0.13,0.00,0.00,0.81
12317,-87.19,177.31,0.69,-17.88,-2.62,-0.94,0.05,0.07,-0.08,0.00,0.00,0.82
12329,-87.19,177.31,0.50,-17.88,-2.62,-0.94,0.10,0.04,-0.09,0.00,0.00,0.81
12337,-87.19,177.31,0.31,-17.75,-2.88,-1.19,0.14,0.01,-0.08,0.00,0.00,0.82
12348,-87.19,177.31,0.19,-17.75,-2.88,-1.19,0.14,0.01,-0.08,0.00,0.00,0.79
12357,-87.19,177.25,0.00,-17.88,-2.88,-0.94,0.20,0.07,-0.10,0.00,0.00,0.75
12369,-87.19,177.25,-0.19,-17.88,-2.88,-0.94,0.22,0.04,-0.11,0.00,0.00,0.75
12378,-87.19,177.25,-0.31,-17.81,-2.69,-0.56,0.21,0.04,-0.10,0.00,0.00,0.73
12388,-87.19,177.25,-0.50,-17.81,-2.69,-0.56,0.21,0.04,-0.10,0.00,0.00,0.74
12396,-87.19,177.25,-0.69,-17.88,-2.50,-0.31,0.20,0.03,-0.08,0.00,0.00,0.71
12406,-87.19,177.25,-0.88,-17.69,-2.12,-0.44,0.20,0.03,-0.09,0.00,0.00,0.73
12416,-87.19,177.25,-1.06,-17.69,-1.94,-0.38,0.23,0.04,-0.10,0.00,0.00,0.75
12440,-87.19,177.25,-1.56,-17.62,-1.06,-0.75,0.27,0.03,-0.10,0.00,0.00,0.73
12448,-87.19,177.25,-1.56,-17.38,-1.06,-1.06,0.31,0.03,-0.11,0.00,0.00,0.74
12461,-87.19,177.25,-1.69,-17.38,-1.06,-1.06,0.27,0.03,-0.11,0.00,0.00,0.75
12469,-87.19,177.25,-2.06,-17.50,-0.31,-1.00,0.30,0.02,-0.10,0.00,0.00,0.76
12482,-87.19,177.25,-2.06,-17.31,-0.06,-1.00,0.30,0.03,-0.11,0.00,0.00,0.71
12489,-87.12,177.25,-2.38,-17.25,0.12,-1.00,0.30,0.00,-0.08,0.00,0.00,0.71
12500,-87.12,177.25,-2.38,-17.25,0.12,-1.00,0.25,0.04,-0.09,0.00,0.00,0.71
12508,-87.12,177.25,-2.50,-17.19,0.62,-0.50,0.23,0.00,-0.10,0.00,0.00,0.71
12518,-87.12,177.25,-2.69,-17.19,0.62,-0.50,0.22,-0.01,-0.10,0.00,0.00,0.72
12528,-87.12,177.25,-2.88,-17.00,1.12,-0.56,0.21,0.01,-0.09,0.00,0.00,0.71
12536,-87.12,177.25,-3.00,-16.88,1.19,-0.56,0.21,0.01,-0.09,0.00,0.00,0.71
12544,-87.12,177.25,-3.19,-16.75,1.25,-0.44,0.14,0.01,-0.08,0.00,0.00,0.71
12552,-87.12,177.25,-3.31,-16.62,1.56,-0.50,0.13,0.00,-0.11,0.00,0.00,0.72
12577,-87.06,177.25,-3.62,-16.62,1.69,-0.88,0.12,-0.01,-0.10,0.00,0.00,0.70
12585,-87.06,177.25,-3.81,-16.38,1.94,-0.69,0.04,0.00,-0.12,0.00,0.00,0.72
12592,-87.06,177.25,-3.94,-16.38,1.69,-1.00,0.05,-0.02,-0.10,0.00,0.00,0.71
12600,-87.06,177.19,-4.12,-16.19,1.81,-1.12,0.08,-0.01,-0.10,0.00,0.00,0.69
12608,-87.06,177.19,-4.12,-16.06,1.88,-1.06,0.05,0.01,-0.13,0.00,0.00,0.69
12619,-87.00,177.19,-4.25,-16.06,1.88,-1.06,0.01,0.17,-0.05,0.00,0.00,0.71
12629,-87.00,177.19,-4.38,-16.00,1.56,-0.75,0.12,0.27,0.00,0.00,0.00,0.71
12637,-87.00,177.19,-4.56,-16.06,1.44,-0.75,0.12,0.27,0.00,0.00,0.00,0.71
12644,-87.00,177.19,-4.75,-16.44,1.31,-0.31,0.12,0.31,0.01,0.00,0.00,0.70
12652,-87.00,177.25,-4.88,-16.62,1.19,-0.12,0.06,0.36,0.02,0.00,0.00,0.70
12661,-87.00,177.25,-5.06,-17.06,1.38,0.00,-0.06,0.27,-0.03,0.00,0.00,0.71
12669,-87.00,177.25,-5.06,-17.50,1.19,0.00,-0.08,0.22,-0.03,0.00,0.00,0.70
12679,-87.00,177.25,-5.25,-17.50,1.19,0.00,-0.14,0.19,-0.04,0.00,0.00,0.70
12686,-87.00,177.25,-5.44,-17.88,1.00,-0.25,-0.14,0.19,-0.04,0.00,0.00,0.68
12711,-87.00,177.25,-5.75,-18.56,-0.19,-1.44,-0.17,0.03,-0.08,0.00,0.00,0.75
12720,-87.00,177.25,-5.94,-18.56,-0.50,-1.56,-0.20,0.04,-0.11,0.00,0.00,0.76
12732,-86.94,177.19,-6.12,-18.56,-0.50,-1.56,-0.09,0.09,-0.07,0.00,0.00,0.76
12740,-86.94,177.19,-6.44,-18.75,-1.12,-1.62,0.00,0.00,-0.08,0.00,0.00,0.76
12750,-86.94,177.19,-6.44,-18.75,-1.12,-1.62,0.00,0.00,-0.08,0.00,0.00,0.77
12759,-86.94,177.19,-6.62,-18.62,-1.44,-1.62,-0.03,-0.01,-0.10,0.00,0.00,0.77
12769,-86.94,177.19,-6.81,-18.69,-1.81,-1.06,0.10,0.04,-0.06,0.00,0.00,0.77
12779,-86.94,177.19,-7.00,-18.44,-2.00,-0.81,0.12,0.11,-0.05,0.00,0.00,0.79
12789,-86.94,177.19,-7.12,-18.38,-2.25,-0.56,0.12,0.11,-0.05,0.00,0.00,0.78
12797,-86.94,177.19,-7.31,-18.38,-2.44,-0.12,0.09,0.17,-0.03,0.00,0.00,0.76
12807,-86.94,177.19,-7.50,-18.56,-2.31,0.12,0.09,0.23,0.01,0.00,0.00,0.77
12817,-87.00,177.19,-7.75,-18.69,-2.31,0.25,0.22,0.34,0.04,0.00,0.00,0.77
12828,-87.00,177.25,-7.94,-19.06,-2.19,0.12,0.21,0.33,0.03,0.00,0.00,0.77
12850,-87.06,177.25,-8.38,-20.69,-1.56,-0.56,0.22,0.53,0.04,0.00,0.00,0.75
12860,-87.06,177.31,-8.62,-20.69,-1.56,-0.56,0.22,0.47,0.05,0.00,0.00,0.76
12870,-87.12,177.31,-8.81,-21.44,-1.25,-0.81,0.21,0.47,0.08,0.00,0.00,0.76
12880,-87.12,177.38,-9.06,-22.12,-1.19,-0.88,0.24,0.44,0.05,0.00,0.00,0.74
12887,-87.19,177.38,-9.31,-22.88,-1.06,-0.81,0.24,0.44,0.05,0.00,0.00,0.75
12895,-87.19,177.38,-9.56,-23.62,-0.69,-1.25,0.19,0.27,0.03,0.00,0.00,0.74
12903,-87.19,177.38,-9.81,-24.19,-0.50,-1.38,0.12,0.19,0.00,0.00,0.00,0.73
12913,-87.19,177.38,-9.81,-24.50,0.19,-1.31,0.08,0.15,-0.06,0.00,0.00,0.76
12921,-87.19,177.38,-10.25,-24.81,0.00,-1.38,0.11,0.11,-0.07,0.00,0.00,0.74
12935,-87.19,177.38,-10.25,-25.19,-0.12,-1.44,0.03,-0.01,-0.10,0.00,0.00,0.74
12942,-87.12,177.38,-10.75,-25.31,-0.06,-1.31,0.02,-0.02,-0.09,0.00,0.00,0.77
12953,-87.12,177.38,-10.75,-25.31,-0.06,-1.31,-0.01,0.02,-0.08,0.00,0.00,0.80
12961,-87.12,177.38,-11.00,-25.38,-0.50,-0.88,-0.07,0.04,-0.07,0.00,0.00,0.80
12987,-87.12,177.38,-11.75,-25.56,-1.06,-0.38,-0.12,-0.01,-0.07,0.00,0.00,0.81
12994,-87.12,177.38,-12.00,-25.56,-1.88,-0.19,-0.17,0.00,-0.07,0.00,0.00,0.80
13006,-87.12,177.38,-12.00,-25.56,-1.88,-0.19,-0.21,0.00,-0.08,0.00,0.00,0.79
13013,-87.12,177.38,-12.50,-25.44,-2.12,-0.44,-0.27,-0.06,-0.11,0.00,0.00,0.78
13025,-87.12,177.38,-12.50,-25.44,-2.62,-0.31,-0.24,-0.11,-0.11,0.00,0.00,0.81
13033,-87.19,177.38,-13.00,-25.44,-3.06,-0.50,-0.26,-0.13,-0.12,0.00,0.00,0.81
13041,-87.19,177.38,-13.00,-25.44,-3.06,-0.50,-0.26,-0.13,-0.12,0.00,0.00,0.82
13049,-87.19,177.38,-13.25,-25.19,-3.94,-0.94,-0.04,-0.13,-0.09,0.00,0.00,0.83
13056,-87.19,177.38,-13.50,-25.19,-3.94,-0.94,0.07,-0.08,-0.08,0.00,0.00,0.83
13064,-87.19,177.38,-13.69,-25.00,-4.00,-1.19,0.16,-0.07,-0.06,0.00,0.00,0.82
13074,-87.19,177.38,-13.69,-24.88,-3.81,-1.44,0.28,-0.08,-0.04,0.00,0.00,0.82
13083,-87.19,177.38,-13.94,-24.75,-3.44,-1.38,0.54,-0.08,-0.07,0.00,0.00,0.82
13090,-87.19,177.38,-14.19,-24.75,-3.44,-1.38,0.54,-0.08,-0.07,0.00,0.00,0.83
13112,-87.19,177.38,-14.62,-24.50,-1.38,-0.69,0.73,-0.09,-0.02,0.00,0.00,0.85
13122,-87.19,177.31,-14.88,-24.50,-1.38,-0.69,0.74,-0.04,0.00,0.00,0.00,0.86
13131,-87.19,177.38,-15.12,-24.31,-0.38,-0.50,0.74,-0.03,0.01,0.00,0.00,0.85
13143,-87.19,177.38,-15.38,-24.19,0.50,-0.25,0.74,-0.03,0.01,0.00,0.00,0.85
13151,-87.19,177.38,-15.56,-24.19,1.44,-0.06,0.70,-0.05,0.00,0.00,0.00,0.85
13161,-87.19,177.38,-15.81,-24.12,2.50,-0.19,0.65,-0.10,-0.01,0.00,0.00,0.85
13173,-87.12,177.38,-16.06,-23.75,3.31,-0.56,0.39,-0.16,-0.04,0.00,0.00,0.85
13182,-87.12,177.38,-16.31,-23.50,3.75,-0.44,0.12,-0.25,-0.05,0.00,0.00,0.84
13191,-87.12,177.38,-16.50,-23.50,3.75,-0.44,0.12,-0.25,-0.05,0.00,0.00,0.85
13198,-87.12,177.38,-16.75,-23.00,3.56,-0.31,0.00,-0.26,-0.05,0.00,0.00,0.86
13208,-87.06,177.38,-16.94,-22.62,3.56,-0.25,-0.17,-0.22,-0.07,0.00,0.00,0.85
13218,-87.06,177.38,-17.19,-22.31,3.06,-0.19,-0.23,-0.22,-0.04,0.00,0.00,0.84
13227,-87.06,177.38,-17.38,-22.12,2.56,-0.25,-0.27,-0.22,-0.06,0.00,0.00,0.85
13252,-87.06,177.38,-17.81,-21.75,1.88,-0.56,0.01,-0.11,0.02,0.00,0.00,0.84
13262,-87.00,177.38,-18.06,-21.62,1.75,-1.00,0.04,-0.05,0.02,0.00,0.00,0.85
13273,-87.00,177.38,-18.25,-21.50,1.69,-1.31,0.06,-0.11,0.00,0.00,0.00,0.83
13283,-87.00,177.38,-18.44,-21.62,1.75,-1.31,0.17,-0.22,-0.03,0.00,0.00,0.86
13292,-86.94,177.38,-18.62,-21.38,1.75,-1.38,0.17,-0.22,-0.03,0.00,0.00,0.85
13300,-86.94,177.31,-18.81,-21.00,1.81,-1.50,0.17,-0.26,-0.02,0.00,0.00,0.84
13311,-86.88,177.31,-19.00,-20.50,2.12,-1.56,0.21,-0.32,0.00,0.00,0.00,0.85
13322,-86.88,177.31,-19.12,-20.12,2.00,-1.31,0.24,-0.30,-0.02,0.00,0.00,0.83
13336,-86.81,177.25,-19.31,-19.62,2.38,-1.12,0.21,-0.26,-0.01,0.00,0.00,0.83
13344,-86.81,177.25,-19.50,-19.12,2.31,0.12,0.18,-0.23,0.03,0.00,0.00,0.84
13353,-86.75,177.25,-19.69,-19.12,2.31,0.12,0.18,-0.23,0.03,0.00,0.00,0.83
13363,-86.75,177.25,-19.88,-18.69,2.38,0.69,0.06,0.02,0.08,0.00,0.00,0.83
13375,-86.75,177.25,-20.06,-18.81,2.38,0.81,0.05,0.13,0.14,0.00,0.00,0.84
13384,-86.75,177.31,-20.25,-19.06,2.38,0.62,0.07,0.14,0.14,0.00,0.00,0.83
13410,-86.75,177.31,-20.81,-19.69,2.31,-0.19,0.02,0.24,0.18,0.00,0.00,0.82
13420,-86.69,177.31,-21.00,-20.12,2.69,-0.94,0.06,0.27,0.17,0.00,0.00,0.82
13432,-86.69,177.31,-21.19,-20.56,2.56,-1.31,0.08,0.21,0.16,0.00,0.00,0.84
13444,-86.69,177.31,-21.44,-21.00,2.69,-1.69,0.22,0.20,0.19,0.00,0.00,0.86
13456,-86.62,177.31,-21.62,-21.31,3.12,-2.19,0.36,0.21,0.17,0.00,0.00,0.85
13465,-86.62,177.31,-21.81,-22.06,4.06,-2.38,0.47,0.21,0.18,0.00,0.00,0.84
13477,-86.56,177.25,-22.00,-22.06,4.06,-2.38,0.43,0.14,0.18,0.00,0.00,0.85
13486,-86.50,177.25,-22.19,-22.69,5.00,-1.56,0.40,0.16,0.18,0.00,0.00,0.84
13496,-86.44,177.25,-22.44,-22.69,5.00,-1.56,0.40,0.16,0.18,0.00,0.00,0.84
13504,-86.44,177.25,-22.62,-23.06,5.31,-0.81,0.30,0.00,0.12,0.00,0.00,0.82
13517,-86.38,177.25,-22.88,-23.12,5.50,-0.44,-0.08,-0.10,0.07,0.00,0.00,0.84
13525,-86.38,177.25,-23.12,-23.00,5.44,-0.12,-0.21,-0.13,0.02,0.00,0.00,0.84
13539,-86.31,177.25,-23.31,-23.00,5.44,-0.12,-0.31,-0.25,0.00,0.00,0.00,0.85
13565,-86.25,177.31,-24.00,-22.25,3.88,-1.06,-0.42,-0.32,0.00,0.00,0.00,0.85
13575,-86.19,177.31,-24.19,-21.94,3.19,-1.69,-0.17,-0.22,0.01,0.00,0.00,0.83
13585,-86.19,177.25,-24.44,-21.62,2.75,-2.00,-0.12,-0.18,0.06,0.00,0.00,0.85
13593,-86.12,177.25,-24.62,-21.38,2.31,-2.19,-0.12,-0.18,0.06,0.00,0.00,0.83
13601,-86.12,177.25,-24.81,-21.25,2.06,-2.00,0.00,0.02,0.12,0.00,0.00,0.85
13609,-86.06,177.25,-25.00,-21.31,1.75,-1.38,0.08,0.07,0.12,0.00,0.00,0.85
13617,-86.06,177.25,-25.19,-21.69,1.50,-0.69,0.06,0.07,0.14,0.00,0.00,0.83
13625,-86.06,177.25,-25.19,-22.00,1.25,-0.06,0.01,0.06,0.14,0.00,0.00,0.83
13635,-86.06,177.25,-25.44,-22.00,1.25,-0.06,0.13,0.12,0.17,0.00,0.00,0.84
13645,-86.06,177.25,-25.62,-22.12,1.25,0.25,0.13,0.12,0.17,0.00,0.00,0.85
13653,-86.06,177.31,-25.88,-22.44,1.38,0.19,0.13,0.08,0.18,0.00,0.00,0.86
13665,-86.06,177.31,-26.12,-22.56,1.25,-0.06,0.09,0.03,0.16,0.00,0.00,0.88
13675,-86.06,177.31,-26.31,-22.88,1.38,-0.69,0.07,0.03,0.14,0.00,0.00,0.89
13700,-86.00,177.31,-27.00,-23.06,1.50,-2.00,0.01,-0.04,0.16,0.00,0.00,0.88
13708,-85.94,177.31,-27.19,-23.25,1.56,-1.94,0.10,-0.10,0.11,0.00,0.00,0.88
13716,-85.94,177.31,-27.19,-23.19,1.56,-1.88,0.10,-0.13,0.09,0.00,0.00,0.88
13726,-85.94,177.25,-27.44,-23.19,1.56,-1.88,0.11,-0.23,0.11,0.00,0.00,0.89
13735,-85.94,177.25,-27.62,-22.94,1.56,-1.56,0.18,-0.33,0.08,0.00,0.00,0.89
13743,-85.88,177.25,-27.81,-22.50,1.88,-1.62,0.18,-0.33,0.08,0.00,0.00,0.87
13751,-85.88,177.25,-28.06,-22.19,1.56,-1.19,0.09,-0.44,0.06,0.00,0.00,0.87
13758,-85.88,177.25,-28.25,-21.38,1.50,-1.06,0.00,-0.56,0.00,0.00,0.00,0.87
13767,-85.88,177.25,-28.25,-20.44,1.19,-0.81,-0.05,-0.60,0.00,0.00,0.00,0.86
13776,-85.81,177.25,-28.44,-19.69,1.25,-0.62,-0.01,-0.69,0.00,0.00,0.00,0.86
13786,-85.81,177.25,-28.62,-19.69,1.25,-0.62,-0.17,-0.78,-0.04,0.00,0.00,0.84
13794,-85.81,177.25,-28.88,-18.56,1.06,-0.50,-0.17,-0.78,-0.04,0.00,0.00,0.85
13804,-85.81,177.25,-29.00,-17.38,0.69,-0.56,-0.14,-0.77,-0.01,0.00,0.00,0.85
13815,-85.81,177.25,-29.19,-16.44,0.25,-0.69,-0.05,-0.73,0.00,0.00,0.00,0.85
13840,-85.75,177.19,-29.38,-13.31,-0.88,0.00,0.13,-0.47,0.12,0.00,0.00,0.83
13848,-85.69,177.12,-29.44,-12.56,-0.81,0.38,0.14,-0.36,0.16,0.00,0.00,0.84
13855,-85.69,177.12,-29.56,-12.56,-0.81,0.38,0.14,-0.36,0.16,0.00,0.00,0.83
13866,-85.69,177.12,-29.69,-12.12,-0.75,0.56,0.10,-0.27,0.20,0.00,0.00,0.83
13878,-85.69,177.12,-29.81,-11.62,-0.69,0.69,0.15,-0.20,0.19,0.00,0.00,0.84
13888,-85.69,177.12,-29.88,-11.06,-0.50,0.56,0.01,-0.07,0.28,0.00,0.00,0.82
13899,-85.69,177.12,-30.00,-11.06,-0.50,0.56,0.01,-0.07,0.28,0.00,0.00,0.82
13907,-85.69,177.12,-30.12,-10.94,-0.56,0.75,-0.05,0.14,0.30,0.00,0.00,0.81
13917,-85.75,177.19,-30.25,-10.94,-1.00,0.69,-0.13,0.17,0.34,0.00,0.00,0.82
13927,-85.75,177.19,-30.38,-11.25,-0.94,0.81,-0.14,0.22,0.34,0.00,0.00,0.81
13939,-85.75,177.19,-30.50,-11.56,-1.56,0.69,-0.09,0.22,0.31,0.00,0.00,0.81
13947,-85.75,177.19,-30.62,-11.75,-1.50,0.56,-0.13,0.22,0.32,0.00,0.00,0.82
13957,-85.75,177.19,-30.75,-12.00,-1.56,0.06,-0.13,0.22,0.32,0.00,0.00,0.81
13979,-85.88,177.25,-31.19,-13.25,-2.19,-0.81,-0.09,0.22,0.33,0.00,0.00,0.78
13992,-85.88,177.25,-31.19,-13.69,-2.31,-0.75,-0.08,0.21,0.29,0.00,0.00,0.78
13999,-85.94,177.25,-31.31,-13.88,-2.75,-0.56,0.00,0.19,0.31,0.00,0.00,0.76
14009,-85.94,177.31,-31.50,-13.88,-2.75,-0.56,0.00,0.19,0.31,0.00,0.00,0.78
14018,-86.00,177.31,-31.62,-14.31,-2.81,-0.44,0.23,0.03,0.23,0.00,0.00,0.78
14028,-86.06,177.31,-31.81,-14.62,-2.69,-0.50,0.32,-0.06,0.24,0.00,0.00,0.74
14038,-86.06,177.31,-31.94,-14.69,-2.44,-1.00,0.41,-0.11,0.21,0.00,0.00,0.77
14046,-86.06,177.31,-32.06,-14.62,-1.94,-1.31,0.41,-0.11,0.21,0.00,0.00,0.73
14054,-86.06,177.31,-32.19,-14.31,-1.38,-1.56,0.44,-0.13,0.21,0.00,0.00,0.73
14062,-86.06,177.31,-32.31,-14.12,-0.88,-1.69,0.36,-0.27,0.16,0.00,0.00,0.76
14070,-86.06,177.31,-32.44,-13.56,-0.56,-1.56,0.35,-0.32,0.13,0.00,0.00,0.75
14079,-86.06,177.31,-32.44,-13.00,-0.44,-1.00,0.23,-0.38,0.13,0.00,0.00,0.75
14091,-86.06,177.25,-32.56,-13.00,-0.44,-1.00,0.03,-0.44,0.13,0.00,0.00,0.70
14114,-86.06,177.31,-32.94,-11.06,-1.12,0.62,-0.14,-0.58,0.09,0.00,0.00,0.63
14124,-86.06,177.31,-33.06,-10.12,-1.44,0.69,-0.20,-0.58,0.10,0.00,0.00,0.61
14133,-86.06,177.31,-33.19,-9.31,-1.88,0.62,-0.15,-0.56,0.09,0.00,0.00,0.55
14140,-86.12,177.31,-33.25,-8.44,-2.00,0.12,-0.01,-0.50,0.12,0.00,0.00,0.52
14148,-86.12,177.31,-33.25,-8.44,-2.00,0.12,0.00,-0.38,0.17,0.00,0.00,0.47
14156,-86.12,177.31,-33.31,-7.56,-2.06,-0.31,0.00,-0.38,0.17,0.00,0.00,0.40
14164,-86.12,177.31,-33.38,-6.75,-2.06,-0.75,0.04,-0.27,0.18,0.00,0.00,0.34
14173,-86.12,177.25,-33.38,-6.31,-2.00,-0.94,0.16,-0.19,0.18,0.00,0.00,0.35
14183,-86.12,177.25,-33.44,-6.06,-1.75,-0.75,0.19,-0.07,0.27,0.00,0.00,0.33
14191,-86.12,177.25,-33.50,-6.00,-1.69,-0.62,0.21,0.02,0.30,0.00,0.00,0.29
14201,-86.12,177.25,-33.50,-6.00,-1.69,-0.62,0.29,0.07,0.30,0.00,0.00,0.25
14210,-86.12,177.25,-33.56,-6.12,-1.44,0.44,0.33,0.11,0.36,0.00,0.00,0.30
14219,-86.12,177.25,-33.62,-6.12,-1.44,0.44,0.45,0.12,0.34,0.00,0.00,0.27
14242,-86.19,177.25,-33.81,-6.44,0.38,-0.38,0.60,0.13,0.32,0.00,0.00,0.29
14251,-86.19,177.25,-33.81,-6.44,0.38,-0.38,0.57,0.12,0.33,0.00,0.00,0.28
14259,-86.12,177.25,-33.88,-6.44,1.25,-1.12,0.57,0.12,0.33,0.00,0.00,0.32
14269,-86.12,177.25,-33.94,-6.62,2.12,-1.75,0.47,0.05,0.31,0.00,0.00,0.32
14280,-86.06,177.25,-34.00,-6.69,3.19,-1.94,0.24,0.12,0.35,0.00,0.00,0.30
14290,-86.06,177.25,-34.06,-7.00,3.44,-1.81,0.01,0.03,0.29,0.00,0.00,0.38
14298,-86.00,177.25,-34.06,-7.06,3.56,-1.44,0.01,0.03,0.29,0.00,0.00,0.33
14306,-86.00,177.19,-34.12,-6.88,3.12,-0.81,-0.11,-0.02,0.27,0.00,0.00,0.39
14315,-86.00,177.19,-34.19,-6.81,2.88,-0.25,-0.17,-0.08,0.22,0.00,0.00,0.44
14323,-85.94,177.25,-34.31,-6.81,2.44,0.06,-0.26,-0.16,0.18,0.00,0.00,0.39
14333,-85.94,177.25,-34.31,-6.50,2.00,-0.06,-0.29,-0.33,0.17,0.00,0.00,0.37
14342,-85.94,177.25,-34.44,-5.88,1.44,-0.38,-0.31,-0.38,0.17,0.00,0.00,0.39
14350,-85.94,177.25,-34.44,-5.88,1.44,-0.38,-0.31,-0.38,0.17,0.00,0.00,0.35
14358,-85.94,177.19,-34.44,-5.31,1.25,-1.25,-0.31,-0.36,0.13,0.00,0.00,0.40
14381,-85.88,177.19,-34.50,-3.94,0.00,-2.19,-0.16,-0.16,0.20,0.00,0.00,0.32
14391,-85.88,177.12,-34.50,-3.94,0.00,-2.19,-0.06,-0.09,0.24,0.00,0.00,0.32
14402,-85.88,177.12,-34.50,-3.69,-0.75,-1.69,-0.06,-0.09,0.24,0.00,0.00,0.25
14410,-85.88,177.12,-34.56,-3.44,-1.00,-0.81,0.04,-0.04,0.25,0.00,0.00,0.20
14424,-85.88,177.12,-34.56,-3.31,-1.19,-0.31,0.25,0.00,0.27,0.00,0.00,0.28
14432,-85.88,177.12,-34.62,-3.25,-1.06,0.31,0.30,0.00,0.26,0.00,0.00,0.27
14444,-85.88,177.12,-34.69,-3.25,-1.06,0.31,0.27,0.02,0.26,0.00,0.00,0.22
14452,-85.88,177.12,-34.69,-3.19,-0.19,-0.19,0.20,0.04,0.26,0.00,0.00,0.29
14462,-85.88,177.12,-34.75,-3.19,-0.19,-0.19,0.20,0.04,0.26,0.00,0.00,0.34
14472,-85.88,177.12,-34.75,-3.12,0.06,-1.00,0.11,0.11,0.26,0.00,0.00,0.23
14483,-85.94,177.12,-34.81,-3.12,0.06,-1.00,0.05,0.12,0.26,0.00,0.00,0.30
14492,-85.94,177.12,-34.81,-3.62,0.50,-1.19,0.07,0.15,0.28,0.00,0.00,0.25
14504,-85.94,177.12,-34.88,-3.62,0.50,-1.19,0.07,0.15,0.28,0.00,0.00,0.28
14527,-86.00,177.12,-35.00,-4.38,0.00,-0.50,0.04,0.17,0.25,0.00,0.00,0.23
14539,-86.00,177.12,-35.06,-4.38,-0.12,-0.38,0.01,0.12,0.26,0.00,0.00,0.28
14546,-86.00,177.19,-35.06,-4.62,-0.06,-0.50,-0.07,0.13,0.22,0.00,0.00,0.24
14555,-86.00,177.19,-35.12,-4.94,-0.56,-0.50,-0.12,0.09,0.23,0.00,0.00,0.24
14563,-86.00,177.19,-35.19,-5.12,-0.56,-0.62,-0.14,0.07,0.23,0.00,0.00,0.27
14573,-86.00,177.19,-35.19,-5.19,-0.75,-0.62,-0.16,0.00,0.17,0.00,0.00,0.22
14583,-86.06,177.19,-35.25,-5.19,-0.75,-0.62,-0.18,0.00,0.16,0.00,0.00,0.23
