Time,sensPitch,sensRoll,sensYaw,xGyro,yGyro,ZGyro,xAcc,yAcc,zAcc,latitude,longitude,altitude
6107,-2.62,2.38,-0.12,-0.06,0.00,1.19,-0.07,-0.01,-0.20,0.00,0.00,0.63
6114,-2.62,2.38,-0.12,-0.19,0.06,1.19,-0.08,-0.04,-0.23,0.00,0.00,0.62
6125,-2.62,2.38,-0.12,-0.12,-0.06,1.25,-0.05,-0.02,-0.23,0.00,0.00,0.62
6133,-2.62,2.38,-0.12,-0.25,-0.06,1.25,-0.07,-0.05,-0.29,0.00,0.00,0.63
6144,-2.62,2.38,-0.12,-0.25,-0.06,1.25,-0.06,-0.05,-0.26,0.00,0.00,0.62
6153,-2.62,2.38,-0.19,-0.12,0.00,1.56,-0.07,-0.02,-0.23,0.00,0.00,0.63
6163,-2.62,2.38,-0.19,-0.12,0.00,1.56,-0.06,-0.03,-0.22,0.00,0.00,0.64
6170,-2.62,2.38,-0.19,-0.19,0.06,1.38,-0.06,-0.03,-0.22,0.00,0.00,0.63
6179,-2.62,2.38,-0.19,-0.06,-0.25,1.44,-0.04,-0.02,-0.22,0.00,0.00,0.62
6188,-2.62,2.38,-0.25,-0.12,0.12,1.69,-0.03,-0.04,-0.21,0.00,0.00,0.63
6197,-2.62,2.38,-0.25,0.00,0.06,1.62,-0.01,-0.04,-0.28,0.00,0.00,0.63
6204,-2.62,2.38,-0.25,0.00,0.06,1.81,-0.02,-0.03,-0.25,0.00,0.00,0.63
6213,-2.62,2.38,-0.25,0.00,0.06,1.81,0.00,0.00,-0.26,0.00,0.00,0.64
6951,-3.19,2.31,-1.75,0.00,0.12,1.12,-0.09,0.13,-0.22,0.00,0.00,0.61
6960,-3.19,2.31,-1.75,-0.06,0.12,1.25,-0.06,0.09,-0.22,0.00,0.00,0.62
6969,-3.19,2.31,-1.75,-0.06,0.12,1.25,-0.07,0.10,-0.25,0.00,0.00,0.63
6981,-3.19,2.31,-1.75,-0.19,-0.19,1.19,-0.07,0.10,-0.25,0.00,0.00,0.61
6989,-3.19,2.31,-1.75,-0.19,-0.31,1.06,-0.06,0.10,-0.25,0.00,0.00,0.62
7001,-3.19,2.31,-1.75,-0.19,-0.31,1.06,-0.05,0.10,-0.25,0.00,0.00,0.61
7009,-3.19,2.31,-1.75,-0.06,-0.62,0.94,-0.08,0.07,-0.25,0.00,0.00,0.61
7021,-3.19,2.31,-1.81,-0.06,-0.62,0.94,-0.07,0.08,-0.23,0.00,0.00,0.62
7030,-3.19,2.31,-1.81,-0.06,-0.88,0.88,-0.07,0.08,-0.22,0.00,0.00,0.62
7039,-3.19,2.31,-1.81,-0.06,-0.88,0.88,-0.09,0.08,-0.24,0.00,0.00,0.62
7049,-3.19,2.31,-1.81,-0.12,-0.88,0.75,-0.06,0.11,-0.25,0.00,0.00,0.62
7059,-3.12,2.31,-1.81,0.06,-1.00,0.75,-0.06,0.06,-0.24,0.00,0.00,0.60
7069,-3.12,2.31,-1.81,0.00,-1.25,0.81,-0.09,0.06,-0.22,0.00,0.00,0.60
7078,-3.12,2.31,-1.81,-0.06,-1.31,0.56,-0.09,0.06,-0.22,0.00,0.00,0.62
7085,-3.12,2.31,-1.81,-0.06,-1.38,0.56,-0.08,0.10,-0.20,0.00,0.00,0.61
7119,-3.06,2.31,-1.81,-0.06,-1.50,0.38,-0.04,0.06,-0.23,0.00,0.00,0.62
7127,-3.06,2.31,-1.81,0.00,-1.69,0.31,-0.04,0.06,-0.26,0.00,0.00,0.61
7135,-3.06,2.31,-1.81,0.00,-1.62,0.19,-0.05,0.05,-0.25,0.00,0.00,0.63
7142,-3.00,2.31,-1.81,-0.06,-1.56,0.12,-0.04,0.04,-0.21,0.00,0.00,0.61
7152,-3.00,2.31,-1.81,0.00,-1.75,0.25,-0.03,0.06,-0.24,0.00,0.00,0.61
7161,-3.00,2.31,-1.81,-0.12,-1.62,-0.06,-0.02,0.07,-0.22,0.00,0.00,0.62
7173,-3.00,2.31,-1.81,-0.12,-1.62,-0.06,-0.05,0.04,-0.22,0.00,0.00,0.63
7180,-3.00,2.31,-1.81,0.12,-1.69,0.12,-0.01,0.03,-0.23,0.00,0.00,0.63
7190,-2.94,2.31,-1.81,-0.19,-1.56,0.00,-0.01,0.03,-0.23,0.00,0.00,0.61
7200,-2.94,2.31,-1.81,-0.19,-1.62,0.00,-0.01,0.05,-0.26,0.00,0.00,0.62
7212,-2.94,2.31,-1.81,0.12,-1.44,-0.12,-0.02,0.06,-0.27,0.00,0.00,0.62
7221,-2.94,2.31,-1.81,-0.06,-1.62,-0.06,-0.01,0.03,-0.22,0.00,0.00,0.62
7231,-2.88,2.31,-1.81,0.06,-1.69,-0.19,-0.01,0.03,-0.22,0.00,0.00,0.62
7238,-2.88,2.31,-1.81,0.12,-1.56,-0.25,-0.02,0.06,-0.19,0.00,0.00,0.63
7273,-2.81,2.31,-1.81,0.00,-1.62,-0.44,-0.02,0.03,-0.22,0.00,0.00,0.63
7282,-2.81,2.31,-1.81,-0.12,-1.25,-0.62,-0.02,0.00,-0.25,0.00,0.00,0.62
7293,-2.81,2.31,-1.81,-0.12,-1.25,-0.62,-0.01,0.03,-0.21,0.00,0.00,0.64
7302,-2.81,2.31,-1.81,0.06,-1.25,-0.75,-0.04,0.00,-0.24,0.00,0.00,0.63
7314,-2.75,2.31,-1.81,0.06,-1.25,-0.75,-0.06,0.00,-0.21,0.00,0.00,0.63
7323,-2.75,2.31,-1.81,0.12,-1.25,-0.69,-0.04,0.00,-0.23,0.00,0.00,0.62
7336,-2.75,2.31,-1.81,0.12,-1.25,-0.69,-0.05,-0.01,-0.22,0.00,0.00,0.62
7344,-2.75,2.31,-1.81,0.12,-1.12,-0.94,-0.05,0.01,-0.23,0.00,0.00,0.62
7352,-2.75,2.31,-1.81,0.12,-1.25,-0.88,-0.07,0.00,-0.25,0.00,0.00,0.63
7363,-2.75,2.31,-1.75,0.12,-1.25,-0.88,-0.07,0.00,-0.27,0.00,0.00,0.62
7372,-2.69,2.31,-1.75,-0.06,-1.25,-1.06,-0.07,0.00,-0.25,0.00,0.00,0.62
7381,-2.69,2.31,-1.75,0.00,-1.19,-1.12,-0.07,0.00,-0.25,0.00,0.00,0.63
7391,-2.69,2.31,-1.75,0.06,-1.00,-1.12,-0.08,-0.02,-0.24,0.00,0.00,0.62
7401,-2.69,2.31,-1.75,0.12,-1.00,-1.19,-0.09,0.00,-0.24,0.00,0.00,0.63
7449,-2.62,2.31,-1.69,-0.06,-1.31,-1.44,-0.12,-0.06,-0.24,0.00,0.00,0.63
7459,-2.62,2.31,-1.62,0.00,-1.31,-1.56,-0.10,-0.02,-0.23,0.00,0.00,0.62
7467,-2.56,2.31,-1.62,0.00,-1.06,-1.50,-0.11,-0.04,-0.22,0.00,0.00,0.62
7474,-2.56,2.31,-1.62,-0.12,-1.12,-1.69,-0.10,-0.04,-0.23,0.00,0.00,0.62
7483,-2.56,2.31,-1.62,-0.12,-1.12,-1.69,-0.10,-0.04,-0.23,0.00,0.00,0.63
7490,-2.56,2.31,-1.62,0.06,-1.31,-1.69,-0.09,-0.03,-0.28,0.00,0.00,0.62
7500,-2.56,2.31,-1.56,-0.06,-1.38,-1.62,-0.12,-0.03,-0.26,0.00,0.00,0.63
7508,-2.56,2.31,-1.56,0.06,-1.44,-1.81,-0.11,0.00,-0.25,0.00,0.00,0.62
7515,-2.50,2.31,-1.56,0.00,-1.31,-1.75,-0.13,-0.01,-0.21,0.00,0.00,0.64
7524,-2.50,2.31,-1.56,-0.06,-1.38,-1.75,-0.11,-0.03,-0.26,0.00,0.00,0.62
7531,-2.50,2.31,-1.56,-0.06,-1.38,-1.75,-0.11,-0.03,-0.26,0.00,0.00,0.62
7538,-2.50,2.31,-1.50,0.12,-1.50,-1.75,-0.10,-0.05,-0.25,0.00,0.00,0.63
7545,-2.50,2.31,-1.50,0.06,-1.31,-1.75,-0.10,-0.04,-0.24,0.00,0.00,0.63
7554,-2.50,2.31,-1.50,0.12,-1.38,-1.81,-0.10,-0.05,-0.23,0.00,0.00,0.63
7585,-2.44,2.31,-1.44,0.00,-1.38,-2.00,-0.08,-0.06,-0.25,0.00,0.00,0.62
7593,-2.44,2.31,-1.44,0.00,-1.19,-1.94,-0.08,-0.06,-0.25,0.00,0.00,0.62
7605,-2.44,2.31,-1.44,0.00,-1.19,-1.94,-0.08,-0.04,-0.24,0.00,0.00,0.62
7614,-2.38,2.31,-1.38,0.06,-1.31,-2.06,-0.06,-0.02,-0.22,0.00,0.00,0.62
7625,-2.38,2.31,-1.38,0.06,-1.31,-2.06,-0.05,-0.06,-0.24,0.00,0.00,0.63
7633,-2.38,2.31,-1.38,0.00,-1.25,-2.06,-0.05,-0.06,-0.24,0.00,0.00,0.62
7640,-2.38,2.31,-1.31,0.00,-0.94,-2.12,-0.05,-0.05,-0.24,0.00,0.00,0.65
7647,-2.38,2.31,-1.31,0.00,-0.94,-2.12,-0.05,-0.05,-0.26,0.00,0.00,0.63
7656,-2.38,2.31,-1.31,0.12,-1.00,-2.19,-0.06,-0.02,-0.24,0.00,0.00,0.61
7665,-2.38,2.31,-1.31,-0.19,-0.88,-2.19,-0.05,-0.02,-0.27,0.00,0.00,0.62
7674,-2.31,2.31,-1.25,-0.19,-0.88,-2.19,-0.05,-0.04,-0.26,0.00,0.00,0.64
7681,-2.31,2.31,-1.25,0.06,-0.56,-2.25,-0.05,-0.04,-0.26,0.00,0.00,0.64
7689,-2.31,2.31,-1.25,0.19,-0.38,-2.25,-0.02,-0.03,-0.25,0.00,0.00,0.62
7696,-2.31,2.31,-1.19,0.19,-0.38,-2.25,-0.04,-0.01,-0.23,0.00,0.00,0.63
7726,-2.31,2.31,-1.12,-0.12,-0.19,-2.25,-0.06,-0.04,-0.26,0.00,0.00,0.64
7734,-2.31,2.31,-1.12,-0.12,-0.19,-2.25,-0.06,-0.04,-0.26,0.00,0.00,0.63
7741,-2.31,2.31,-1.12,0.12,0.06,-2.31,-0.06,-0.01,-0.23,0.00,0.00,0.62
7753,-2.31,2.31,-1.06,0.00,0.25,-2.50,-0.05,-0.02,-0.21,0.00,0.00,0.64
7764,-2.31,2.38,-1.06,0.19,0.50,-2.38,-0.06,-0.05,-0.26,0.00,0.00,0.62
7776,-2.31,2.38,-1.06,0.06,0.44,-2.44,-0.07,-0.01,-0.23,0.00,0.00,0.63
7784,-2.31,2.38,-1.00,-0.12,0.38,-2.44,-0.08,-0.03,-0.24,0.00,0.00,0.63
7793,-2.31,2.38,-1.00,-0.06,0.62,-2.38,-0.07,-0.03,-0.24,0.00,0.00,0.64
7803,-2.38,2.38,-1.00,0.00,0.62,-2.50,-0.45,0.08,-0.26,0.00,0.00,0.62
7813,-2.31,2.38,-0.94,0.06,0.44,-3.19,-0.68,0.13,-0.21,0.00,0.00,0.62
7823,-2.31,2.38,-0.88,-0.12,0.31,-4.38,-0.34,-0.06,-0.28,0.00,0.00,0.64
7833,-2.31,2.38,-0.88,0.06,0.25,-5.06,-0.31,-0.03,-0.26,0.00,0.00,0.64
7840,-2.31,2.38,-0.81,0.06,-0.06,-6.50,-0.39,0.10,-0.13,0.00,0.00,0.64
7849,-2.31,2.38,-0.69,0.06,0.12,-8.12,-0.17,-0.25,-0.25,0.00,0.00,0.62
7879,-2.38,2.38,-0.38,0.81,0.38,-12.12,0.08,-0.07,-0.37,0.00,0.00,0.63
7888,-2.38,2.38,-0.38,0.81,0.38,-12.12,-0.02,-0.06,-0.32,0.00,0.00,0.63
7896,-2.38,2.38,-0.25,0.81,0.94,-13.75,-0.06,0.20,-0.22,0.00,0.00,0.63
7908,-2.38,2.38,-0.12,1.06,1.19,-15.25,-0.06,0.20,-0.22,0.00,0.00,0.62
7916,-2.38,2.38,0.06,0.94,1.62,-16.50,0.00,0.23,-0.12,0.00,0.00,0.64
7930,-2.38,2.38,0.19,1.06,2.19,-17.75,-0.05,0.12,-0.16,0.00,0.00,0.64
7940,-2.44,2.38,0.62,0.75,2.44,-20.06,0.00,0.21,-0.18,0.00,0.00,0.62
7948,-2.44,2.38,0.62,0.56,2.94,-21.25,-0.01,0.30,-0.18,0.00,0.00,0.63
7961,-2.44,2.38,0.81,0.56,2.94,-21.25,-0.22,-0.07,-0.36,0.00,0.00,0.63
7968,-2.50,2.38,1.25,0.50,3.44,-23.75,-0.10,0.08,-0.27,0.00,0.00,0.63
7980,-2.50,2.38,1.25,0.50,3.44,-23.75,0.00,0.16,-0.19,0.00,0.00,0.63
7988,-2.56,2.38,1.50,0.62,3.69,-26.25,-0.26,0.00,-0.23,0.00,0.00,0.62
7996,-2.56,2.38,1.75,0.62,3.69,-26.25,-0.26,0.00,-0.23,0.00,0.00,0.64
8005,-2.62,2.38,2.00,0.94,3.62,-28.06,-0.35,-0.04,-0.24,0.00,0.00,0.63
8017,-2.62,2.38,2.31,1.19,3.50,-29.69,-0.33,-0.03,-0.28,0.00,0.00,0.64
8048,-2.69,2.38,3.25,2.06,3.06,-34.69,-0.64,0.16,-0.24,0.00,0.00,0.62
8060,-2.69,2.38,3.62,2.19,2.62,-36.19,-0.71,0.18,-0.21,0.00,0.00,0.63
8068,-2.69,2.38,4.00,2.25,1.62,-38.69,-0.55,0.13,-0.22,0.00,0.00,0.63
8079,-2.69,2.38,4.38,2.25,1.62,-38.69,-0.64,0.25,-0.20,0.00,0.00,0.63
8087,-2.75,2.38,4.75,2.44,1.25,-39.56,-0.64,0.25,-0.20,0.00,0.00,0.65
8096,-2.81,2.31,5.12,2.12,0.44,-40.25,-0.68,0.27,-0.19,0.00,0.00,0.65
8104,-2.88,2.31,5.56,2.00,-0.12,-40.81,-0.56,0.17,-0.28,0.00,0.00,0.63
8111,-2.94,2.25,5.94,1.88,-0.50,-41.44,-0.54,0.18,-0.26,0.00,0.00,0.63
8119,-2.94,2.25,5.94,1.88,-1.06,-42.12,-0.54,0.19,-0.21,0.00,0.00,0.63
8130,-3.00,2.25,6.31,1.88,-1.06,-42.12,-0.41,0.21,-0.22,0.00,0.00,0.63
8137,-3.00,2.25,6.75,1.88,-1.38,-42.88,-0.41,0.21,-0.22,0.00,0.00,0.63
8145,-3.00,2.25,7.19,1.75,-1.75,-43.19,-0.36,0.16,-0.21,0.00,0.00,0.62
8153,-3.00,2.25,7.56,1.75,-2.25,-43.50,-0.42,0.12,-0.23,0.00,0.00,0.62
8160,-3.00,2.25,8.00,1.75,-2.56,-44.12,-0.22,0.19,-0.26,0.00,0.00,0.62
8191,-2.94,2.19,8.88,2.00,-3.06,-45.12,-0.02,0.23,-0.23,0.00,0.00,0.62
8199,-2.88,2.19,9.31,1.88,-3.06,-45.31,0.03,0.23,-0.25,0.00,0.00,0.63
8210,-2.81,2.25,9.75,1.88,-3.06,-45.31,-0.03,0.23,-0.28,0.00,0.00,0.64
8219,-2.81,2.25,10.19,1.81,-2.94,-45.50,-0.02,0.20,-0.24,0.00,0.00,0.64
8229,-2.75,2.25,10.62,1.81,-2.94,-45.88,0.12,0.20,-0.22,0.00,0.00,0.63
8238,-2.69,2.25,11.06,1.62,-2.62,-46.19,0.12,0.20,-0.22,0.00,0.00,0.62
8245,-2.62,2.25,11.56,1.50,-2.31,-46.31,0.09,0.26,-0.19,0.00,0.00,0.61
8255,-2.62,2.25,12.00,1.44,-2.19,-46.44,0.09,0.24,-0.20,0.00,0.00,0.62
8263,-2.56,2.19,12.44,1.56,-2.00,-46.62,0.20,0.16,-0.24,0.00,0.00,0.62
8273,-2.50,2.19,12.88,1.50,-1.44,-46.75,0.15,0.17,-0.24,0.00,0.00,0.63
8281,-2.50,2.19,13.31,1.50,-1.19,-46.75,0.19,0.11,-0.25,0.00,0.00,0.63
8291,-2.50,2.19,13.31,1.50,-1.19,-46.75,0.19,0.11,-0.25,0.00,0.00,0.62
8299,-2.44,2.19,13.81,1.56,-1.06,-46.56,0.27,0.09,-0.24,0.00,0.00,0.63
8310,-2.44,2.19,14.25,1.62,-0.50,-46.44,0.27,0.09,-0.25,0.00,0.00,0.62
8340,-2.38,2.19,15.56,2.19,1.06,-45.25,0.18,0.09,-0.24,0.00,0.00,0.62
8349,-2.38,2.19,16.00,2.19,1.06,-45.25,0.18,0.09,-0.24,0.00,0.00,0.62
8357,-2.31,2.19,16.44,2.06,1.50,-45.00,0.26,0.08,-0.23,0.00,0.00,0.62
8366,-2.31,2.19,16.88,2.12,1.88,-44.44,0.22,0.05,-0.26,0.00,0.00,0.62
8376,-2.31,2.19,17.31,2.12,1.88,-43.69,0.09,0.08,-0.26,0.00,0.00,0.61
8383,-2.31,2.19,17.75,2.00,1.81,-43.12,0.15,0.07,-0.23,0.00,0.00,0.62
8393,-2.31,2.19,17.75,2.00,1.81,-43.12,0.09,0.09,-0.23,0.00,0.00,0.62
8401,-2.31,2.19,18.12,2.00,2.38,-41.88,0.00,0.07,-0.22,0.00,0.00,0.61
8411,-2.31,2.19,18.56,2.00,2.38,-41.88,-0.02,0.03,-0.22,0.00,0.00,0.62
8420,-2.38,2.19,18.94,1.88,2.56,-41.00,-0.03,0.04,-0.22,0.00,0.00,0.61
8431,-2.38,2.19,19.31,1.88,2.38,-40.38,-0.11,0.00,-0.23,0.00,0.00,0.61
8438,-2.38,2.19,19.75,2.06,2.38,-39.56,-0.11,0.00,-0.23,0.00,0.00,0.64
8446,-2.38,2.19,20.12,1.94,2.19,-38.94,-0.13,0.02,-0.20,0.00,0.00,0.61
8453,-2.38,2.19,20.50,1.88,2.00,-38.19,-0.08,0.10,-0.17,0.00,0.00,0.61
8483,-2.44,2.19,21.56,1.50,1.56,-36.25,-0.15,0.10,-0.25,0.00,0.00,0.63
8493,-2.44,2.19,21.56,1.50,1.56,-36.25,-0.15,0.10,-0.25,0.00,0.00,0.62
8500,-2.44,2.12,21.88,1.38,1.56,-35.56,-0.21,0.10,-0.22,0.00,0.00,0.62
8513,-2.44,2.12,22.25,1.44,0.88,-35.00,-0.24,0.10,-0.24,0.00,0.00,0.62
8522,-2.44,2.12,22.56,1.31,0.38,-33.75,-0.15,0.03,-0.23,0.00,0.00,0.62
8531,-2.44,2.12,22.88,1.31,0.38,-33.75,-0.19,0.05,-0.22,0.00,0.00,0.62
8539,-2.44,2.12,23.19,1.12,0.31,-33.00,-0.19,0.05,-0.22,0.00,0.00,0.62
8550,-2.44,2.12,23.50,1.06,-0.06,-32.44,-0.05,0.03,-0.21,0.00,0.00,0.63
8558,-2.38,2.12,23.81,1.12,0.12,-31.62,-0.06,0.07,-0.19,0.00,0.00,0.62
8571,-2.38,2.12,24.12,1.00,-0.38,-30.88,-0.07,0.08,-0.19,0.00,0.00,0.62
8581,-2.38,2.19,24.44,1.00,-0.19,-30.19,-0.04,0.08,-0.25,0.00,0.00,0.62
8590,-2.38,2.19,24.69,0.88,-0.12,-29.50,0.01,0.05,-0.28,0.00,0.00,0.61
8597,-2.38,2.19,25.00,0.94,-0.06,-29.00,-0.01,0.07,-0.26,0.00,0.00,0.62
8606,-2.38,2.19,25.25,0.75,-0.06,-28.38,0.00,0.02,-0.28,0.00,0.00,0.63
8613,-2.31,2.19,25.56,0.81,-0.06,-27.69,0.00,-0.04,-0.26,0.00,0.00,0.62
8645,-2.31,2.19,26.06,1.06,-0.19,-26.50,0.04,0.01,-0.21,0.00,0.00,0.62
8653,-2.31,2.19,26.31,1.06,-0.19,-26.50,0.03,0.06,-0.21,0.00,0.00,0.62
8665,-2.31,2.19,26.56,1.12,0.19,-26.06,0.07,0.10,-0.24,0.00,0.00,0.61
8673,-2.31,2.19,26.81,1.12,0.50,-25.56,0.11,0.11,-0.24,0.00,0.00,0.62
8686,-2.25,2.19,27.06,1.12,0.50,-25.56,0.09,0.11,-0.28,0.00,0.00,0.61
8693,-2.25,2.19,27.31,0.88,0.88,-25.19,0.11,0.12,-0.28,0.00,0.00,0.62
8704,-2.25,2.19,27.56,0.88,0.88,-25.19,0.11,0.12,-0.28,0.00,0.00,0.62
8713,-2.25,2.19,27.81,0.94,1.31,-25.44,0.11,0.04,-0.26,0.00,0.00,0.62
8725,-2.25,2.19,28.06,0.81,1.44,-25.44,0.06,0.00,-0.24,0.00,0.00,0.61
8734,-2.31,2.19,28.31,1.00,1.81,-25.44,0.06,-0.11,-0.23,0.00,0.00,0.63
8743,-2.31,2.19,28.56,1.00,1.81,-25.44,0.06,-0.11,-0.23,0.00,0.00,0.63
8750,-2.31,2.19,28.81,1.31,2.00,-25.62,0.01,-0.10,-0.20,0.00,0.00,0.62
8757,-2.31,2.19,29.06,1.44,2.19,-25.69,-0.02,-0.08,-0.26,0.00,0.00,0.61
8765,-2.31,2.12,29.31,1.75,2.12,-25.81,0.00,-0.07,-0.29,0.00,0.00,0.62
8795,-2.38,2.12,30.06,1.94,2.50,-25.88,-0.15,-0.02,-0.29,0.00,0.00,0.62
8803,-2.38,2.12,30.06,1.94,2.50,-25.88,-0.15,-0.02,-0.29,0.00,0.00,0.63
8813,-2.38,2.12,30.31,2.19,2.38,-25.94,-0.09,0.03,-0.23,0.00,0.00,0.62
8825,-2.38,2.12,30.56,2.00,2.06,-25.81,-0.23,0.00,-0.24,0.00,0.00,0.62
8834,-2.44,2.12,30.81,2.19,2.00,-26.00,-0.21,0.00,-0.18,0.00,0.00,0.62
8844,-2.44,2.06,31.06,2.06,2.06,-25.75,-0.21,0.00,-0.18,0.00,0.00,0.63
8852,-2.44,2.06,31.31,2.00,1.88,-25.81,-0.23,0.02,-0.18,0.00,0.00,0.64
8863,-2.50,2.06,31.56,1.81,1.75,-25.81,-0.23,0.06,-0.16,0.00,0.00,0.62
8873,-2.50,2.06,31.81,1.69,1.38,-25.75,-0.23,0.04,-0.22,0.00,0.00,0.62
8887,-2.50,2.06,32.06,1.69,1.25,-25.56,-0.31,0.01,-0.25,0.00,0.00,0.63
8894,-2.50,2.06,32.31,1.62,1.06,-25.62,-0.35,-0.04,-0.28,0.00,0.00,0.61
8904,-2.56,2.06,32.56,1.56,0.75,-25.56,-0.35,-0.04,-0.28,0.00,0.00,0.62
8914,-2.56,2.06,32.81,1.50,0.44,-25.50,-0.38,-0.04,-0.26,0.00,0.00,0.61
8925,-2.56,2.06,33.06,1.69,0.06,-25.44,-0.32,-0.08,-0.22,0.00,0.00,0.62
8955,-2.62,2.06,33.75,2.06,-1.12,-25.19,-0.24,0.03,-0.21,0.00,0.00,0.60
8965,-2.62,2.06,34.00,2.06,-1.50,-25.06,-0.22,0.14,-0.21,0.00,0.00,0.62
8975,-2.62,2.00,34.25,1.94,-1.44,-25.12,-0.21,0.13,-0.24,0.00,0.00,0.62
8984,-2.56,2.00,34.50,1.44,-1.81,-25.00,-0.15,0.10,-0.26,0.00,0.00,0.62
8992,-2.56,2.00,34.75,1.50,-2.00,-24.88,-0.15,0.10,-0.26,0.00,0.00,0.62
9000,-2.56,2.00,35.00,1.44,-2.06,-24.81,-0.15,0.11,-0.23,0.00,0.00,0.64
9008,-2.50,2.00,35.25,1.25,-2.19,-24.69,-0.18,0.02,-0.23,0.00,0.00,0.64
9019,-2.50,2.00,35.25,1.19,-2.31,-24.56,-0.13,-0.02,-0.24,0.00,0.00,0.63
9026,-2.50,2.00,35.69,1.19,-2.50,-24.38,-0.14,-0.08,-0.21,0.00,0.00,0.63
9039,-2.50,2.00,35.69,1.19,-2.50,-24.38,-0.15,-0.08,-0.21,0.00,0.00,0.62
9046,-2.44,2.00,35.94,1.44,-2.75,-23.94,-0.09,-0.06,-0.28,0.00,0.00,0.63
9056,-2.44,2.00,36.19,1.44,-2.75,-23.94,-0.09,-0.06,-0.28,0.00,0.00,0.62
9066,-2.38,2.00,36.38,1.56,-2.69,-23.81,-0.06,0.00,-0.27,0.00,0.00,0.62
9079,-2.38,2.00,36.62,1.50,-2.88,-23.56,-0.05,0.07,-0.24,0.00,0.00,0.62
9108,-2.19,1.94,37.50,1.19,-2.62,-22.38,-0.04,0.02,-0.24,0.00,0.00,0.63
9120,-2.19,1.94,37.50,1.25,-2.69,-21.94,-0.01,0.02,-0.25,0.00,0.00,0.61
9128,-2.12,1.94,37.94,1.25,-2.44,-21.50,-0.02,0.03,-0.22,0.00,0.00,0.61
9137,-2.12,1.94,37.94,1.06,-2.31,-21.00,-0.03,0.00,-0.22,0.00,0.00,0.62
9144,-2.12,1.94,38.12,1.06,-2.31,-21.00,-0.03,0.00,-0.22,0.00,0.00,0.62
9154,-2.12,1.94,38.31,1.12,-2.19,-20.50,-0.01,0.01,-0.26,0.00,0.00,0.63
9161,-2.06,1.94,38.50,1.06,-2.06,-20.12,-0.03,0.04,-0.26,0.00,0.00,0.62
9171,-2.06,1.94,38.69,1.12,-1.81,-19.50,0.01,0.03,-0.27,0.00,0.00,0.61
9179,-2.00,1.94,38.88,1.00,-2.00,-19.25,0.00,0.05,-0.25,0.00,0.00,0.62
9191,-2.00,1.94,38.88,0.81,-1.94,-18.69,0.00,0.00,-0.25,0.00,0.00,0.62
9198,-2.00,1.94,39.06,0.81,-1.75,-18.06,-0.01,-0.04,-0.25,0.00,0.00,0.60
9208,-2.00,1.94,39.25,0.81,-1.75,-18.06,-0.01,-0.04,-0.25,0.00,0.00,0.62
9217,-1.94,1.94,39.44,0.88,-1.62,-17.25,-0.08,-0.01,-0.24,0.00,0.00,0.62
9231,-1.94,1.94,39.62,0.88,-1.62,-17.25,-0.11,0.00,-0.19,0.00,0.00,0.63
9264,-1.88,1.94,40.25,1.19,-1.12,-16.06,-0.08,0.08,-0.23,0.00,0.00,0.63
9272,-1.88,1.88,40.38,1.12,-1.00,-16.00,-0.07,0.08,-0.28,0.00,0.00,0.63
9283,-1.81,1.88,40.56,0.88,-0.94,-15.88,-0.04,0.07,-0.26,0.00,0.00,0.64
9290,-1.81,1.88,40.69,0.88,-0.44,-15.94,-0.07,0.05,-0.26,0.00,0.00,0.63
9300,-1.81,1.88,40.69,0.88,-0.44,-15.94,-0.09,0.03,-0.27,0.00,0.00,0.63
9308,-1.81,1.88,40.88,0.75,-0.38,-15.94,-0.09,0.04,-0.24,0.00,0.00,0.64
9317,-1.81,1.88,41.00,0.75,-0.19,-16.06,-0.14,0.02,-0.23,0.00,0.00,0.63
9327,-1.81,1.88,41.19,0.88,-0.12,-16.12,-0.14,0.02,-0.20,0.00,0.00,0.63
9338,-1.81,1.88,41.31,0.94,0.19,-16.31,-0.14,0.02,-0.20,0.00,0.00,0.63
9345,-1.81,1.88,41.50,0.88,0.12,-16.50,-0.11,0.02,-0.25,0.00,0.00,0.62
9352,-1.81,1.88,41.62,0.94,0.31,-16.75,-0.14,0.02,-0.25,0.00,0.00,0.63
9359,-1.81,1.88,41.81,0.88,0.44,-16.81,-0.14,0.00,-0.28,0.00,0.00,0.63
9371,-1.81,1.88,41.81,0.88,0.44,-16.81,-0.14,-0.01,-0.26,0.00,0.00,0.62
9379,-1.81,1.88,42.00,0.88,0.62,-17.06,-0.21,-0.05,-0.29,0.00,0.00,0.63
9413,-1.88,1.88,42.50,1.00,0.69,-17.56,-0.19,-0.04,-0.19,0.00,0.00,0.64
9420,-1.88,1.88,42.81,1.06,0.69,-17.69,-0.16,-0.04,-0.23,0.00,0.00,0.63
9429,-1.88,1.88,42.81,0.94,0.88,-17.50,-0.09,0.03,-0.25,0.00,0.00,0.62
9438,-1.88,1.88,43.00,0.94,0.88,-17.50,-0.06,0.09,-0.24,0.00,0.00,0.65
9447,-1.88,1.88,43.12,1.12,1.06,-17.56,-0.06,0.09,-0.24,0.00,0.00,0.63
9455,-1.88,1.88,43.31,0.81,1.00,-17.38,-0.06,0.13,-0.22,0.00,0.00,0.64
9465,-1.88,1.81,43.50,0.69,1.06,-17.19,-0.03,0.10,-0.20,0.00,0.00,0.63
9472,-1.94,1.88,43.69,0.44,1.25,-17.19,-0.11,0.06,-0.24,0.00,0.00,0.63
9484,-1.94,1.88,43.69,0.38,1.19,-16.75,-0.12,-0.03,-0.25,0.00,0.00,0.63
9492,-1.94,1.88,44.00,0.25,1.44,-16.38,-0.15,-0.04,-0.22,0.00,0.00,0.62
9503,-1.94,1.88,44.00,0.25,1.25,-16.12,-0.15,-0.08,-0.23,0.00,0.00,0.63
9510,-1.94,1.88,44.31,0.50,1.25,-15.94,-0.23,-0.12,-0.29,0.00,0.00,0.62
9523,-1.94,1.88,44.31,0.50,1.25,-15.94,-0.20,-0.08,-0.28,0.00,0.00,0.61
9530,-2.00,1.88,44.44,0.88,0.81,-15.19,-0.20,-0.06,-0.26,0.00,0.00,0.62
9564,-2.00,1.88,44.88,0.88,0.62,-14.75,-0.22,0.14,-0.24,0.00,0.00,0.63
9571,-2.00,1.88,45.19,0.94,0.62,-14.62,-0.22,0.17,-0.23,0.00,0.00,0.63
9584,-2.00,1.88,45.19,0.94,0.62,-14.62,-0.22,0.19,-0.23,0.00,0.00,0.62
9591,-2.06,1.81,45.44,0.81,0.19,-14.50,-0.25,0.20,-0.23,0.00,0.00,0.62
9601,-2.06,1.81,45.44,0.81,0.19,-14.50,-0.25,0.20,-0.23,0.00,0.00,0.64
9609,-2.06,1.81,45.56,0.44,0.12,-14.50,-0.25,0.18,-0.19,0.00,0.00,0.62
9619,-2.06,1.81,45.75,0.38,0.31,-14.62,-0.27,0.14,-0.23,0.00,0.00,0.62
9629,-2.06,1.81,45.88,0.12,-0.06,-14.62,-0.27,0.10,-0.22,0.00,0.00,0.61
9639,-2.06,1.81,46.00,0.06,-0.12,-14.56,-0.25,0.05,-0.23,0.00,0.00,0.62
9647,-2.12,1.81,46.12,0.12,-0.06,-14.62,-0.24,0.01,-0.23,0.00,0.00,0.62
9654,-2.12,1.81,46.31,0.19,-0.31,-14.75,-0.22,0.00,-0.22,0.00,0.00,0.64
9662,-2.12,1.81,46.44,0.19,-0.38,-14.69,-0.23,-0.01,-0.24,0.00,0.00,0.63
9671,-2.12,1.81,46.44,0.19,-0.38,-14.69,-0.19,-0.07,-0.32,0.00,0.00,0.61
9680,-2.12,1.88,46.56,0.31,-0.25,-14.69,-0.17,-0.06,-0.29,0.00,0.00,0.63
9714,-2.12,1.88,47.00,0.62,-0.69,-14.69,-0.12,0.02,-0.23,0.00,0.00,0.61
9722,-2.12,1.88,47.31,0.81,-0.56,-14.88,-0.11,0.04,-0.27,0.00,0.00,0.62
9732,-2.12,1.88,47.31,0.81,-0.56,-14.88,-0.08,0.05,-0.21,0.00,0.00,0.62
9741,-2.12,1.88,47.44,0.62,-0.56,-14.88,-0.07,0.08,-0.21,0.00,0.00,0.63
9750,-2.12,1.88,47.56,0.56,-0.50,-14.88,-0.07,0.08,-0.21,0.00,0.00,0.62
9758,-2.12,1.88,47.69,0.44,-0.38,-14.81,-0.06,0.06,-0.22,0.00,0.00,0.63
9767,-2.12,1.88,47.88,0.31,-0.19,-14.75,-0.05,0.03,-0.20,0.00,0.00,0.62
9775,-2.06,1.88,48.00,0.12,-0.25,-14.75,-0.03,0.01,-0.25,0.00,0.00,0.63
9782,-2.06,1.88,48.12,0.00,-0.06,-14.62,-0.06,-0.05,-0.25,0.00,0.00,0.62
9791,-2.06,1.88,48.12,0.00,-0.06,-14.62,-0.08,-0.09,-0.26,0.00,0.00,0.64
9798,-2.06,1.88,48.31,0.00,0.12,-14.56,-0.08,-0.09,-0.26,0.00,0.00,0.62
9806,-2.06,1.88,48.44,-0.06,0.25,-14.31,-0.09,-0.10,-0.25,0.00,0.00,0.63
9813,-2.06,1.88,48.44,-0.12,0.12,-14.12,-0.12,-0.08,-0.25,0.00,0.00,0.63
9823,-2.06,1.88,48.56,0.00,0.19,-14.12,-0.14,-0.10,-0.28,0.00,0.00,0.62
9855,-2.06,1.94,49.12,0.12,0.06,-14.06,-0.16,-0.02,-0.23,0.00,0.00,0.61
9863,-2.06,1.94,49.12,0.06,0.00,-13.81,-0.16,0.04,-0.21,0.00,0.00,0.63
9872,-2.06,1.94,49.25,0.06,0.00,-13.81,-0.13,0.06,-0.22,0.00,0.00,0.63
9882,-2.06,1.94,49.38,-0.19,0.06,-13.75,-0.14,0.09,-0.24,0.00,0.00,0.64
9892,-2.06,1.94,49.50,-0.25,0.25,-13.62,-0.14,0.11,-0.22,0.00,0.00,0.61
9899,-2.06,1.94,49.62,-0.50,0.12,-13.44,-0.14,0.11,-0.22,0.00,0.00,0.63
9908,-2.06,1.94,49.75,-0.56,-0.06,-13.19,-0.08,0.05,-0.25,0.00,0.00,0.63
9916,-2.06,1.94,49.88,-0.56,0.19,-13.00,-0.02,0.03,-0.25,0.00,0.00,0.62
9926,-2.06,1.94,49.88,-0.62,0.38,-12.56,-0.03,0.02,-0.25,0.00,0.00,0.62
9933,-2.06,1.94,50.00,-0.62,0.25,-12.31,0.01,-0.04,-0.26,0.00,0.00,0.64
9945,-2.06,2.00,50.12,-0.62,0.25,-12.31,0.04,-0.02,-0.25,0.00,0.00,0.64
9953,-2.06,2.00,50.25,-0.44,0.38,-11.88,0.06,-0.05,-0.27,0.00,0.00,0.64
9963,-2.06,2.00,50.38,-0.44,0.44,-11.50,0.06,-0.05,-0.27,0.00,0.00,0.63
9972,-2.06,2.00,50.44,-0.38,0.62,-10.94,0.05,-0.03,-0.26,0.00,0.00,0.64
10002,-2.06,2.00,50.75,0.06,1.00,-10.00,0.07,0.00,-0.26,0.00,0.00,0.63
10009,-2.06,2.00,50.88,0.06,1.19,-9.88,0.08,0.00,-0.25,0.00,0.00,0.63
10017,-2.12,2.00,50.94,0.19,1.31,-9.50,0.01,0.00,-0.27,0.00,0.00,0.63
10024,-2.12,2.00,51.06,0.25,1.69,-9.50,-0.02,0.00,-0.28,0.00,0.00,0.62
10033,-2.12,2.00,51.06,0.25,1.69,-9.50,-0.05,0.00,-0.30,0.00,0.00,0.63
10043,-2.12,2.00,51.12,0.31,1.69,-9.19,-0.09,0.00,-0.28,0.00,0.00,0.61
10051,-2.12,2.00,51.25,0.62,1.81,-9.06,-0.09,0.00,-0.28,0.00,0.00,0.62
10058,-2.12,2.00,51.31,0.62,1.62,-8.62,-0.11,0.04,-0.27,0.00,0.00,0.62
10070,-2.19,2.00,51.38,0.75,1.62,-8.38,-0.14,0.06,-0.26,0.00,0.00,0.62
10077,-2.19,2.00,51.44,0.69,1.44,-7.81,-0.15,0.11,-0.23,0.00,0.00,0.64
10085,-2.19,2.00,51.44,0.69,1.38,-7.50,-0.18,0.11,-0.21,0.00,0.00,0.63
10095,-2.19,2.00,51.56,0.69,1.38,-7.50,-0.31,0.20,-0.19,0.00,0.00,0.64
10103,-2.25,2.00,51.62,0.62,1.19,-6.81,-0.31,0.20,-0.19,0.00,0.00,0.64
10112,-2.25,2.00,51.69,0.62,0.69,-6.75,-0.21,0.13,-0.22,0.00,0.00,0.63
10121,-2.25,1.94,51.75,0.31,0.56,-6.44,-0.34,0.13,-0.22,0.00,0.00,0.64
10154,-2.31,1.94,51.88,-0.06,-0.38,-5.31,-0.32,0.05,-0.23,0.00,0.00,0.64
10161,-2.31,1.94,51.94,-0.19,-0.50,-4.88,-0.37,0.06,-0.23,0.00,0.00,0.62
10172,-2.38,1.94,52.00,-0.31,-0.81,-4.31,-0.29,0.01,-0.26,0.00,0.00,0.63
10181,-2.38,1.94,52.00,-0.12,-1.38,-4.00,-0.30,0.06,-0.24,0.00,0.00,0.62
10194,-2.38,1.94,52.06,-0.06,-1.75,-3.56,-0.26,-0.03,-0.26,0.00,0.00,0.62
10201,-2.38,1.94,52.06,-0.19,-1.94,-3.12,-0.19,-0.04,-0.26,0.00,0.00,0.62
10211,-2.38,1.94,52.12,-0.19,-2.06,-2.81,-0.15,0.00,-0.23,0.00,0.00,0.64
10218,-2.31,1.94,52.12,-0.06,-2.31,-2.31,-0.06,0.01,-0.27,0.00,0.00,0.63
10228,-2.31,1.94,52.12,-0.12,-2.38,-2.00,-0.01,0.00,-0.26,0.00,0.00,0.62
10236,-2.31,1.94,52.12,-0.19,-2.38,-1.62,0.00,-0.02,-0.29,0.00,0.00,0.63
10246,-2.31,1.94,52.19,-0.19,-2.38,-1.62,0.01,-0.04,-0.28,0.00,0.00,0.63
10253,-2.25,1.94,52.19,-0.12,-2.75,-1.19,0.01,-0.04,-0.28,0.00,0.00,0.60
10261,-2.25,1.94,52.19,-0.12,-2.31,-1.00,0.11,-0.03,-0.22,0.00,0.00,0.62
10295,-2.19,1.94,52.19,-0.12,-1.25,-0.12,0.18,-0.03,-0.25,0.00,0.00,0.64
10303,-2.12,1.94,52.19,0.00,-1.12,0.19,0.16,-0.10,-0.28,0.00,0.00,0.62
10312,-2.12,1.94,52.19,-0.12,-0.94,0.44,0.15,-0.10,-0.26,0.00,0.00,0.62
10322,-2.12,1.94,52.19,0.12,-0.31,0.62,0.08,-0.07,-0.25,0.00,0.00,0.63
10330,-2.12,1.94,52.19,0.06,-0.19,1.00,0.06,-0.11,-0.26,0.00,0.00,0.61
10337,-2.12,1.94,52.19,0.00,-0.19,1.06,0.04,-0.12,-0.24,0.00,0.00,0.62
10346,-2.12,1.94,52.19,0.06,0.19,1.12,0.03,-0.09,-0.24,0.00,0.00,0.61
10358,-2.12,1.94,52.19,0.06,0.19,1.12,0.03,-0.09,-0.24,0.00,0.00,0.63
10365,-2.12,2.00,52.12,0.06,0.19,1.38,0.04,-0.02,-0.25,0.00,0.00,0.61
10375,-2.12,2.00,52.12,0.31,0.69,1.38,0.04,-0.02,-0.25,0.00,0.00,0.62
10385,-2.12,2.00,52.12,0.25,0.81,1.44,0.06,0.00,-0.26,0.00,0.00,0.62
10395,-2.19,2.00,52.12,0.19,0.94,1.50,0.02,0.01,-0.28,0.00,0.00,0.64
10403,-2.19,2.00,52.06,0.12,1.25,1.69,-0.03,0.00,-0.26,0.00,0.00,0.62
10411,-2.19,2.00,52.06,0.00,1.31,1.75,-0.05,0.00,-0.23,0.00,0.00,0.64
10419,-2.19,1.94,52.06,0.00,1.31,1.94,-0.07,0.02,-0.26,0.00,0.00,0.63
10450,-2.25,2.00,52.00,0.19,1.62,2.00,-0.24,0.01,-0.24,0.00,0.00,0.62
10457,-2.25,2.00,52.00,0.31,1.50,2.12,-0.25,0.06,-0.25,0.00,0.00,0.63
10465,-2.31,1.94,52.00,0.31,1.50,2.12,-0.25,0.06,-0.25,0.00,0.00,0.62
10473,-2.31,1.94,51.94,0.06,1.69,1.81,-0.20,0.02,-0.25,0.00,0.00,0.64
10482,-2.38,1.94,51.94,0.12,1.50,1.56,-0.22,0.04,-0.19,0.00,0.00,0.62
10490,-2.38,1.94,51.94,-0.06,1.56,1.19,-0.20,0.07,-0.15,0.00,0.00,0.61
10498,-2.38,1.94,51.94,-0.12,1.56,0.81,-0.14,0.03,-0.21,0.00,0.00,0.63
10505,-2.38,1.94,51.94,-0.12,1.56,0.81,-0.14,0.03,-0.21,0.00,0.00,0.64
10512,-2.44,1.94,51.94,0.06,1.62,0.50,-0.17,-0.02,-0.27,0.00,0.00,0.62
10520,-2.44,1.94,51.94,-0.19,1.25,0.12,-0.19,0.03,-0.26,0.00,0.00,0.62
10528,-2.44,1.94,51.94,-0.06,1.38,-0.12,-0.29,-0.04,-0.30,0.00,0.00,0.63
10537,-2.44,1.94,51.94,-0.06,1.38,-0.12,-0.24,0.05,-0.27,0.00,0.00,0.63
10547,-2.50,1.94,51.94,0.06,1.31,-0.44,-0.22,0.00,-0.20,0.00,0.00,0.62
10554,-2.50,1.94,51.94,0.19,1.25,-0.75,-0.22,0.00,-0.20,0.00,0.00,0.62
10589,-2.62,1.94,51.94,0.06,0.94,-1.56,-0.28,0.07,-0.23,0.00,0.00,0.62
10598,-2.62,1.94,52.00,-0.12,0.62,-1.94,-0.31,0.05,-0.27,0.00,0.00,0.62
10608,-2.62,1.94,52.00,-0.12,0.44,-2.25,-0.31,0.05,-0.27,0.00,0.00,0.63
10615,-2.62,1.94,52.06,-0.19,0.19,-2.62,-0.27,-0.01,-0.26,0.00,0.00,0.63
10626,-2.69,1.94,52.06,-0.19,0.12,-3.12,-0.29,-0.02,-0.27,0.00,0.00,0.63
10636,-2.69,1.94,52.12,-0.12,-0.19,-3.44,-0.27,0.00,-0.22,0.00,0.00,0.62
10647,-2.69,1.94,52.12,-0.12,-0.50,-3.62,-0.24,0.00,-0.20,0.00,0.00,0.61
10654,-2.75,2.00,52.19,-0.25,-0.56,-3.88,-0.26,-0.05,-0.23,0.00,0.00,0.62
10664,-2.75,2.00,52.19,-0.12,-0.56,-4.25,-0.24,0.05,-0.23,0.00,0.00,0.62
10671,-2.75,2.00,52.25,-0.12,-0.69,-4.38,-0.21,0.06,-0.27,0.00,0.00,0.62
10681,-2.75,2.00,52.25,-0.19,-0.81,-4.56,-0.14,0.07,-0.24,0.00,0.00,0.61
10689,-2.75,2.00,52.31,-0.25,-1.06,-4.62,-0.11,0.05,-0.22,0.00,0.00,0.62
10700,-2.75,2.00,52.31,-0.25,-1.06,-4.62,-0.05,0.08,-0.22,0.00,0.00,0.63
10708,-2.75,2.00,52.38,-0.38,-1.19,-4.81,-0.05,0.08,-0.22,0.00,0.00,0.63
10740,-2.69,2.00,52.50,-0.62,-1.25,-4.62,0.01,0.02,-0.27,0.00,0.00,0.62
10749,-2.69,2.00,52.56,-0.62,-1.25,-4.62,0.02,-0.01,-0.27,0.00,0.00,0.62
10758,-2.69,2.00,52.62,-0.50,-1.38,-4.62,0.02,-0.01,-0.27,0.00,0.00,0.62
10766,-2.62,2.00,52.69,-0.38,-0.94,-4.50,0.00,-0.06,-0.28,0.00,0.00,0.64
10775,-2.62,2.00,52.69,-0.56,-0.88,-4.44,0.04,-0.01,-0.27,0.00,0.00,0.62
10782,-2.62,2.00,52.75,-0.38,-0.88,-4.50,0.01,0.00,-0.25,0.00,0.00,0.62
10790,-2.62,2.00,52.75,-0.12,-0.81,-4.44,-0.02,0.06,-0.22,0.00,0.00,0.62
10799,-2.62,2.00,52.81,-0.12,-0.81,-4.44,-0.01,-0.13,-0.26,0.00,0.00,0.63
10807,-2.62,2.00,52.81,-0.12,-0.94,-4.38,-0.01,-0.13,-0.26,0.00,0.00,0.64
10815,-2.62,2.00,52.88,-0.19,-0.75,-4.56,-0.02,-0.04,-0.27,0.00,0.00,0.62
10822,-2.62,2.00,52.94,0.19,-0.50,-4.56,-0.03,-0.11,-0.28,0.00,0.00,0.64
10830,-2.62,2.00,52.94,0.69,-0.50,-4.56,-0.03,-0.09,-0.31,0.00,0.00,0.64
10840,-2.62,2.00,52.94,0.69,-0.50,-4.56,0.03,-0.03,-0.27,0.00,0.00,0.62
10850,-2.62,2.00,53.00,0.56,-0.38,-4.75,0.02,0.00,-0.25,0.00,0.00,0.63
10881,-2.56,2.00,53.12,0.56,0.19,-4.75,0.00,0.03,-0.26,0.00,0.00,0.62
10890,-2.56,2.00,53.19,0.56,0.19,-4.75,-0.04,0.06,-0.22,0.00,0.00,0.62
10900,-2.56,2.00,53.25,0.69,0.31,-4.75,-0.05,0.04,-0.24,0.00,0.00,0.63
10908,-2.56,2.00,53.31,0.62,0.25,-4.62,-0.05,0.04,-0.24,0.00,0.00,0.63
10915,-2.56,2.00,53.31,0.50,0.31,-4.81,-0.18,0.00,-0.23,0.00,0.00,0.62
10924,-2.62,2.00,53.38,0.56,0.31,-4.94,-0.22,0.00,-0.24,0.00,0.00,0.64
10932,-2.62,2.00,53.44,0.50,0.44,-5.25,-0.19,0.02,-0.22,0.00,0.00,0.62
10942,-2.62,2.00,53.44,0.50,0.44,-5.25,-0.24,-0.02,-0.24,0.00,0.00,0.63
10951,-2.62,2.00,53.50,0.56,0.12,-5.62,-0.25,-0.03,-0.24,0.00,0.00,0.62
10960,-2.62,2.00,53.56,0.44,0.12,-5.94,-0.25,-0.03,-0.24,0.00,0.00,0.62
10968,-2.62,2.00,53.62,0.44,0.06,-6.44,-0.21,-0.02,-0.24,0.00,0.00,0.63
10977,-2.62,2.00,53.69,0.38,0.25,-7.00,-0.20,0.00,-0.23,0.00,0.00,0.62
10986,-2.62,2.00,53.75,0.31,0.00,-7.38,-0.19,0.02,-0.27,0.00,0.00,0.62
10997,-2.62,2.00,53.81,0.31,0.12,-7.75,-0.13,0.03,-0.23,0.00,0.00,0.62
11028,-2.62,2.00,54.06,0.12,0.25,-9.25,-0.06,0.05,-0.22,0.00,0.00,0.62
11039,-2.62,2.06,54.19,-0.19,0.19,-9.81,-0.09,0.02,-0.22,0.00,0.00,0.62
11049,-2.62,2.06,54.25,-0.06,0.50,-10.31,-0.10,-0.01,-0.25,0.00,0.00,0.62
11056,-2.69,2.06,54.38,-0.12,0.81,-10.81,-0.10,-0.05,-0.26,0.00,0.00,0.62
11064,-2.69,2.06,54.50,0.12,0.75,-11.44,-0.12,-0.09,-0.26,0.00,0.00,0.62
11071,-2.69,2.06,54.50,0.12,0.75,-11.44,-0.16,-0.11,-0.27,0.00,0.00,0.63
11080,-2.69,2.06,54.62,0.00,0.62,-11.69,-0.16,-0.11,-0.27,0.00,0.00,0.62
11092,-2.69,2.06,54.75,0.50,0.56,-12.06,-0.15,-0.07,-0.24,0.00,0.00,0.62
11102,-2.69,2.06,54.88,0.50,0.69,-12.62,-0.17,-0.02,-0.27,0.00,0.00,0.64
11110,-2.69,2.06,55.00,0.50,0.38,-12.75,-0.17,-0.02,-0.27,0.00,0.00,0.63
11117,-2.69,2.06,55.12,0.56,0.56,-13.12,-0.11,0.06,-0.24,0.00,0.00,0.63
11124,-2.69,2.12,55.25,0.50,0.56,-13.38,-0.09,0.08,-0.23,0.00,0.00,0.64
11132,-2.69,2.12,55.25,0.38,0.50,-13.25,-0.12,0.12,-0.21,0.00,0.00,0.62
11143,-2.69,2.12,55.38,0.38,0.50,-13.25,-0.11,0.13,-0.22,0.00,0.00,0.62
11173,-2.69,2.12,55.75,-0.12,0.31,-13.62,-0.14,0.01,-0.23,0.00,0.00,0.62
11183,-2.69,2.12,55.88,-0.12,0.31,-13.62,-0.18,-0.04,-0.24,0.00,0.00,0.63
11192,-2.69,2.12,56.00,-0.19,0.00,-13.75,-0.18,-0.08,-0.26,0.00,0.00,0.62
11205,-2.69,2.12,56.12,-0.12,0.12,-13.69,-0.15,-0.11,-0.25,0.00,0.00,0.62
11212,-2.69,2.12,56.31,0.00,0.12,-13.88,-0.12,-0.09,-0.25,0.00,0.00,0.62
11224,-2.69,2.12,56.44,0.12,0.19,-14.06,-0.12,-0.09,-0.25,0.00,0.00,0.63
11233,-2.69,2.19,56.56,0.12,-0.06,-13.88,-0.08,-0.03,-0.29,0.00,0.00,0.62
11242,-2.69,2.19,56.69,0.31,-0.25,-13.88,-0.06,0.03,-0.24,0.00,0.00,0.63
11252,-2.69,2.19,56.81,0.38,-0.12,-14.06,-0.10,0.04,-0.24,0.00,0.00,0.62
11261,-2.69,2.19,56.94,0.31,-0.25,-14.12,-0.10,0.04,-0.24,0.00,0.00,0.62
11269,-2.69,2.19,57.12,0.25,-0.31,-14.19,-0.05,0.07,-0.19,0.00,0.00,0.64
11276,-2.69,2.19,57.25,0.38,-0.25,-14.19,-0.02,0.05,-0.22,0.00,0.00,0.61
11284,-2.69,2.19,57.38,0.31,-0.06,-14.38,-0.01,0.06,-0.25,0.00,0.00,0.64
11293,-2.69,2.19,57.38,0.31,-0.06,-14.38,-0.01,0.06,-0.23,0.00,0.00,0.62
11323,-2.62,2.19,57.81,0.19,0.06,-14.38,0.04,-0.03,-0.25,0.00,0.00,0.61
11333,-2.62,2.25,57.94,0.19,0.31,-14.31,0.04,0.00,-0.27,0.00,0.00,0.63
11343,-2.62,2.25,58.06,0.19,0.44,-14.38,0.00,-0.03,-0.24,0.00,0.00,0.62
11354,-2.62,2.25,58.19,0.44,0.56,-14.31,0.00,-0.03,-0.24,0.00,0.00,0.62
11362,-2.62,2.25,58.38,0.38,0.75,-14.38,-0.02,-0.03,-0.23,0.00,0.00,0.61
11372,-2.62,2.25,58.50,0.50,0.88,-14.44,-0.02,-0.06,-0.26,0.00,0.00,0.63
11379,-2.62,2.25,58.62,0.88,0.62,-14.50,-0.06,-0.05,-0.25,0.00,0.00,0.62
11389,-2.62,2.25,58.75,0.88,0.88,-14.50,-0.05,0.00,-0.28,0.00,0.00,0.62
11397,-2.62,2.25,58.94,0.81,1.00,-14.81,-0.07,0.03,-0.25,0.00,0.00,0.62
11406,-2.62,2.25,58.94,1.00,0.94,-14.94,-0.04,0.03,-0.23,0.00,0.00,0.61
11414,-2.62,2.25,59.06,1.00,0.94,-14.94,-0.07,0.02,-0.19,0.00,0.00,0.62
11421,-2.69,2.25,59.19,0.75,1.00,-14.88,-0.07,0.02,-0.19,0.00,0.00,0.61
11429,-2.69,2.25,59.38,0.94,1.12,-15.06,-0.09,0.05,-0.22,0.00,0.00,0.61
11436,-2.69,2.25,59.50,0.88,1.00,-15.12,-0.10,0.08,-0.22,0.00,0.00,0.61
11466,-2.69,2.25,59.94,0.69,0.88,-15.50,-0.14,0.05,-0.26,0.00,0.00,0.60
11473,-2.69,2.25,59.94,0.69,0.88,-15.50,-0.14,0.05,-0.26,0.00,0.00,0.60
11481,-2.69,2.25,60.06,0.56,0.75,-15.50,-0.16,0.05,-0.23,0.00,0.00,0.60
11489,-2.69,2.25,60.25,0.50,0.62,-15.62,-0.14,0.02,-0.26,0.00,0.00,0.59
11496,-2.69,2.25,60.38,0.56,0.56,-15.31,-0.15,0.00,-0.23,0.00,0.00,0.61
11505,-2.69,2.25,60.38,0.56,0.56,-15.31,-0.14,0.02,-0.22,0.00,0.00,0.61
11512,-2.69,2.25,60.56,0.56,0.38,-15.50,-0.14,0.02,-0.22,0.00,0.00,0.59
11520,-2.69,2.25,60.69,0.69,0.44,-15.50,-0.11,0.00,-0.24,0.00,0.00,0.61
11527,-2.69,2.25,60.81,0.69,0.25,-15.44,-0.11,0.00,-0.25,0.00,0.00,0.61
11536,-2.69,2.25,60.81,0.69,0.25,-15.62,-0.09,0.06,-0.25,0.00,0.00,0.60
11545,-2.69,2.25,61.00,0.69,0.25,-15.62,-0.08,0.06,-0.23,0.00,0.00,0.61
11555,-2.69,2.25,61.12,0.75,0.00,-15.50,-0.09,0.06,-0.22,0.00,0.00,0.61
11567,-2.69,2.25,61.31,0.81,0.19,-15.69,-0.09,0.06,-0.22,0.00,0.00,0.61
11577,-2.69,2.25,61.44,0.81,0.00,-15.75,-0.10,0.04,-0.22,0.00,0.00,0.61
11607,-2.69,2.25,62.06,0.81,-0.31,-15.62,-0.04,-0.02,-0.25,0.00,0.00,0.61
11618,-2.69,2.25,62.06,0.81,-0.31,-15.62,-0.04,-0.02,-0.25,0.00,0.00,0.61
11626,-2.69,2.25,62.19,1.00,-0.12,-15.38,-0.04,-0.05,-0.26,0.00,0.00,0.62
11638,-2.69,2.25,62.38,1.19,-0.31,-15.00,-0.06,-0.02,-0.26,0.00,0.00,0.62
11646,-2.62,2.25,62.50,1.38,-0.75,-14.31,-0.08,0.01,-0.26,0.00,0.00,0.61
11658,-2.62,2.25,62.62,1.38,-0.75,-14.31,-0.10,0.05,-0.24,0.00,0.00,0.63
11666,-2.62,2.25,62.75,1.25,-0.81,-13.88,-0.11,0.05,-0.23,0.00,0.00,0.62
11674,-2.62,2.19,62.88,1.44,-0.50,-13.50,-0.11,0.05,-0.23,0.00,0.00,0.61
11682,-2.62,2.19,63.06,1.38,-1.06,-13.25,-0.09,0.06,-0.22,0.00,0.00,0.60
11691,-2.62,2.19,63.19,1.31,-1.00,-12.94,-0.11,0.08,-0.26,0.00,0.00,0.61
11698,-2.56,2.19,63.25,1.44,-1.06,-12.50,-0.12,0.11,-0.23,0.00,0.00,0.61
11707,-2.56,2.19,63.25,1.19,-1.12,-12.19,-0.13,0.10,-0.21,0.00,0.00,0.62
11714,-2.56,2.19,63.38,1.19,-1.12,-12.19,-0.13,0.10,-0.21,0.00,0.00,0.61
11757,-2.50,2.19,63.81,1.00,-2.00,-10.19,-0.16,0.00,-0.26,0.00,0.00,0.61
11765,-2.44,2.19,63.94,1.00,-2.00,-10.19,-0.16,0.00,-0.26,0.00,0.00,0.61
11772,-2.44,2.19,64.00,0.88,-2.00,-9.56,-0.15,0.02,-0.24,0.00,0.00,0.61
11779,-2.44,2.12,64.12,0.88,-2.19,-9.38,-0.10,0.03,-0.22,0.00,0.00,0.60
11792,-2.44,2.12,64.12,0.94,-2.38,-8.88,-0.07,0.01,-0.28,0.00,0.00,0.61
11800,-2.38,2.12,64.25,0.88,-2.19,-8.38,-0.03,0.04,-0.26,0.00,0.00,0.61
11808,-2.38,2.12,64.25,0.88,-2.38,-7.69,0.00,0.08,-0.23,0.00,0.00,0.62
11815,-2.31,2.12,64.38,0.88,-2.38,-7.69,0.00,0.08,-0.23,0.00,0.00,0.61
11822,-2.31,2.12,64.44,0.94,-2.56,-7.19,0.06,0.13,-0.20,0.00,0.00,0.61
11829,-2.31,2.12,64.50,0.75,-2.38,-6.56,0.09,0.15,-0.21,0.00,0.00,0.62
11838,-2.31,2.12,64.50,0.69,-2.44,-5.81,0.13,0.16,-0.21,0.00,0.00,0.61
11848,-2.25,2.12,64.56,0.69,-2.44,-5.81,0.24,0.17,-0.18,0.00,0.00,0.62
11858,-2.25,2.12,64.56,0.50,-2.19,-5.00,0.26,0.16,-0.22,0.00,0.00,0.61
11867,-2.19,2.12,64.62,0.19,-1.94,-4.06,0.26,0.16,-0.22,0.00,0.00,0.62
11874,-2.19,2.12,64.69,0.06,-1.50,-3.06,0.25,0.10,-0.24,0.00,0.00,0.62
11908,-2.12,2.12,64.69,0.12,-1.00,0.25,0.14,-0.12,-0.30,0.00,0.00,0.62
11915,-2.12,2.12,64.69,0.06,-1.12,1.44,0.14,-0.12,-0.30,0.00,0.00,0.62
11925,-2.06,2.12,64.62,0.19,-0.94,2.56,0.16,-0.18,-0.31,0.00,0.00,0.64
11932,-2.06,2.12,64.62,0.56,-0.88,3.81,0.20,0.00,-0.24,0.00,0.00,0.61
11942,-2.06,2.12,64.56,0.69,-0.88,5.38,0.20,-0.01,-0.25,0.00,0.00,0.63
11949,-2.06,2.12,64.56,0.81,-0.81,6.81,0.25,0.08,-0.25,0.00,0.00,0.61
11959,-2.06,2.12,64.50,0.81,-0.81,6.81,0.30,0.15,-0.25,0.00,0.00,0.61
11967,-2.00,2.06,64.44,0.88,-0.69,8.50,0.30,0.15,-0.25,0.00,0.00,0.61
11974,-2.00,2.06,64.31,0.75,-0.62,10.31,0.32,0.23,-0.24,0.00,0.00,0.61
11981,-2.00,2.06,64.19,0.44,-0.25,12.12,0.38,0.36,-0.21,0.00,0.00,0.60
11991,-2.00,2.06,64.19,0.00,-0.12,14.50,0.35,0.25,-0.23,0.00,0.00,0.62
11999,-2.00,2.06,64.06,-0.38,0.00,16.88,0.27,0.04,-0.23,0.00,0.00,0.61
12011,-2.00,2.06,63.88,-0.38,0.00,16.88,0.23,0.03,-0.22,0.00,0.00,0.60
12019,-2.00,2.00,63.69,-0.44,-0.06,19.31,0.21,-0.04,-0.25,0.00,0.00,0.61
12051,-2.00,2.00,63.00,-0.56,-0.44,30.31,0.22,0.05,-0.28,0.00,0.00,0.61
12060,-2.06,2.00,62.69,-0.44,-0.56,33.12,0.26,0.15,-0.25,0.00,0.00,0.61
12068,-2.06,2.00,62.38,-0.44,-0.56,33.12,0.26,0.15,-0.25,0.00,0.00,0.62
12076,-2.00,1.94,62.00,-0.75,-0.69,35.94,0.30,0.22,-0.21,0.00,0.00,0.62
12083,-2.00,1.94,61.62,-1.12,-0.69,38.75,0.29,0.31,-0.20,0.00,0.00,0.61
12091,-2.00,1.94,61.25,-1.44,-0.81,41.44,0.29,0.28,-0.18,0.00,0.00,0.61
12100,-2.00,1.94,61.25,-1.44,-0.81,41.44,0.30,0.25,-0.21,0.00,0.00,0.63
12109,-2.00,1.94,60.81,-1.94,-0.81,44.38,0.26,0.18,-0.20,0.00,0.00,0.63
12117,-2.00,1.94,60.38,-2.19,-0.94,46.94,0.26,0.18,-0.20,0.00,0.00,0.61
12125,-2.00,1.94,59.88,-2.56,-0.69,49.81,0.25,0.14,-0.23,0.00,0.00,0.62
12132,-2.00,1.94,59.38,-2.94,-0.88,52.44,0.24,0.08,-0.26,0.00,0.00,0.61
12140,-2.00,1.94,59.38,-3.12,-0.69,55.06,0.22,0.04,-0.30,0.00,0.00,0.61
12149,-2.00,1.94,58.81,-3.12,-0.69,55.06,0.19,0.06,-0.30,0.00,0.00,0.63
12159,-2.00,1.94,58.25,-3.00,-1.06,58.06,0.19,0.06,-0.30,0.00,0.00,0.61
12191,-2.00,1.94,56.44,-3.00,-1.00,68.31,0.26,0.15,-0.26,0.00,0.00,0.63
12201,-2.00,1.94,55.75,-3.00,-1.00,68.31,0.29,0.23,-0.24,0.00,0.00,0.62
12210,-2.00,1.94,55.06,-3.06,-0.94,71.00,0.32,0.30,-0.18,0.00,0.00,0.61
12217,-2.00,1.94,54.38,-3.25,-1.00,73.50,0.32,0.30,-0.18,0.00,0.00,0.62
12225,-2.00,1.94,53.62,-3.56,-1.00,76.06,0.35,0.37,-0.19,0.00,0.00,0.61
12233,-2.00,1.94,52.88,-3.62,-0.94,78.69,0.34,0.41,-0.16,0.00,0.00,0.61
12241,-2.00,1.94,52.88,-4.00,-0.62,81.06,0.34,0.37,-0.22,0.00,0.00,0.62
12251,-2.00,1.94,52.06,-4.00,-0.62,81.06,0.35,0.33,-0.23,0.00,0.00,0.62
12261,-2.06,1.94,51.25,-4.38,-0.38,83.31,0.32,0.29,-0.26,0.00,0.00,0.61
12268,-2.06,1.94,50.44,-4.81,-0.25,86.00,0.32,0.29,-0.26,0.00,0.00,0.61
12275,-2.06,1.94,49.56,-5.00,-0.12,88.38,0.27,0.20,-0.27,0.00,0.00,0.62
12283,-2.12,2.00,48.69,-5.06,0.19,90.56,0.27,0.14,-0.27,0.00,0.00,0.61
12292,-2.12,2.00,48.69,-5.06,0.25,93.19,0.26,0.13,-0.28,0.00,0.00,0.62
12301,-2.12,2.00,47.81,-5.06,0.25,93.19,0.24,0.17,-0.26,0.00,0.00,0.60
12331,-2.19,2.00,45.00,-4.75,0.56,99.81,0.27,0.27,-0.24,0.00,0.00,0.62
12340,-2.25,2.00,44.00,-4.62,0.62,102.12,0.26,0.35,-0.23,0.00,0.00,0.61
12350,-2.31,2.00,43.00,-4.62,0.31,104.25,0.27,0.45,-0.27,0.00,0.00,0.62
12361,-2.31,2.00,41.94,-4.62,0.81,106.25,0.27,0.51,-0.21,0.00,0.00,0.61
12370,-2.38,2.00,40.88,-4.94,0.94,108.25,0.26,0.55,-0.21,0.00,0.00,0.61
12377,-2.44,2.00,39.81,-5.25,1.12,110.19,0.25,0.58,-0.22,0.00,0.00,0.61
12389,-2.50,2.06,38.75,-5.56,1.06,112.25,0.25,0.58,-0.19,0.00,0.00,0.62
12397,-2.50,2.06,37.62,-5.69,1.00,114.12,0.18,0.53,-0.23,0.00,0.00,0.62
12409,-2.56,2.06,36.50,-6.00,1.25,116.00,0.17,0.51,-0.22,0.00,0.00,0.61
12416,-2.62,2.06,35.38,-6.06,1.31,118.00,0.19,0.49,-0.23,0.00,0.00,0.61
12428,-2.69,2.06,34.19,-6.19,1.31,121.38,0.14,0.45,-0.25,0.00,0.00,0.61
12435,-2.75,2.06,33.00,-6.19,1.31,121.38,0.16,0.45,-0.25,0.00,0.00,0.61
12446,-2.75,2.06,33.00,-6.31,1.50,123.00,0.14,0.45,-0.27,0.00,0.00,0.62
12454,-2.88,2.06,30.62,-6.19,1.38,126.19,0.15,0.52,-0.25,0.00,0.00,0.60
12486,-3.00,2.06,28.12,-6.12,1.31,129.00,0.14,0.57,-0.23,0.00,0.00,0.63
12493,-3.06,2.06,26.88,-6.31,1.19,130.12,0.13,0.57,-0.21,0.00,0.00,0.61
12503,-3.12,2.06,25.62,-6.31,1.19,130.12,0.12,0.61,-0.19,0.00,0.00,0.61
12513,-3.12,2.06,24.31,-6.44,1.25,132.69,0.10,0.62,-0.21,0.00,0.00,0.60
12522,-3.19,2.00,23.00,-6.50,1.19,133.81,0.10,0.62,-0.21,0.00,0.00,0.61
12529,-3.25,2.00,21.69,-6.69,1.19,134.69,0.10,0.62,-0.21,0.00,0.00,0.62
12538,-3.31,2.00,20.38,-6.75,1.31,135.81,0.10,0.64,-0.19,0.00,0.00,0.61
12546,-3.38,2.00,19.06,-6.81,1.38,136.81,0.13,0.63,-0.21,0.00,0.00,0.61
12556,-3.38,2.00,19.06,-6.81,1.44,137.56,0.10,0.64,-0.22,0.00,0.00,0.60
12564,-3.44,2.00,17.75,-7.00,1.38,138.50,0.11,0.61,-0.19,0.00,0.00,0.63
12574,-3.50,1.94,16.38,-7.00,1.38,138.50,0.11,0.61,-0.19,0.00,0.00,0.63
12582,-3.56,1.94,15.06,-7.12,1.31,139.19,0.10,0.57,-0.22,0.00,0.00,0.62
12593,-3.62,1.94,13.69,-6.88,1.25,139.94,0.07,0.56,-0.23,0.00,0.00,0.62
12603,-3.69,1.94,12.31,-7.06,1.19,140.44,0.06,0.57,-0.24,0.00,0.00,0.62
12634,-3.88,1.88,8.19,-7.06,1.44,141.62,0.06,0.55,-0.19,0.00,0.00,0.60
12643,-3.94,1.81,6.81,-7.00,1.31,141.88,0.04,0.60,-0.21,0.00,0.00,0.61
12653,-4.00,1.81,5.44,-7.12,1.12,142.31,0.04,0.60,-0.21,0.00,0.00,0.61
12663,-4.06,1.75,4.06,-7.06,1.31,142.31,0.04,0.57,-0.22,0.00,0.00,0.60
12672,-4.06,1.75,2.69,-7.06,1.25,142.38,0.02,0.61,-0.19,0.00,0.00,0.61
12680,-4.12,1.69,1.31,-7.25,1.19,142.44,0.02,0.59,-0.19,0.00,0.00,0.60
12689,-4.19,1.69,-0.06,-7.31,1.38,142.38,0.00,0.58,-0.18,0.00,0.00,0.63
12697,-4.25,1.62,-1.44,-7.19,1.06,142.12,-0.01,0.57,-0.16,0.00,0.00,0.60
12708,-4.25,1.62,-1.44,-7.38,1.19,142.00,-0.01,0.55,-0.17,0.00,0.00,0.62
12716,-4.38,1.56,-4.19,-7.44,0.94,141.44,-0.04,0.54,-0.15,0.00,0.00,0.61
12727,-4.38,1.56,-4.19,-7.44,0.94,141.44,-0.04,0.54,-0.15,0.00,0.00,0.62
12734,-4.38,1.56,-5.56,-7.56,1.00,140.94,-0.05,0.49,-0.18,0.00,0.00,0.61
12747,-4.44,1.50,-6.94,-7.62,0.88,140.56,-0.10,0.51,-0.20,0.00,0.00,0.61
12755,-4.50,1.50,-8.25,-7.44,0.88,139.38,-0.13,0.49,-0.22,0.00,0.00,0.61
12787,-4.62,1.38,-12.31,-7.69,0.38,138.06,-0.29,0.40,-0.16,0.00,0.00,0.61
12795,-4.62,1.31,-13.62,-7.69,-0.38,136.31,-0.26,0.40,-0.16,0.00,0.00,0.58
12805,-4.69,1.31,-15.00,-7.69,-0.38,136.31,-0.35,0.29,-0.16,0.00,0.00,0.61
12815,-4.69,1.25,-16.31,-7.56,-0.81,135.38,-0.19,0.22,-0.17,0.00,0.00,0.61
12824,-4.69,1.25,-17.56,-7.56,-1.12,134.38,-0.19,0.22,-0.17,0.00,0.00,0.61
12831,-4.69,1.19,-18.88,-7.44,-1.50,133.31,-0.30,0.18,-0.27,0.00,0.00,0.61
12839,-4.75,1.19,-20.19,-7.31,-1.81,132.12,-0.17,0.19,-0.25,0.00,0.00,0.62
12847,-4.75,1.12,-21.44,-7.06,-2.12,130.88,-0.27,0.13,-0.28,0.00,0.00,0.61
12857,-4.75,1.12,-21.44,-7.06,-2.12,130.88,-0.27,0.17,-0.21,0.00,0.00,0.61
12866,-4.75,1.12,-22.69,-6.62,-2.69,128.25,-0.25,0.14,-0.19,0.00,0.00,0.63
12876,-4.75,1.06,-23.94,-6.62,-2.69,128.25,-0.25,0.14,-0.19,0.00,0.00,0.61
12883,-4.75,1.00,-25.19,-6.44,-2.62,126.88,-0.18,0.13,-0.17,0.00,0.00,0.61
12894,-4.75,1.00,-26.38,-6.44,-2.75,125.56,-0.27,0.10,-0.15,0.00,0.00,0.62
12924,-4.69,0.88,-29.94,-6.19,-3.44,120.88,-0.20,0.16,-0.23,0.00,0.00,0.61
12933,-4.69,0.81,-31.12,-6.06,-3.44,119.31,-0.24,0.07,-0.22,0.00,0.00,0.62
12941,-4.62,0.81,-32.25,-6.12,-3.44,117.44,-0.12,0.06,-0.22,0.00,0.00,0.63
12951,-4.62,0.75,-33.38,-6.06,-3.62,115.62,-0.20,0.00,-0.20,0.00,0.00,0.61
12959,-4.62,0.75,-34.50,-5.94,-3.75,113.88,-0.15,0.00,-0.20,0.00,0.00,0.61
12967,-4.62,0.75,-34.50,-5.75,-3.44,111.94,-0.12,-0.02,-0.21,0.00,0.00,0.61
12974,-4.56,0.69,-35.56,-5.75,-3.44,111.94,-0.12,-0.02,-0.21,0.00,0.00,0.61
12983,-4.56,0.69,-36.62,-5.81,-3.56,110.25,-0.12,-0.09,-0.25,0.00,0.00,0.62
12991,-4.56,0.62,-37.69,-5.56,-3.44,108.12,-0.10,-0.09,-0.27,0.00,0.00,0.62
12999,-4.50,0.62,-38.69,-5.38,-3.25,106.06,-0.04,-0.11,-0.28,0.00,0.00,0.61
13007,-4.50,0.62,-38.69,-5.12,-3.19,103.88,-0.04,-0.13,-0.28,0.00,0.00,0.61
13019,-4.50,0.56,-39.69,-5.12,-3.19,103.88,-0.07,-0.05,-0.23,0.00,0.00,0.61
13027,-4.50,0.56,-40.69,-4.94,-2.94,101.94,-0.03,-0.09,-0.22,0.00,0.00,0.62
13036,-4.50,0.50,-41.69,-4.81,-2.81,99.81,-0.03,-0.09,-0.22,0.00,0.00,0.60
13068,-4.44,0.44,-44.44,-4.50,-2.00,91.06,-0.06,-0.05,-0.21,0.00,0.00,0.61
13078,-4.44,0.44,-45.31,-4.50,-2.00,91.06,-0.06,-0.05,-0.21,0.00,0.00,0.61
13085,-4.38,0.38,-46.19,-4.69,-1.88,88.69,-0.11,-0.06,-0.20,0.00,0.00,0.62
13093,-4.38,0.38,-47.00,-4.62,-1.56,86.31,-0.08,-0.12,-0.23,0.00,0.00,0.62
13100,-4.38,0.38,-47.88,-4.88,-1.38,84.00,-0.08,-0.12,-0.25,0.00,0.00,0.62
13108,-4.38,0.38,-47.88,-4.81,-1.12,81.56,-0.10,-0.16,-0.23,0.00,0.00,0.63
13118,-4.38,0.38,-48.62,-4.81,-1.12,81.56,-0.09,-0.18,-0.23,0.00,0.00,0.60
13125,-4.38,0.38,-49.44,-4.69,-0.94,79.25,-0.09,-0.18,-0.23,0.00,0.00,0.62
13132,-4.38,0.31,-50.12,-4.50,-0.75,76.62,-0.08,-0.18,-0.25,0.00,0.00,0.61
13140,-4.38,0.31,-50.88,-4.69,-0.50,74.25,-0.12,-0.23,-0.24,0.00,0.00,0.62
13151,-4.38,0.31,-50.88,-4.50,-0.31,71.94,-0.11,-0.24,-0.28,0.00,0.00,0.62
13159,-4.38,0.31,-51.56,-4.31,0.00,69.25,-0.08,-0.25,-0.25,0.00,0.00,0.62
13172,-4.38,0.31,-52.25,-4.31,0.00,69.25,-0.15,-0.23,-0.22,0.00,0.00,0.63
13202,-4.44,0.31,-54.69,-3.94,0.81,58.94,-0.17,-0.28,-0.28,0.00,0.00,0.62
13212,-4.50,0.38,-55.25,-3.94,0.69,56.38,-0.21,-0.26,-0.25,0.00,0.00,0.64
13220,-4.50,0.38,-55.75,-3.94,0.69,53.88,-0.18,-0.23,-0.26,0.00,0.00,0.63
13230,-4.50,0.38,-55.75,-3.94,0.69,53.88,-0.18,-0.23,-0.26,0.00,0.00,0.62
13237,-4.50,0.38,-56.25,-3.81,0.75,51.12,-0.21,-0.22,-0.24,0.00,0.00,0.61
13248,-4.56,0.38,-56.69,-3.88,1.00,48.38,-0.23,-0.26,-0.24,0.00,0.00,0.62
13258,-4.56,0.38,-57.19,-3.62,0.94,45.75,-0.24,-0.27,-0.27,0.00,0.00,0.62
13268,-4.62,0.44,-57.56,-3.50,1.00,43.19,-0.27,-0.29,-0.25,0.00,0.00,0.61
13275,-4.62,0.44,-58.00,-3.44,1.00,40.50,-0.28,-0.28,-0.25,0.00,0.00,0.62
13283,-4.62,0.44,-58.31,-3.50,1.00,37.69,-0.24,-0.28,-0.26,0.00,0.00,0.60
13291,-4.69,0.50,-58.69,-3.31,1.00,35.19,-0.29,-0.39,-0.27,0.00,0.00,0.61
13299,-4.69,0.50,-58.69,-3.00,0.94,32.44,-0.29,-0.36,-0.27,0.00,0.00,0.61
13310,-4.75,0.50,-59.00,-3.00,0.94,32.44,-0.29,-0.37,-0.27,0.00,0.00,0.61
13319,-4.75,0.56,-59.25,-2.94,0.88,29.62,-0.28,-0.37,-0.28,0.00,0.00,0.60
13352,-4.88,0.69,-60.00,-2.31,0.50,18.75,-0.31,-0.33,-0.27,0.00,0.00,0.62
13360,-4.88,0.69,-60.19,-2.00,0.38,15.94,-0.31,-0.30,-0.21,0.00,0.00,0.63
13372,-4.94,0.75,-60.31,-2.00,0.38,15.94,-0.29,-0.34,-0.25,0.00,0.00,0.62
13380,-4.94,0.75,-60.44,-1.88,0.44,13.06,-0.29,-0.32,-0.23,0.00,0.00,0.61
13390,-5.00,0.81,-60.56,-1.88,0.25,10.50,-0.29,-0.32,-0.23,0.00,0.00,0.63
13400,-5.00,0.88,-60.62,-1.56,-0.25,7.88,-0.26,-0.35,-0.27,0.00,0.00,0.63
13411,-5.06,0.88,-60.69,-1.38,-0.31,5.00,-0.26,-0.33,-0.27,0.00,0.00,0.62
13420,-5.06,0.94,-60.69,-1.12,-0.19,2.25,-0.27,-0.32,-0.26,0.00,0.00,0.63
13432,-5.12,1.00,-60.69,-1.00,-0.25,-0.44,-0.27,-0.32,-0.26,0.00,0.00,0.62
13441,-5.12,1.00,-60.69,-0.75,-0.50,-3.12,-0.27,-0.29,-0.24,0.00,0.00,0.62
13450,-5.12,1.06,-60.62,-0.62,-0.62,-5.88,-0.22,-0.26,-0.26,0.00,0.00,0.63
13460,-5.12,1.06,-60.50,-0.44,-0.62,-8.69,-0.25,-0.23,-0.24,0.00,0.00,0.64
13471,-5.19,1.12,-60.38,-0.25,-1.00,-11.31,-0.22,-0.21,-0.26,0.00,0.00,0.61
13479,-5.19,1.12,-60.25,-0.12,-1.00,-14.06,-0.22,-0.21,-0.26,0.00,0.00,0.63
13514,-5.19,1.25,-59.69,0.12,-1.19,-22.38,-0.13,-0.23,-0.27,0.00,0.00,0.62
13522,-5.19,1.25,-59.44,0.50,-1.00,-27.81,-0.15,-0.22,-0.25,0.00,0.00,0.61
13533,-5.12,1.31,-59.19,0.50,-1.00,-27.81,-0.15,-0.22,-0.25,0.00,0.00,0.63
13540,-5.12,1.31,-58.88,0.69,-1.00,-30.38,-0.12,-0.15,-0.25,0.00,0.00,0.62
13554,-5.12,1.38,-58.56,1.00,-1.12,-33.12,-0.12,-0.15,-0.25,0.00,0.00,0.62
13566,-5.12,1.38,-58.25,1.31,-1.00,-38.44,-0.10,-0.10,-0.25,0.00,0.00,0.62
13574,-5.06,1.44,-57.44,1.38,-1.12,-41.06,-0.09,-0.13,-0.24,0.00,0.00,0.62
13581,-5.06,1.44,-57.44,1.38,-1.12,-41.06,-0.10,-0.11,-0.25,0.00,0.00,0.63
13588,-5.06,1.50,-57.00,1.50,-1.00,-43.56,-0.10,-0.11,-0.25,0.00,0.00,0.61
13597,-5.06,1.50,-56.56,1.56,-0.88,-46.38,-0.05,-0.10,-0.23,0.00,0.00,0.62
13604,-5.06,1.50,-56.12,1.94,-0.81,-48.88,-0.07,-0.10,-0.25,0.00,0.00,0.62
13612,-5.06,1.50,-56.12,2.00,-0.69,-51.56,-0.06,-0.05,-0.25,0.00,0.00,0.63
13623,-5.00,1.56,-55.62,2.00,-0.69,-51.56,-0.07,-0.04,-0.27,0.00,0.00,0.63
13653,-4.94,1.69,-53.38,2.56,-0.12,-61.69,-0.09,0.00,-0.26,0.00,0.00,0.63
13664,-4.94,1.69,-53.38,2.56,-0.12,-61.69,-0.08,-0.01,-0.24,0.00,0.00,0.62
13672,-4.94,1.69,-52.75,2.62,0.00,-66.56,-0.10,0.02,-0.23,0.00,0.00,0.63
13681,-4.94,1.69,-52.06,2.62,0.00,-66.56,-0.10,0.02,-0.23,0.00,0.00,0.62
13689,-4.94,1.75,-51.44,2.81,0.31,-69.06,-0.09,0.00,-0.23,0.00,0.00,0.63
13698,-4.88,1.75,-50.75,3.12,0.06,-71.56,-0.07,0.00,-0.30,0.00,0.00,0.62
13706,-4.88,1.81,-50.00,3.31,0.38,-73.88,-0.08,0.00,-0.26,0.00,0.00,0.63
13717,-4.88,1.81,-49.25,3.56,0.19,-76.19,-0.11,0.03,-0.27,0.00,0.00,0.64
13724,-4.81,1.88,-48.50,3.69,0.31,-78.56,-0.13,0.07,-0.24,0.00,0.00,0.62
13736,-4.81,1.88,-48.50,3.69,0.31,-78.56,-0.13,0.07,-0.24,0.00,0.00,0.62
13747,-4.81,1.88,-47.75,4.00,0.62,-83.25,-0.14,0.08,-0.23,0.00,0.00,0.61
13754,-4.75,1.94,-46.06,4.00,0.50,-85.38,-0.17,0.11,-0.22,0.00,0.00,0.62
13767,-4.75,1.94,-46.06,4.38,0.44,-87.50,-0.16,0.12,-0.26,0.00,0.00,0.61
13774,-4.69,2.00,-44.38,4.56,0.62,-89.75,-0.16,0.14,-0.25,0.00,0.00,0.61
13806,-4.62,2.06,-41.62,5.12,0.50,-95.94,-0.18,0.18,-0.26,0.00,0.00,0.61
13814,-4.62,2.06,-41.62,5.31,0.50,-98.06,-0.19,0.21,-0.26,0.00,0.00,0.61
13824,-4.56,2.12,-40.69,5.31,0.50,-98.06,-0.18,0.24,-0.26,0.00,0.00,0.61
13832,-4.56,2.12,-39.69,5.25,0.50,-100.00,-0.18,0.24,-0.26,0.00,0.00,0.62
13840,-4.50,2.12,-38.75,5.50,0.38,-102.00,-0.20,0.29,-0.21,0.00,0.00,0.62
13847,-4.50,2.19,-37.69,5.56,0.38,-103.88,-0.19,0.28,-0.23,0.00,0.00,0.63
13855,-4.44,2.19,-36.69,5.56,0.19,-105.81,-0.20,0.29,-0.26,0.00,0.00,0.62
13864,-4.44,2.19,-36.69,5.88,0.00,-107.50,-0.20,0.31,-0.22,0.00,0.00,0.63
13873,-4.38,2.19,-35.62,5.88,0.00,-107.50,-0.19,0.31,-0.23,0.00,0.00,0.63
13881,-4.38,2.25,-34.56,5.94,0.19,-109.12,-0.19,0.31,-0.23,0.00,0.00,0.63
13888,-4.31,2.25,-33.50,6.00,0.19,-111.00,-0.19,0.33,-0.18,0.00,0.00,0.62
13897,-4.25,2.31,-32.44,6.00,0.12,-112.56,-0.18,0.33,-0.21,0.00,0.00,0.63
13905,-4.25,2.31,-32.44,6.44,0.12,-113.94,-0.17,0.35,-0.25,0.00,0.00,0.63
13915,-4.25,2.31,-31.31,6.44,0.12,-113.94,-0.17,0.38,-0.22,0.00,0.00,0.62
13945,-4.00,2.38,-26.75,6.62,0.00,-119.94,-0.14,0.49,-0.20,0.00,0.00,0.62
13957,-4.00,2.38,-26.75,6.62,0.00,-119.94,-0.14,0.51,-0.23,0.00,0.00,0.62
13965,-4.00,2.38,-25.56,6.75,0.00,-122.31,-0.11,0.52,-0.22,0.00,0.00,0.62
13976,-3.94,2.44,-24.38,6.75,0.00,-122.31,-0.11,0.53,-0.20,0.00,0.00,0.62
13983,-3.88,2.44,-23.19,6.75,0.06,-123.50,-0.11,0.53,-0.20,0.00,0.00,0.61
13991,-3.81,2.44,-22.00,6.81,0.31,-124.69,-0.08,0.58,-0.18,0.00,0.00,0.62
13998,-3.75,2.44,-20.75,6.56,0.12,-125.69,-0.07,0.58,-0.19,0.00,0.00,0.62
14008,-3.75,2.50,-19.50,6.69,0.50,-126.81,-0.06,0.59,-0.21,0.00,0.00,0.62
14016,-3.69,2.50,-18.31,6.69,0.50,-127.75,-0.03,0.59,-0.23,0.00,0.00,0.61
14027,-3.69,2.50,-18.31,6.69,0.50,-127.75,-0.01,0.60,-0.21,0.00,0.00,0.62
14035,-3.62,2.50,-17.06,6.56,0.75,-128.38,0.00,0.63,-0.17,0.00,0.00,0.61
14044,-3.56,2.50,-15.81,6.56,0.69,-129.38,0.00,0.63,-0.17,0.00,0.00,0.63
14054,-3.50,2.56,-14.50,6.56,1.06,-130.19,0.00,0.63,-0.17,0.00,0.00,0.63
14084,-3.38,2.56,-10.69,6.31,1.31,-131.75,0.04,0.63,-0.17,0.00,0.00,0.61
14092,-3.38,2.62,-9.44,6.50,1.62,-132.31,0.03,0.62,-0.19,0.00,0.00,0.61
14102,-3.31,2.62,-8.12,6.25,1.75,-132.75,0.05,0.61,-0.18,0.00,0.00,0.61
14110,-3.25,2.62,-6.88,6.31,2.00,-133.00,0.07,0.62,-0.20,0.00,0.00,0.61
14120,-3.25,2.62,-5.56,6.31,2.06,-133.25,0.04,0.62,-0.20,0.00,0.00,0.61
14127,-3.19,2.62,-4.25,6.19,2.44,-133.38,0.08,0.62,-0.18,0.00,0.00,0.62
14135,-3.19,2.62,-4.25,6.19,2.44,-133.38,0.08,0.62,-0.18,0.00,0.00,0.60
14142,-3.12,2.69,-2.94,6.12,2.44,-133.56,0.06,0.62,-0.20,0.00,0.00,0.62
14150,-3.12,2.69,-1.69,6.12,3.06,-133.75,0.09,0.64,-0.18,0.00,0.00,0.62
14158,-3.06,2.69,-0.38,6.12,3.06,-133.50,0.07,0.59,-0.18,0.00,0.00,0.62
14167,-3.06,2.69,-0.38,6.06,3.19,-133.38,0.10,0.59,-0.19,0.00,0.00,0.63
14176,-3.06,2.69,0.94,6.25,3.56,-133.31,0.10,0.62,-0.17,0.00,0.00,0.62
14184,-3.00,2.69,2.19,6.25,3.56,-133.31,0.10,0.62,-0.17,0.00,0.00,0.62
14191,-3.00,2.69,3.50,6.00,3.62,-133.00,0.09,0.58,-0.18,0.00,0.00,0.63
14223,-2.94,2.75,7.38,5.88,4.25,-131.62,0.17,0.60,-0.18,0.00,0.00,0.63
14231,-2.94,2.75,8.62,5.75,4.50,-131.19,0.17,0.58,-0.19,0.00,0.00,0.63
14240,-2.94,2.75,8.62,5.69,4.56,-130.69,0.13,0.54,-0.22,0.00,0.00,0.62
14248,-2.88,2.75,9.88,5.69,4.62,-130.00,0.10,0.52,-0.20,0.00,0.00,0.62
14259,-2.88,2.75,11.12,5.69,4.62,-130.00,0.03,0.50,-0.21,0.00,0.00,0.62
14267,-2.88,2.75,12.38,5.69,5.00,-128.44,0.09,0.46,-0.22,0.00,0.00,0.62
14281,-2.88,2.75,13.62,5.69,5.00,-128.44,0.09,0.49,-0.19,0.00,0.00,0.62
14289,-2.81,2.81,16.12,5.88,4.94,-126.88,0.03,0.45,-0.20,0.00,0.00,0.62
14296,-2.81,2.81,16.12,5.88,4.94,-126.88,0.03,0.45,-0.20,0.00,0.00,0.61
14308,-2.81,2.81,17.31,5.75,4.62,-125.81,0.02,0.47,-0.21,0.00,0.00,0.61
14317,-2.81,2.81,18.56,5.69,4.94,-124.50,0.01,0.47,-0.20,0.00,0.00,0.62
14330,-2.81,2.81,19.75,5.75,5.00,-123.50,-0.01,0.43,-0.20,0.00,0.00,0.62
14337,-2.81,2.81,20.94,5.69,4.94,-122.50,-0.02,0.47,-0.19,0.00,0.00,0.62
14347,-2.75,2.81,22.12,5.75,4.69,-121.19,-0.02,0.47,-0.19,0.00,0.00,0.61
14378,-2.75,2.81,25.56,5.69,4.19,-115.62,-0.07,0.44,-0.19,0.00,0.00,0.61
14387,-2.75,2.81,26.69,5.69,4.19,-115.62,-0.07,0.44,-0.19,0.00,0.00,0.62
14395,-2.69,2.81,27.81,5.50,4.06,-114.12,-0.05,0.42,-0.21,0.00,0.00,0.60
14402,-2.69,2.81,28.88,5.25,3.88,-112.75,-0.07,0.45,-0.17,0.00,0.00,0.63
14410,-2.69,2.81,29.94,5.25,3.62,-110.81,-0.06,0.44,-0.21,0.00,0.00,0.62
14419,-2.69,2.81,29.94,5.12,3.38,-109.19,-0.07,0.39,-0.22,0.00,0.00,0.62
14428,-2.62,2.81,31.00,5.12,3.38,-109.19,-0.09,0.40,-0.22,0.00,0.00,0.63
14435,-2.62,2.81,32.06,5.12,3.06,-107.50,-0.09,0.40,-0.22,0.00,0.00,0.61
14442,-2.62,2.81,33.06,5.00,2.50,-105.75,-0.04,0.43,-0.23,0.00,0.00,0.62
14449,-2.56,2.81,34.06,4.94,2.31,-103.94,-0.09,0.39,-0.20,0.00,0.00,0.61
14458,-2.56,2.81,34.06,4.94,2.31,-103.94,-0.09,0.41,-0.20,0.00,0.00,0.63
14468,-2.56,2.81,35.06,4.75,2.00,-102.06,-0.06,0.41,-0.21,0.00,0.00,0.61
14479,-2.50,2.81,36.06,4.62,1.81,-100.12,-0.06,0.41,-0.21,0.00,0.00,0.60
14486,-2.50,2.75,37.00,4.56,1.56,-98.31,-0.06,0.40,-0.21,0.00,0.00,0.61
14521,-2.38,2.75,39.75,3.94,0.38,-90.12,-0.01,0.38,-0.22,0.00,0.00,0.62
14530,-2.38,2.75,40.62,3.75,0.06,-88.00,-0.03,0.35,-0.22,0.00,0.00,0.61
14540,-2.31,2.75,41.50,3.75,0.06,-88.00,-0.03,0.35,-0.22,0.00,0.00,0.61
14548,-2.25,2.69,42.31,3.69,-0.12,-85.81,-0.01,0.35,-0.21,0.00,0.00,0.62
14558,-2.25,2.69,43.12,3.44,-0.19,-83.69,-0.02,0.30,-0.23,0.00,0.00,0.60
14568,-2.19,2.69,43.88,3.25,-0.50,-81.56,0.02,0.29,-0.27,0.00,0.00,0.61
14579,-2.12,2.69,44.69,3.12,-0.88,-79.25,0.06,0.27,-0.22,0.00,0.00,0.61
14587,-2.12,2.69,45.44,3.06,-0.75,-76.88,0.04,0.24,-0.24,0.00,0.00,0.62
14596,-2.06,2.69,46.12,3.00,-1.19,-74.75,0.06,0.21,-0.24,0.00,0.00,0.60
14603,-2.00,2.62,46.81,3.06,-1.12,-72.44,0.07,0.23,-0.23,0.00,0.00,0.63
14612,-1.94,2.62,47.50,3.00,-1.44,-70.06,0.09,0.19,-0.28,0.00,0.00,0.61
14620,-1.94,2.62,47.50,2.88,-1.62,-67.75,0.09,0.23,-0.27,0.00,0.00,0.63
14630,-1.94,2.62,48.19,2.88,-1.62,-67.75,0.11,0.21,-0.24,0.00,0.00,0.61
14639,-1.88,2.62,48.81,2.75,-1.69,-65.25,0.11,0.21,-0.24,0.00,0.00,0.61
14670,-1.75,2.56,50.56,2.44,-1.81,-55.50,0.16,0.16,-0.27,0.00,0.00,0.61
14684,-1.69,2.56,51.12,2.44,-1.81,-55.50,0.16,0.19,-0.23,0.00,0.00,0.63
14693,-1.62,2.56,52.12,2.12,-1.56,-50.62,0.17,0.14,-0.26,0.00,0.00,0.62
14700,-1.62,2.56,52.12,2.12,-1.56,-50.62,0.15,0.11,-0.24,0.00,0.00,0.61
14709,-1.56,2.56,52.56,2.19,-1.50,-48.06,0.18,0.08,-0.25,0.00,0.00,0.61
14719,-1.50,2.50,53.00,1.94,-1.75,-45.44,0.18,0.08,-0.25,0.00,0.00,0.62
14730,-1.50,2.50,53.44,2.00,-1.75,-42.88,0.19,0.09,-0.28,0.00,0.00,0.61
14738,-1.44,2.50,53.81,2.00,-1.50,-40.44,0.19,0.07,-0.28,0.00,0.00,0.62
14745,-1.38,2.50,54.19,2.00,-1.44,-37.75,0.16,0.05,-0.28,0.00,0.00,0.63
14752,-1.38,2.50,54.50,2.00,-1.44,-35.12,0.18,0.04,-0.29,0.00,0.00,0.62
14763,-1.38,2.50,54.50,1.94,-1.44,-32.56,0.16,0.03,-0.28,0.00,0.00,0.61
14771,-1.31,2.44,54.81,2.00,-1.50,-30.00,0.17,0.00,-0.27,0.00,0.00,0.62
14781,-1.31,2.44,55.12,2.00,-1.50,-30.00,0.17,0.07,-0.26,0.00,0.00,0.63
14788,-1.25,2.44,55.38,1.94,-1.56,-27.31,0.17,0.07,-0.26,0.00,0.00,0.63
14820,-1.19,2.38,56.06,1.81,-1.12,-19.50,0.15,0.06,-0.26,0.00,0.00,0.63
14831,-1.19,2.38,56.19,1.69,-1.12,-16.88,0.15,0.06,-0.26,0.00,0.00,0.62
14839,-1.12,2.38,56.31,1.69,-1.12,-14.25,0.12,0.06,-0.24,0.00,0.00,0.63
14847,-1.12,2.38,56.44,1.56,-1.12,-11.62,0.13,0.04,-0.25,0.00,0.00,0.63
14854,-1.12,2.31,56.56,1.50,-1.00,-9.00,0.11,0.06,-0.27,0.00,0.00,0.62
14862,-1.12,2.31,56.56,1.38,-1.00,-6.38,0.11,0.08,-0.26,0.00,0.00,0.61
14871,-1.12,2.31,56.62,1.38,-1.00,-6.38,0.08,0.04,-0.26,0.00,0.00,0.62
14881,-1.06,2.31,56.62,1.38,-1.00,-3.62,0.07,0.06,-0.25,0.00,0.00,0.61
14889,-1.06,2.31,56.62,1.38,-1.12,-1.06,0.07,0.06,-0.25,0.00,0.00,0.64
14896,-1.06,2.31,56.62,1.06,-1.38,1.69,0.06,0.05,-0.25,0.00,0.00,0.62
14904,-1.06,2.25,56.56,1.06,-1.38,4.12,0.04,0.03,-0.22,0.00,0.00,0.63
14912,-1.06,2.25,56.56,1.00,-1.50,6.88,0.05,0.04,-0.27,0.00,0.00,0.65
14922,-1.00,2.25,56.50,1.00,-1.50,6.88,0.05,0.05,-0.27,0.00,0.00,0.64
14933,-1.00,2.25,56.44,0.94,-1.25,9.56,0.01,0.06,-0.26,0.00,0.00,0.62
14963,-1.00,2.19,55.81,0.56,-1.50,19.94,0.01,0.07,-0.24,0.00,0.00,0.63
14975,-1.00,2.19,55.81,0.56,-1.50,19.94,0.02,0.07,-0.23,0.00,0.00,0.61
14983,-1.00,2.19,55.56,0.19,-1.94,25.19,0.00,0.07,-0.25,0.00,0.00,0.62
14992,-0.94,2.19,55.38,0.19,-1.94,25.19,0.00,0.07,-0.25,0.00,0.00,0.62
14999,-0.94,2.19,55.06,0.06,-1.94,27.62,-0.01,0.09,-0.26,0.00,0.00,0.62
15007,-0.94,2.19,54.81,0.06,-2.00,30.38,0.00,0.12,-0.26,0.00,0.00,0.64
15014,-0.94,2.19,54.44,-0.12,-2.12,32.94,0.00,0.12,-0.27,0.00,0.00,0.62
15025,-0.94,2.19,54.44,-0.19,-2.12,35.38,0.01,0.14,-0.25,0.00,0.00,0.63
15033,-0.94,2.19,54.12,-0.44,-2.06,38.06,0.00,0.13,-0.22,0.00,0.00,0.63
15042,-0.94,2.19,53.75,-0.44,-2.06,38.06,0.00,0.13,-0.22,0.00,0.00,0.63
15050,-0.94,2.19,53.38,-0.62,-2.38,40.44,0.01,0.15,-0.25,0.00,0.00,0.62
15058,-0.94,2.19,52.94,-0.81,-2.38,43.06,0.00,0.13,-0.23,0.00,0.00,0.63
15065,-0.94,2.19,52.50,-0.94,-2.38,45.50,0.03,0.14,-0.25,0.00,0.00,0.63
15074,-0.94,2.19,52.50,-1.12,-2.44,48.06,0.04,0.15,-0.25,0.00,0.00,0.63
15083,-0.88,2.19,52.06,-1.12,-2.44,48.06,0.02,0.12,-0.25,0.00,0.00,0.63
15116,-0.88,2.19,50.50,-1.50,-2.38,57.88,0.04,0.17,-0.24,0.00,0.00,0.63
15124,-0.88,2.19,49.94,-1.69,-2.56,60.06,0.06,0.17,-0.26,0.00,0.00,0.61
15136,-0.88,2.19,49.38,-1.69,-2.56,60.06,0.05,0.18,-0.24,0.00,0.00,0.64
15144,-0.88,2.19,48.75,-1.62,-2.50,62.50,0.05,0.17,-0.24,0.00,0.00,0.61
15151,-0.88,2.19,48.12,-1.69,-2.25,64.94,0.05,0.17,-0.24,0.00,0.00,0.62
15159,-0.88,2.19,47.44,-1.81,-2.38,67.25,0.06,0.22,-0.24,0.00,0.00,0.62
15166,-0.88,2.19,46.81,-2.00,-2.44,69.38,0.06,0.21,-0.26,0.00,0.00,0.62
15175,-0.88,2.19,46.81,-2.06,-2.12,71.62,0.07,0.22,-0.25,0.00,0.00,0.62
15184,-0.88,2.19,46.12,-2.06,-2.12,71.62,0.07,0.25,-0.25,0.00,0.00,0.62
15191,-0.88,2.19,45.38,-2.00,-2.19,73.94,0.07,0.25,-0.25,0.00,0.00,0.62
15199,-0.88,2.19,44.62,-2.25,-1.88,76.12,0.06,0.25,-0.20,0.00,0.00,0.63
15206,-0.88,2.19,43.88,-2.31,-1.81,78.25,0.06,0.26,-0.20,0.00,0.00,0.63
15216,-0.88,2.19,43.88,-2.44,-1.75,80.31,0.05,0.25,-0.28,0.00,0.00,0.63
15225,-0.94,2.19,43.12,-2.44,-1.56,82.44,0.04,0.20,-0.35,0.00,0.00,0.62
15255,-0.94,2.19,40.62,-2.81,-1.31,88.50,0.05,0.41,-0.12,0.00,0.00,0.61
15264,-1.00,2.19,39.81,-2.81,-1.31,88.50,0.06,0.47,-0.23,0.00,0.00,0.62
15276,-1.00,2.19,38.94,-3.12,-1.19,90.56,0.04,0.41,-0.32,0.00,0.00,0.63
15285,-1.00,2.19,38.00,-3.25,-1.19,92.56,0.03,0.53,-0.21,0.00,0.00,0.63
15295,-1.06,2.25,37.12,-3.38,-0.62,94.38,0.03,0.53,-0.21,0.00,0.00,0.62
15303,-1.06,2.25,36.19,-3.62,-0.56,96.06,0.00,0.45,-0.20,0.00,0.00,0.62
15312,-1.12,2.25,35.25,-4.00,-0.56,97.94,-0.01,0.36,-0.29,0.00,0.00,0.63
15321,-1.19,2.25,34.25,-4.00,-0.75,99.75,-0.02,0.29,-0.24,0.00,0.00,0.63
15328,-1.19,2.25,33.25,-3.94,-0.56,101.44,-0.07,0.28,-0.21,0.00,0.00,0.62
15338,-1.19,2.25,33.25,-3.88,-0.38,102.94,-0.08,0.38,-0.15,0.00,0.00,0.63
15346,-1.25,2.31,32.25,-3.81,-0.50,104.56,-0.05,0.48,-0.16,0.00,0.00,0.62
15355,-1.31,2.31,31.25,-3.81,-0.50,104.56,-0.05,0.48,-0.16,0.00,0.00,0.62
15365,-1.31,2.31,30.25,-3.88,-0.44,106.12,-0.06,0.57,-0.24,0.00,0.00,0.63
15397,-1.44,2.38,27.06,-4.31,-0.25,110.38,-0.08,0.66,-0.20,0.00,0.00,0.61
15405,-1.50,2.38,26.00,-4.69,-0.06,111.56,-0.08,0.66,-0.20,0.00,0.00,0.62
15415,-1.56,2.38,24.88,-4.88,0.00,112.88,-0.10,0.60,-0.23,0.00,0.00,0.64
15426,-1.56,2.38,23.81,-5.06,-0.19,114.12,-0.09,0.57,-0.19,0.00,0.00,0.63
15436,-1.62,2.44,22.69,-5.12,-0.06,115.19,-0.11,0.53,-0.15,0.00,0.00,0.62
15443,-1.69,2.44,21.56,-5.25,0.00,116.50,-0.11,0.53,-0.15,0.00,0.00,0.62
15450,-1.75,2.44,20.44,-5.38,0.06,117.44,-0.10,0.61,-0.15,0.00,0.00,0.62
15460,-1.81,2.50,19.25,-5.62,-0.06,118.31,-0.12,0.59,-0.18,0.00,0.00,0.62
