Time,sensPitch,sensRoll,sensYaw,xGyro,yGyro,ZGyro,xAcc,yAcc,zAcc,latitude,longitude,altitude
6010,-3.69,2.06,0.69,0.19,2.62,-6.25,-0.06,-0.03,-0.23,0.00,0.00,0.60
6021,-3.75,2.06,0.75,0.25,2.62,-6.06,-0.04,-0.03,-0.23,0.00,0.00,0.59
6031,-3.75,2.06,0.81,0.12,2.44,-5.94,-0.05,0.00,-0.23,0.00,0.00,0.58
6039,-3.75,2.06,0.88,0.19,2.12,-5.81,-0.04,0.00,-0.20,0.00,0.00,0.59
6046,-3.81,2.06,0.94,0.12,2.12,-5.75,-0.06,0.00,-0.21,0.00,0.00,0.60
6054,-3.81,2.06,1.00,0.06,1.88,-5.62,-0.03,0.01,-0.19,0.00,0.00,0.59
6065,-3.81,2.06,1.00,0.25,1.94,-5.50,-0.03,0.02,-0.22,0.00,0.00,0.60
6073,-3.81,2.12,1.06,0.19,1.69,-5.44,-0.03,0.02,-0.21,0.00,0.00,0.58
6086,-3.81,2.12,1.06,0.19,1.69,-5.44,-0.02,0.00,-0.22,0.00,0.00,0.60
6094,-3.88,2.12,1.19,0.12,1.44,-5.19,0.00,0.00,-0.21,0.00,0.00,0.60
6106,-3.88,2.12,1.19,0.12,1.44,-5.19,0.00,0.00,-0.21,0.00,0.00,0.59
6113,-3.88,2.12,1.31,0.06,1.06,-4.88,0.00,0.00,-0.25,0.00,0.00,0.59
6124,-3.88,2.12,1.31,0.06,1.06,-4.88,0.00,0.02,-0.22,0.00,0.00,0.59
6133,-3.88,2.12,1.31,0.06,1.06,-4.56,0.02,0.00,-0.18,0.00,0.00,0.61
6225,-3.94,2.12,1.69,0.12,0.25,-3.19,0.03,0.06,-0.22,0.00,0.00,0.59
6235,-3.94,2.12,1.69,0.06,0.00,-3.19,0.05,0.04,-0.23,0.00,0.00,0.59
6243,-3.94,2.12,1.75,0.06,0.00,-3.19,0.04,0.03,-0.21,0.00,0.00,0.57
6254,-3.94,2.12,1.75,0.06,0.00,-2.94,0.04,0.03,-0.21,0.00,0.00,0.57
6263,-3.88,2.12,1.81,0.06,-0.06,-2.62,0.03,0.04,-0.22,0.00,0.00,0.60
6275,-3.88,2.12,1.81,0.12,-0.12,-2.44,0.00,0.02,-0.25,0.00,0.00,0.60
6284,-3.88,2.12,1.88,0.12,-0.44,-2.25,0.01,0.04,-0.21,0.00,0.00,0.59
6292,-3.88,2.12,1.88,0.12,-0.44,-2.25,0.01,0.04,-0.21,0.00,0.00,0.60
6299,-3.88,2.12,1.88,0.06,-0.44,-2.00,0.01,0.04,-0.24,0.00,0.00,0.57
6307,-3.88,2.12,1.88,0.19,-0.56,-1.75,0.00,0.05,-0.23,0.00,0.00,0.59
6315,-3.88,2.12,1.88,0.06,-0.88,-1.62,0.00,0.06,-0.24,0.00,0.00,0.59
6324,-3.88,2.12,1.94,0.06,-0.88,-1.62,-0.02,0.06,-0.25,0.00,0.00,0.59
6334,-3.88,2.12,1.94,0.06,-0.94,-1.38,-0.02,0.08,-0.19,0.00,0.00,0.59
6345,-3.88,2.12,1.94,0.12,-0.88,-1.31,-0.02,0.08,-0.19,0.00,0.00,0.59
6376,-3.81,2.19,2.00,0.00,-1.56,-0.50,-0.04,0.05,-0.24,0.00,0.00,0.62
6385,-3.81,2.19,2.00,-0.06,-1.88,-0.44,-0.03,0.06,-0.20,0.00,0.00,0.59
6392,-3.81,2.19,2.00,-0.06,-1.88,-0.44,-0.03,0.06,-0.20,0.00,0.00,0.60
6399,-3.81,2.19,2.00,0.00,-1.94,-0.31,-0.03,0.07,-0.22,0.00,0.00,0.59
6406,-3.75,2.19,2.00,-0.06,-2.19,-0.06,-0.01,0.06,-0.23,0.00,0.00,0.58
6415,-3.75,2.19,2.00,-0.06,-2.31,0.12,-0.05,0.07,-0.24,0.00,0.00,0.60
6426,-3.75,2.19,2.00,-0.06,-2.31,0.12,-0.05,0.05,-0.24,0.00,0.00,0.60
6435,-3.69,2.19,2.00,0.00,-2.31,0.44,-0.04,0.04,-0.24,0.00,0.00,0.59
6444,-3.69,2.19,2.00,-0.19,-2.50,0.50,-0.04,0.04,-0.24,0.00,0.00,0.60
6451,-3.69,2.19,1.94,0.12,-2.50,0.62,-0.04,0.07,-0.21,0.00,0.00,0.60
6460,-3.62,2.12,1.94,-0.06,-2.62,0.81,-0.07,0.03,-0.22,0.00,0.00,0.60
6468,-3.62,2.12,1.94,0.00,-2.88,1.12,-0.05,0.06,-0.23,0.00,0.00,0.60
6476,-3.56,2.12,1.94,-0.06,-3.06,1.19,-0.06,0.08,-0.24,0.00,0.00,0.59
6490,-3.56,2.12,1.94,-0.06,-3.06,1.19,-0.04,0.07,-0.23,0.00,0.00,0.60
6499,-3.50,2.12,1.88,0.00,-3.19,1.62,-0.05,0.07,-0.21,0.00,0.00,0.59
6531,-3.44,2.12,1.81,0.00,-3.56,2.06,-0.03,0.08,-0.22,0.00,0.00,0.60
6539,-3.38,2.12,1.81,-0.12,-3.56,2.31,-0.04,0.04,-0.23,0.00,0.00,0.61
6546,-3.38,2.12,1.81,-0.19,-3.81,2.44,-0.04,0.05,-0.22,0.00,0.00,0.58
6554,-3.38,2.12,1.81,-0.19,-3.81,2.44,-0.04,0.05,-0.22,0.00,0.00,0.61
6564,-3.31,2.12,1.75,-0.19,-3.88,2.75,-0.03,0.06,-0.22,0.00,0.00,0.59
6576,-3.31,2.12,1.75,-0.12,-3.88,2.81,-0.04,0.06,-0.23,0.00,0.00,0.60
6586,-3.25,2.12,1.69,-0.12,-4.00,2.94,-0.05,0.04,-0.21,0.00,0.00,0.60
6595,-3.19,2.12,1.69,-0.19,-3.94,3.12,-0.05,0.04,-0.21,0.00,0.00,0.60
6602,-3.19,2.12,1.62,-0.19,-4.06,3.19,-0.02,0.04,-0.24,0.00,0.00,0.62
6610,-3.12,2.12,1.62,-0.19,-3.88,3.50,-0.02,0.06,-0.23,0.00,0.00,0.62
6618,-3.12,2.12,1.56,-0.12,-3.88,3.50,-0.01,0.05,-0.26,0.00,0.00,0.62
6626,-3.12,2.12,1.56,-0.12,-3.94,3.62,-0.03,0.06,-0.23,0.00,0.00,0.62
6636,-3.06,2.12,1.56,-0.12,-3.94,3.62,-0.03,0.05,-0.22,0.00,0.00,0.60
6647,-3.00,2.12,1.50,-0.12,-3.81,3.81,-0.03,0.05,-0.22,0.00,0.00,0.60
6681,-2.88,2.12,1.31,-0.19,-3.69,4.50,-0.03,0.04,-0.25,0.00,0.00,0.61
6689,-2.88,2.12,1.31,-0.31,-3.50,4.56,-0.03,0.04,-0.23,0.00,0.00,0.60
6698,-2.88,2.12,1.31,-0.31,-3.50,4.56,-0.05,0.04,-0.23,0.00,0.00,0.60
6705,-2.81,2.12,1.25,-0.38,-3.44,4.62,-0.05,0.04,-0.23,0.00,0.00,0.61
6715,-2.81,2.12,1.19,-0.25,-3.50,4.94,-0.04,0.04,-0.24,0.00,0.00,0.62
6725,-2.75,2.12,1.12,-0.19,-3.44,5.00,-0.05,0.04,-0.22,0.00,0.00,0.60
6737,-2.75,2.12,1.12,-0.25,-3.50,5.12,-0.07,0.05,-0.22,0.00,0.00,0.62
6744,-2.69,2.12,1.06,-0.31,-3.12,5.25,-0.07,0.04,-0.22,0.00,0.00,0.62
6751,-2.69,2.12,1.00,-0.31,-3.31,5.31,-0.07,0.02,-0.20,0.00,0.00,0.62
6758,-2.62,2.12,0.94,-0.38,-3.25,5.50,-0.10,0.05,-0.22,0.00,0.00,0.62
6767,-2.62,2.12,0.94,-0.31,-3.06,5.62,-0.09,0.02,-0.25,0.00,0.00,0.60
6777,-2.62,2.12,0.88,-0.31,-3.06,5.62,-0.09,0.02,-0.23,0.00,0.00,0.62
6786,-2.56,2.12,0.81,-0.12,-3.12,5.69,-0.10,0.06,-0.23,0.00,0.00,0.62
6794,-2.56,2.06,0.75,-0.38,-2.94,5.94,-0.10,0.06,-0.23,0.00,0.00,0.61
6801,-2.50,2.06,0.69,-0.38,-2.94,6.00,-0.10,0.01,-0.24,0.00,0.00,0.60
6830,-2.44,2.06,0.50,-0.38,-2.81,6.12,-0.12,0.00,-0.23,0.00,0.00,0.62
6838,-2.44,2.06,0.50,-0.38,-2.75,6.25,-0.14,0.02,-0.21,0.00,0.00,0.64
6846,-2.44,2.06,0.44,-0.38,-2.75,6.25,-0.14,0.02,-0.21,0.00,0.00,0.61
6853,-2.38,2.06,0.38,-0.44,-2.44,6.31,-0.14,0.00,-0.23,0.00,0.00,0.61
6860,-2.38,2.06,0.31,-0.44,-2.75,6.44,-0.14,0.01,-0.21,0.00,0.00,0.61
6868,-2.38,2.06,0.31,-0.25,-2.62,6.69,-0.14,0.00,-0.23,0.00,0.00,0.63
6880,-2.38,2.06,0.25,-0.25,-2.62,6.69,-0.14,0.00,-0.21,0.00,0.00,0.63
6888,-2.31,2.06,0.19,-0.44,-2.62,6.56,-0.14,0.00,-0.24,0.00,0.00,0.63
6898,-2.31,2.06,0.12,-0.44,-2.62,6.56,-0.14,0.00,-0.24,0.00,0.00,0.63
6905,-2.31,2.06,0.06,-0.25,-2.44,6.69,-0.13,0.02,-0.21,0.00,0.00,0.63
6915,-2.25,2.06,0.00,-0.19,-2.44,6.81,-0.14,0.00,-0.23,0.00,0.00,0.63
6924,-2.25,2.06,-0.06,-0.50,-2.31,6.88,-0.14,0.00,-0.24,0.00,0.00,0.61
6934,-2.25,2.06,-0.12,-0.44,-2.38,6.88,-0.13,0.00,-0.24,0.00,0.00,0.62
6941,-2.19,2.06,-0.19,-0.56,-2.38,7.06,-0.14,0.00,-0.22,0.00,0.00,0.63
6973,-2.12,2.06,-0.38,-0.44,-1.94,7.25,-0.12,-0.01,-0.23,0.00,0.00,0.64
6980,-2.12,2.06,-0.50,-0.44,-1.88,7.12,-0.14,0.00,-0.23,0.00,0.00,0.63
6989,-2.12,2.06,-0.50,-0.56,-1.75,7.19,-0.12,-0.01,-0.23,0.00,0.00,0.63
6996,-2.12,2.06,-0.56,-0.56,-1.75,7.19,-0.12,-0.01,-0.23,0.00,0.00,0.61
7004,-2.12,2.06,-0.62,-0.50,-1.75,7.25,-0.11,0.00,-0.24,0.00,0.00,0.61
7012,-2.12,2.06,-0.69,-0.44,-1.38,7.25,-0.11,-0.02,-0.26,0.00,0.00,0.61
7021,-2.12,2.06,-0.69,-0.38,-1.38,7.38,-0.13,-0.02,-0.29,0.00,0.00,0.63
7029,-2.06,2.00,-0.75,-0.38,-1.38,7.31,-0.12,0.00,-0.24,0.00,0.00,0.63
7039,-2.06,2.00,-0.81,-0.38,-1.38,7.31,-0.13,-0.02,-0.22,0.00,0.00,0.62
7047,-2.06,2.00,-0.88,-0.50,-0.94,7.25,-0.13,-0.02,-0.22,0.00,0.00,0.63
7056,-2.06,2.00,-0.94,-0.50,-0.94,7.38,-0.12,-0.03,-0.21,0.00,0.00,0.61
7064,-2.06,2.00,-1.06,-0.44,-0.81,7.44,-0.10,-0.01,-0.24,0.00,0.00,0.62
7074,-2.06,2.00,-1.12,-0.31,-0.62,7.25,-0.11,-0.02,-0.26,0.00,0.00,0.62
7081,-2.06,2.00,-1.19,-0.31,-0.31,7.31,-0.11,-0.01,-0.26,0.00,0.00,0.64
7113,-2.06,2.00,-1.38,-0.38,0.12,7.31,-0.13,-0.02,-0.24,0.00,0.00,0.63
7121,-2.06,2.00,-1.44,-0.50,0.38,7.31,-0.11,-0.04,-0.24,0.00,0.00,0.63
7130,-2.06,2.00,-1.44,-0.50,0.38,7.31,-0.11,-0.02,-0.25,0.00,0.00,0.62
7141,-2.06,2.00,-1.56,-0.50,0.44,7.31,-0.11,-0.02,-0.25,0.00,0.00,0.62
7149,-2.06,2.00,-1.62,-0.31,0.56,7.19,-0.11,-0.02,-0.25,0.00,0.00,0.63
7156,-2.06,2.00,-1.69,-0.31,0.88,7.19,-0.10,-0.02,-0.23,0.00,0.00,0.61
7164,-2.12,2.00,-1.75,-0.38,1.06,7.19,-0.12,-0.03,-0.23,0.00,0.00,0.63
7171,-2.12,2.00,-1.81,-0.50,1.25,7.00,-0.12,-0.05,-0.27,0.00,0.00,0.62
7182,-2.12,2.00,-1.81,-0.50,1.25,7.00,-0.11,-0.04,-0.26,0.00,0.00,0.62
7191,-2.12,2.00,-1.88,-0.44,1.31,7.12,-0.12,-0.04,-0.23,0.00,0.00,0.63
7199,-2.12,2.00,-1.94,-0.44,1.31,7.12,-0.12,-0.04,-0.23,0.00,0.00,0.63
7206,-2.12,2.00,-2.00,-0.38,1.25,7.00,-0.12,-0.04,-0.22,0.00,0.00,0.64
7214,-2.19,2.00,-2.06,-0.31,1.62,6.75,-0.14,0.00,-0.23,0.00,0.00,0.63
7224,-2.19,2.00,-2.12,-0.31,1.88,6.81,-0.15,-0.04,-0.24,0.00,0.00,0.64
7254,-2.25,2.00,-2.31,-0.25,2.12,6.50,-0.14,-0.04,-0.22,0.00,0.00,0.63
7265,-2.31,2.00,-2.38,-0.31,2.19,6.38,-0.13,-0.03,-0.21,0.00,0.00,0.64
7273,-2.31,1.94,-2.44,-0.31,2.19,6.44,-0.14,-0.06,-0.24,0.00,0.00,0.64
7282,-2.31,1.94,-2.44,-0.31,2.56,6.31,-0.16,-0.06,-0.25,0.00,0.00,0.64
7291,-2.31,1.94,-2.50,-0.25,2.56,6.12,-0.14,-0.04,-0.24,0.00,0.00,0.64
7298,-2.38,1.94,-2.56,-0.25,2.56,6.12,-0.14,-0.04,-0.24,0.00,0.00,0.62
7306,-2.38,1.94,-2.62,-0.38,2.69,6.06,-0.15,-0.05,-0.26,0.00,0.00,0.63
7317,-2.44,1.94,-2.69,-0.12,2.62,6.00,-0.15,-0.01,-0.25,0.00,0.00,0.63
7329,-2.44,1.94,-2.75,-0.25,2.75,6.00,-0.15,-0.04,-0.24,0.00,0.00,0.64
7339,-2.50,1.94,-2.81,-0.12,2.94,5.81,-0.15,-0.06,-0.25,0.00,0.00,0.64
7351,-2.50,1.94,-2.88,-0.25,2.94,5.56,-0.16,-0.03,-0.22,0.00,0.00,0.63
7362,-2.56,1.94,-2.94,-0.12,2.88,5.50,-0.13,-0.03,-0.23,0.00,0.00,0.65
7371,-2.56,1.94,-3.00,-0.19,3.06,5.50,-0.12,-0.03,-0.26,0.00,0.00,0.64
7385,-2.62,1.94,-3.00,-0.12,3.12,5.31,-0.15,-0.06,-0.26,0.00,0.00,0.62
7393,-2.69,1.94,-3.12,-0.06,3.00,4.94,-0.12,-0.03,-0.22,0.00,0.00,0.64
7426,-2.75,1.94,-3.25,-0.12,2.94,4.75,-0.11,-0.04,-0.22,0.00,0.00,0.64
7434,-2.81,1.94,-3.31,-0.25,2.94,4.50,-0.12,-0.05,-0.23,0.00,0.00,0.63
7444,-2.81,1.94,-3.31,-0.19,3.06,4.56,-0.10,-0.07,-0.23,0.00,0.00,0.61
7451,-2.81,1.94,-3.38,-0.19,3.06,4.56,-0.10,-0.02,-0.21,0.00,0.00,0.62
7460,-2.88,1.94,-3.38,-0.19,3.12,4.25,-0.10,-0.02,-0.21,0.00,0.00,0.62
7470,-2.88,1.94,-3.44,-0.12,3.25,4.12,-0.10,-0.04,-0.25,0.00,0.00,0.64
7481,-2.94,1.94,-3.44,0.00,3.38,3.81,-0.08,-0.02,-0.25,0.00,0.00,0.62
7491,-2.94,1.94,-3.50,-0.19,3.31,3.81,-0.09,-0.04,-0.25,0.00,0.00,0.64
7502,-3.00,1.94,-3.56,-0.25,3.44,3.69,-0.10,-0.05,-0.25,0.00,0.00,0.64
7509,-3.00,1.94,-3.56,0.00,3.25,3.62,-0.08,-0.02,-0.22,0.00,0.00,0.61
7520,-3.06,1.94,-3.62,0.12,3.25,3.38,-0.09,-0.04,-0.24,0.00,0.00,0.62
7531,-3.06,1.94,-3.62,0.00,3.25,3.12,-0.07,-0.04,-0.27,0.00,0.00,0.63
7544,-3.12,1.94,-3.69,-0.19,3.50,2.94,-0.09,-0.03,-0.25,0.00,0.00,0.61
7552,-3.12,1.94,-3.69,0.00,3.38,2.94,-0.08,-0.05,-0.25,0.00,0.00,0.62
7586,-3.25,1.88,-3.75,0.00,3.31,2.19,-0.08,-0.02,-0.22,0.00,0.00,0.62
7594,-3.25,1.88,-3.81,-0.06,3.12,2.06,-0.10,-0.01,-0.24,0.00,0.00,0.61
7605,-3.31,1.88,-3.81,-0.06,3.12,2.06,-0.10,-0.01,-0.24,0.00,0.00,0.61
7613,-3.38,1.88,-3.81,0.00,3.19,1.94,-0.09,0.00,-0.25,0.00,0.00,0.60
7626,-3.38,1.88,-3.81,0.19,3.25,1.75,-0.08,-0.02,-0.24,0.00,0.00,0.61
7634,-3.38,1.88,-3.88,-0.06,3.12,1.50,-0.09,0.00,-0.23,0.00,0.00,0.60
7643,-3.44,1.88,-3.88,-0.06,3.12,1.50,-0.11,-0.01,-0.22,0.00,0.00,0.62
7651,-3.44,1.88,-3.88,0.12,3.12,1.25,-0.11,-0.01,-0.22,0.00,0.00,0.62
7658,-3.50,1.88,-3.88,0.06,2.94,1.06,-0.10,-0.01,-0.21,0.00,0.00,0.62
7665,-3.50,1.88,-3.88,0.00,2.88,1.06,-0.07,-0.01,-0.23,0.00,0.00,0.61
7675,-3.50,1.88,-3.88,0.06,2.62,0.75,-0.09,-0.02,-0.22,0.00,0.00,0.62
7684,-3.56,1.88,-3.94,0.06,2.69,0.56,-0.07,-0.03,-0.25,0.00,0.00,0.60
7695,-3.56,1.88,-3.94,0.06,2.69,0.56,-0.08,-0.02,-0.22,0.00,0.00,0.61
7703,-3.62,1.88,-3.94,0.12,2.81,0.38,-0.08,-0.02,-0.22,0.00,0.00,0.62
7736,-3.69,1.88,-3.94,0.25,2.44,-0.06,-0.04,0.04,-0.23,0.00,0.00,0.62
7745,-3.69,1.88,-3.94,0.06,2.19,-0.38,-0.05,0.03,-0.22,0.00,0.00,0.60
7756,-3.75,1.88,-3.88,0.06,2.19,-0.38,-0.05,0.03,-0.22,0.00,0.00,0.62
7764,-3.75,1.88,-3.88,0.19,2.12,-0.62,-0.05,0.01,-0.22,0.00,0.00,0.61
7776,-3.75,1.88,-3.88,0.00,2.12,-0.69,-0.04,0.00,-0.23,0.00,0.00,0.59
7785,-3.75,1.88,-3.88,0.06,1.88,-1.12,-0.04,-0.02,-0.22,0.00,0.00,0.62
7795,-3.81,1.88,-3.88,0.06,1.88,-1.12,-0.05,-0.01,-0.22,0.00,0.00,0.60
7802,-3.81,1.88,-3.88,0.00,1.62,-1.19,-0.05,-0.01,-0.22,0.00,0.00,0.61
7809,-3.81,1.88,-3.88,0.00,1.50,-1.31,-0.05,-0.03,-0.24,0.00,0.00,0.62
7817,-3.88,1.88,-3.81,0.12,1.75,-1.50,-0.04,0.00,-0.21,0.00,0.00,0.62
7826,-3.88,1.88,-3.81,0.25,1.62,-1.75,-0.05,0.00,-0.25,0.00,0.00,0.61
7835,-3.88,1.88,-3.81,0.25,1.62,-1.75,-0.06,0.00,-0.23,0.00,0.00,0.61
7845,-3.88,1.88,-3.81,0.19,1.25,-2.00,-0.05,0.02,-0.19,0.00,0.00,0.62
7852,-3.88,1.94,-3.75,0.31,1.31,-2.06,-0.05,0.02,-0.19,0.00,0.00,0.60
7861,-3.88,1.94,-3.75,0.25,1.06,-2.19,-0.06,0.02,-0.22,0.00,0.00,0.61
7894,-3.88,1.94,-3.69,0.19,0.56,-2.69,-0.07,0.01,-0.23,0.00,0.00,0.61
7903,-3.88,1.94,-3.62,0.25,0.44,-2.81,-0.07,0.01,-0.21,0.00,0.00,0.61
7911,-3.88,1.94,-3.62,0.12,0.44,-3.06,-0.07,0.00,-0.19,0.00,0.00,0.61
7918,-3.88,1.94,-3.56,0.06,0.12,-3.25,-0.07,-0.01,-0.20,0.00,0.00,0.60
7926,-3.88,1.94,-3.56,0.06,0.06,-3.38,-0.06,0.01,-0.20,0.00,0.00,0.60
7937,-3.88,1.94,-3.56,0.06,0.06,-3.38,-0.06,-0.01,-0.22,0.00,0.00,0.60
7946,-3.88,1.94,-3.50,0.19,-0.25,-3.62,-0.09,0.00,-0.23,0.00,0.00,0.62
7956,-3.88,1.94,-3.50,0.19,-0.25,-3.62,-0.09,0.00,-0.23,0.00,0.00,0.61
7963,-3.88,1.94,-3.44,0.31,-0.56,-3.62,-0.07,0.03,-0.22,0.00,0.00,0.61
7976,-3.88,1.94,-3.44,0.06,-0.69,-3.75,-0.06,0.02,-0.25,0.00,0.00,0.61
7985,-3.88,1.94,-3.38,0.19,-0.75,-4.06,-0.06,0.00,-0.25,0.00,0.00,0.61
7998,-3.88,1.94,-3.31,0.12,-0.81,-4.25,-0.06,0.00,-0.25,0.00,0.00,0.61
8006,-3.88,1.94,-3.31,0.12,-1.06,-4.38,-0.09,0.03,-0.17,0.00,0.00,0.61
8018,-3.88,1.94,-3.25,0.19,-1.00,-4.50,-0.09,0.03,-0.17,0.00,0.00,0.60
8047,-3.81,1.94,-3.06,0.06,-1.69,-5.00,-0.08,0.00,-0.25,0.00,0.00,0.62
8058,-3.81,1.94,-3.06,0.06,-1.69,-5.00,-0.08,0.00,-0.25,0.00,0.00,0.59
8066,-3.75,1.94,-3.00,0.12,-1.88,-5.00,-0.08,0.06,-0.18,0.00,0.00,0.61
8078,-3.75,1.94,-2.94,0.19,-2.06,-5.25,-0.07,0.00,-0.26,0.00,0.00,0.62
8086,-3.69,1.94,-2.94,0.00,-2.25,-5.12,-0.07,0.03,-0.24,0.00,0.00,0.61
8096,-3.69,1.94,-2.88,0.12,-2.31,-5.25,-0.08,-0.01,-0.26,0.00,0.00,0.61
8104,-3.69,2.00,-2.81,0.06,-2.50,-5.50,-0.08,-0.01,-0.26,0.00,0.00,0.61
8112,-3.62,2.00,-2.75,0.12,-2.38,-5.50,-0.07,-0.02,-0.23,0.00,0.00,0.61
8120,-3.62,2.00,-2.69,0.19,-2.50,-5.75,-0.07,0.04,-0.20,0.00,0.00,0.60
8129,-3.62,2.00,-2.69,0.12,-2.69,-5.75,-0.09,-0.04,-0.26,0.00,0.00,0.60
8137,-3.56,2.00,-2.62,0.25,-2.88,-6.00,-0.04,0.00,-0.24,0.00,0.00,0.59
8150,-3.56,2.00,-2.56,0.25,-2.88,-6.00,-0.05,0.04,-0.20,0.00,0.00,0.61
8157,-3.50,2.00,-2.50,0.44,-3.00,-6.06,-0.04,-0.01,-0.23,0.00,0.00,0.60
8167,-3.50,2.00,-2.50,0.44,-3.00,-6.06,-0.04,-0.01,-0.23,0.00,0.00,0.60
8198,-3.38,2.00,-2.31,0.06,-3.25,-6.56,-0.07,0.01,-0.22,0.00,0.00,0.61
8206,-3.38,2.00,-2.25,0.06,-3.25,-6.56,-0.07,0.01,-0.22,0.00,0.00,0.61
8215,-3.31,2.00,-2.19,0.12,-3.25,-6.38,-0.07,-0.01,-0.22,0.00,0.00,0.60
8223,-3.31,2.00,-2.12,0.19,-3.31,-6.50,-0.09,0.03,-0.20,0.00,0.00,0.60
8233,-3.25,2.00,-2.06,0.06,-3.38,-6.56,-0.07,0.02,-0.19,0.00,0.00,0.62
8240,-3.25,2.00,-2.00,0.00,-3.31,-6.69,-0.08,-0.03,-0.22,0.00,0.00,0.61
8252,-3.25,2.00,-2.00,0.12,-3.44,-6.69,-0.10,0.00,-0.22,0.00,0.00,0.60
8259,-3.19,2.00,-1.81,0.00,-3.44,-6.75,-0.10,-0.02,-0.21,0.00,0.00,0.61
8269,-3.19,2.00,-1.81,0.00,-3.44,-6.75,-0.10,-0.02,-0.21,0.00,0.00,0.60
8278,-3.12,2.06,-1.75,0.31,-3.69,-6.75,-0.09,0.04,-0.25,0.00,0.00,0.61
8289,-3.06,2.06,-1.69,0.31,-3.56,-6.88,-0.10,0.01,-0.22,0.00,0.00,0.63
8298,-3.06,2.06,-1.62,0.31,-3.56,-6.88,-0.10,0.00,-0.22,0.00,0.00,0.62
8307,-3.00,2.06,-1.56,0.38,-3.50,-7.12,-0.10,0.00,-0.22,0.00,0.00,0.61
8314,-2.94,2.06,-1.50,0.25,-3.69,-7.06,-0.11,0.01,-0.22,0.00,0.00,0.61
8349,-2.88,2.06,-1.31,0.19,-3.62,-7.12,-0.09,0.00,-0.24,0.00,0.00,0.62
8356,-2.81,2.06,-1.25,0.12,-3.81,-7.12,-0.13,-0.04,-0.23,0.00,0.00,0.62
8366,-2.75,2.06,-1.19,0.25,-3.75,-7.19,-0.11,-0.02,-0.23,0.00,0.00,0.62
8376,-2.75,2.06,-1.12,0.25,-3.75,-7.19,-0.11,0.00,-0.24,0.00,0.00,0.62
8390,-2.69,2.06,-1.00,0.31,-3.56,-7.19,-0.11,0.00,-0.25,0.00,0.00,0.61
8399,-2.69,2.06,-0.94,0.19,-3.56,-7.12,-0.14,0.00,-0.25,0.00,0.00,0.63
8409,-2.62,2.06,-0.88,0.44,-3.56,-7.12,-0.14,0.00,-0.25,0.00,0.00,0.62
8417,-2.56,2.06,-0.81,0.19,-3.69,-7.00,-0.14,-0.01,-0.25,0.00,0.00,0.62
8426,-2.56,2.06,-0.75,0.25,-3.75,-7.19,-0.13,0.00,-0.25,0.00,0.00,0.62
8436,-2.50,2.06,-0.69,0.19,-3.69,-7.06,-0.15,0.02,-0.24,0.00,0.00,0.63
8444,-2.50,2.06,-0.62,0.31,-3.50,-6.88,-0.14,0.01,-0.23,0.00,0.00,0.62
8456,-2.44,2.06,-0.56,0.31,-3.44,-7.00,-0.15,0.02,-0.20,0.00,0.00,0.62
8466,-2.38,2.12,-0.50,0.19,-3.31,-7.00,-0.11,0.01,-0.22,0.00,0.00,0.63
8474,-2.38,2.12,-0.44,0.12,-3.25,-6.88,-0.12,-0.01,-0.24,0.00,0.00,0.63
8506,-2.25,2.12,-0.25,0.25,-3.06,-6.81,-0.13,0.00,-0.25,0.00,0.00,0.63
8513,-2.25,2.12,-0.12,0.06,-3.06,-6.69,-0.13,-0.03,-0.24,0.00,0.00,0.64
8521,-2.19,2.12,-0.06,0.25,-2.94,-6.62,-0.14,-0.05,-0.22,0.00,0.00,0.63
8530,-2.19,2.12,-0.06,0.19,-2.94,-6.56,-0.11,-0.01,-0.24,0.00,0.00,0.63
8539,-2.19,2.12,0.00,0.19,-2.94,-6.56,-0.14,-0.03,-0.23,0.00,0.00,0.63
8549,-2.12,2.12,0.06,0.31,-2.75,-6.69,-0.15,0.00,-0.23,0.00,0.00,0.62
8557,-2.12,2.12,0.12,0.25,-2.56,-6.50,-0.15,0.00,-0.23,0.00,0.00,0.63
8564,-2.06,2.12,0.19,0.25,-2.62,-6.44,-0.12,-0.01,-0.22,0.00,0.00,0.61
8571,-2.06,2.12,0.25,0.12,-2.56,-6.25,-0.15,-0.01,-0.24,0.00,0.00,0.62
8581,-2.06,2.12,0.25,0.12,-2.56,-6.25,-0.15,-0.01,-0.25,0.00,0.00,0.64
8590,-2.06,2.12,0.31,0.38,-2.56,-6.19,-0.14,0.03,-0.23,0.00,0.00,0.62
8600,-2.00,2.12,0.31,0.44,-2.31,-6.06,-0.14,0.00,-0.23,0.00,0.00,0.62
8610,-2.00,2.12,0.38,0.44,-2.25,-6.06,-0.14,0.00,-0.23,0.00,0.00,0.62
8618,-1.94,2.12,0.44,0.19,-2.06,-6.06,-0.15,0.01,-0.25,0.00,0.00,0.62
8630,-1.94,2.12,0.50,0.19,-1.94,-5.81,-0.15,0.02,-0.24,0.00,0.00,0.62
8665,-1.88,2.12,0.69,0.12,-1.44,-5.56,-0.15,0.00,-0.23,0.00,0.00,0.62
8677,-1.88,2.12,0.81,0.19,-1.38,-5.31,-0.13,-0.01,-0.24,0.00,0.00,0.61
8684,-1.81,2.12,0.81,0.19,-1.31,-5.25,-0.15,-0.03,-0.28,0.00,0.00,0.61
8693,-1.81,2.12,0.81,0.25,-1.00,-5.19,-0.15,0.00,-0.24,0.00,0.00,0.61
8702,-1.81,2.12,0.88,0.19,-0.75,-5.00,-0.12,0.00,-0.23,0.00,0.00,0.62
8709,-1.81,2.12,0.94,0.19,-0.75,-5.00,-0.12,0.00,-0.23,0.00,0.00,0.63
8716,-1.81,2.12,1.00,0.25,-0.62,-4.81,-0.12,-0.01,-0.23,0.00,0.00,0.61
8723,-1.81,2.12,1.00,0.19,-0.44,-4.75,-0.14,0.02,-0.20,0.00,0.00,0.62
8731,-1.81,2.12,1.00,0.25,-0.38,-4.56,-0.13,-0.02,-0.25,0.00,0.00,0.62
8741,-1.81,2.12,1.06,0.25,-0.38,-4.56,-0.13,0.00,-0.22,0.00,0.00,0.61
8751,-1.81,2.12,1.12,0.25,0.00,-4.56,-0.13,0.01,-0.25,0.00,0.00,0.61
8758,-1.81,2.12,1.19,0.06,0.06,-4.38,-0.13,0.01,-0.25,0.00,0.00,0.62
8767,-1.81,2.12,1.19,0.19,0.25,-4.19,-0.11,0.01,-0.23,0.00,0.00,0.62
8774,-1.81,2.19,1.25,0.06,0.19,-4.12,-0.11,0.01,-0.25,0.00,0.00,0.64
8805,-1.81,2.19,1.38,0.06,1.06,-3.69,-0.13,-0.01,-0.24,0.00,0.00,0.61
8813,-1.81,2.19,1.38,0.12,1.06,-3.56,-0.14,-0.01,-0.23,0.00,0.00,0.62
8820,-1.81,2.19,1.38,0.12,1.06,-3.56,-0.14,-0.01,-0.23,0.00,0.00,0.63
8829,-1.81,2.19,1.44,0.06,1.25,-3.38,-0.15,-0.01,-0.23,0.00,0.00,0.61
8841,-1.88,2.19,1.44,0.12,1.44,-3.38,-0.15,-0.02,-0.24,0.00,0.00,0.62
8851,-1.88,2.19,1.50,0.12,1.50,-3.06,-0.14,-0.03,-0.22,0.00,0.00,0.61
8860,-1.88,2.19,1.50,0.25,1.50,-3.00,-0.15,0.03,-0.21,0.00,0.00,0.63
8868,-1.88,2.19,1.56,0.00,1.62,-2.81,-0.14,0.00,-0.24,0.00,0.00,0.62
8877,-1.94,2.19,1.56,0.06,1.75,-2.56,-0.16,0.03,-0.23,0.00,0.00,0.61
8884,-1.94,2.19,1.56,0.00,2.06,-2.56,-0.16,0.05,-0.25,0.00,0.00,0.61
8895,-1.94,2.19,1.56,-0.06,1.94,-2.31,-0.16,0.03,-0.25,0.00,0.00,0.62
8903,-1.94,2.19,1.62,-0.06,2.00,-2.25,-0.18,0.02,-0.22,0.00,0.00,0.61
8910,-1.94,2.19,1.62,-0.06,2.00,-2.25,-0.18,0.02,-0.22,0.00,0.00,0.63
8918,-2.00,2.19,1.69,-0.06,2.12,-2.12,-0.18,0.01,-0.19,0.00,0.00,0.62
8925,-2.00,2.19,1.69,0.00,2.38,-1.94,-0.16,0.00,-0.22,0.00,0.00,0.61
8955,-2.06,2.19,1.75,-0.19,2.25,-1.44,-0.16,0.03,-0.23,0.00,0.00,0.61
8964,-2.06,2.19,1.75,-0.19,2.25,-1.44,-0.16,0.01,-0.27,0.00,0.00,0.63
8971,-2.12,2.19,1.75,-0.12,2.44,-1.19,-0.16,0.01,-0.27,0.00,0.00,0.62
8984,-2.12,2.19,1.75,-0.06,2.56,-1.00,-0.15,0.02,-0.27,0.00,0.00,0.62
8993,-2.12,2.19,1.75,-0.19,2.69,-0.81,-0.16,0.02,-0.24,0.00,0.00,0.62
9005,-2.19,2.19,1.75,-0.19,2.69,-0.81,-0.16,0.02,-0.24,0.00,0.00,0.62
9013,-2.19,2.19,1.75,-0.19,2.50,-0.62,-0.13,0.00,-0.22,0.00,0.00,0.63
9022,-2.25,2.19,1.75,-0.19,2.75,-0.38,-0.13,0.00,-0.22,0.00,0.00,0.63
9032,-2.25,2.19,1.75,-0.19,2.81,-0.31,-0.15,0.00,-0.21,0.00,0.00,0.63
9044,-2.25,2.19,1.75,-0.06,3.00,-0.12,-0.15,0.00,-0.24,0.00,0.00,0.63
9053,-2.31,2.19,1.75,0.00,2.69,0.00,-0.15,0.04,-0.21,0.00,0.00,0.61
9061,-2.31,2.19,1.75,-0.06,2.81,0.31,-0.15,0.04,-0.21,0.00,0.00,0.62
9068,-2.38,2.19,1.75,0.06,2.88,0.44,-0.15,0.04,-0.20,0.00,0.00,0.62
9076,-2.38,2.19,1.75,-0.19,2.81,0.56,-0.14,0.03,-0.20,0.00,0.00,0.64
9107,-2.50,2.19,1.75,-0.38,3.06,1.12,-0.10,0.05,-0.22,0.00,0.00,0.62
9115,-2.50,2.19,1.75,-0.25,3.00,1.19,-0.10,0.04,-0.23,0.00,0.00,0.61
9122,-2.50,2.19,1.75,-0.25,3.00,1.19,-0.10,0.04,-0.23,0.00,0.00,0.62
9131,-2.56,2.19,1.75,-0.38,3.12,1.44,-0.09,0.05,-0.21,0.00,0.00,0.63
9141,-2.56,2.19,1.69,-0.38,3.19,1.56,-0.10,0.02,-0.24,0.00,0.00,0.61
9149,-2.62,2.19,1.69,-0.56,3.12,1.69,-0.10,0.00,-0.25,0.00,0.00,0.61
9156,-2.62,2.19,1.69,-0.31,2.94,1.88,-0.07,0.00,-0.25,0.00,0.00,0.62
9166,-2.62,2.19,1.69,-0.31,2.94,1.88,-0.06,0.00,-0.25,0.00,0.00,0.62
9174,-2.69,2.19,1.62,-0.31,3.19,2.06,-0.06,0.00,-0.25,0.00,0.00,0.64
9185,-2.69,2.19,1.62,-0.12,3.12,2.25,-0.07,0.02,-0.27,0.00,0.00,0.62
9194,-2.75,2.19,1.62,-0.25,3.25,2.31,-0.07,0.06,-0.25,0.00,0.00,0.62
9205,-2.75,2.19,1.56,-0.25,3.38,2.38,-0.07,0.05,-0.24,0.00,0.00,0.62
9213,-2.81,2.19,1.56,-0.25,3.38,2.56,-0.07,0.05,-0.24,0.00,0.00,0.62
9221,-2.81,2.19,1.56,-0.44,3.19,2.75,-0.06,0.07,-0.22,0.00,0.00,0.61
9229,-2.88,2.19,1.50,-0.38,3.38,2.88,-0.07,0.06,-0.25,0.00,0.00,0.62
9262,-2.94,2.19,1.44,-0.38,3.31,3.44,-0.09,0.06,-0.18,0.00,0.00,0.62
9269,-3.00,2.19,1.38,-0.31,3.25,3.44,-0.08,0.02,-0.18,0.00,0.00,0.60
9280,-3.00,2.12,1.38,-0.31,3.25,3.56,-0.07,0.06,-0.18,0.00,0.00,0.63
9288,-3.06,2.12,1.31,-0.31,3.19,3.88,-0.09,0.06,-0.24,0.00,0.00,0.61
9296,-3.06,2.12,1.31,-0.38,3.12,3.81,-0.12,0.05,-0.23,0.00,0.00,0.60
9310,-3.06,2.12,1.25,-0.38,3.12,3.81,-0.10,0.07,-0.23,0.00,0.00,0.62
9322,-3.12,2.12,1.19,-0.44,2.75,4.12,-0.08,0.06,-0.23,0.00,0.00,0.60
9333,-3.19,2.12,1.12,-0.44,2.88,4.38,-0.10,0.06,-0.23,0.00,0.00,0.61
9343,-3.19,2.12,1.12,-0.38,2.81,4.44,-0.08,0.03,-0.24,0.00,0.00,0.61
9355,-3.25,2.12,1.06,-0.44,2.75,4.56,-0.09,0.05,-0.23,0.00,0.00,0.60
9362,-3.25,2.12,1.00,-0.44,2.81,4.69,-0.08,0.04,-0.21,0.00,0.00,0.60
9372,-3.31,2.12,1.00,-0.25,2.75,4.81,-0.08,0.04,-0.22,0.00,0.00,0.61
9379,-3.31,2.12,0.94,-0.25,2.44,4.88,-0.09,0.06,-0.24,0.00,0.00,0.60
9387,-3.31,2.12,0.94,-0.44,2.12,5.06,-0.10,0.06,-0.24,0.00,0.00,0.60
9417,-3.38,2.12,0.75,-0.44,2.00,5.44,-0.11,0.05,-0.21,0.00,0.00,0.61
9427,-3.38,2.12,0.75,-0.44,2.00,5.44,-0.11,0.05,-0.21,0.00,0.00,0.60
9436,-3.44,2.12,0.69,-0.31,1.75,5.56,-0.11,0.04,-0.22,0.00,0.00,0.61
9448,-3.44,2.12,0.62,-0.38,1.88,5.44,-0.10,0.04,-0.22,0.00,0.00,0.61
9457,-3.44,2.12,0.56,-0.25,1.44,5.75,-0.09,0.05,-0.19,0.00,0.00,0.59
9464,-3.50,2.12,0.50,-0.25,1.44,5.75,-0.09,0.05,-0.19,0.00,0.00,0.59
9472,-3.50,2.12,0.44,-0.31,1.25,5.75,-0.13,0.05,-0.19,0.00,0.00,0.60
9482,-3.50,2.12,0.38,-0.44,1.06,5.81,-0.11,0.04,-0.20,0.00,0.00,0.61
9489,-3.50,2.12,0.31,-0.44,1.12,5.94,-0.11,0.05,-0.19,0.00,0.00,0.60
9501,-3.50,2.12,0.31,-0.38,0.88,6.12,-0.08,0.06,-0.22,0.00,0.00,0.60
9508,-3.56,2.06,0.19,-0.44,0.62,6.25,-0.08,0.06,-0.20,0.00,0.00,0.60
9518,-3.56,2.06,0.19,-0.44,0.62,6.25,-0.08,0.06,-0.20,0.00,0.00,0.61
9526,-3.56,2.06,0.19,-0.31,0.62,6.31,-0.08,0.05,-0.23,0.00,0.00,0.59
9538,-3.56,2.06,0.12,-0.56,0.38,6.19,-0.06,0.03,-0.26,0.00,0.00,0.60
9547,-3.56,2.06,0.06,-0.50,0.31,6.25,-0.06,0.04,-0.24,0.00,0.00,0.61
9579,-3.56,2.06,-0.12,-0.38,0.00,6.50,-0.06,0.01,-0.23,0.00,0.00,0.60
9588,-3.56,2.06,-0.19,-0.44,-0.19,6.50,-0.07,0.02,-0.23,0.00,0.00,0.60
9600,-3.56,2.06,-0.25,-0.44,-0.38,6.62,-0.06,0.03,-0.21,0.00,0.00,0.59
9609,-3.56,2.06,-0.38,-0.38,-0.31,6.62,-0.08,0.02,-0.24,0.00,0.00,0.61
9620,-3.56,2.06,-0.44,-0.38,-0.31,6.62,-0.08,0.02,-0.24,0.00,0.00,0.61
9627,-3.56,2.06,-0.50,-0.25,-0.50,6.62,-0.06,0.05,-0.25,0.00,0.00,0.60
9639,-3.56,2.06,-0.56,-0.44,-0.81,6.69,-0.07,0.05,-0.20,0.00,0.00,0.60
9648,-3.56,2.06,-0.62,-0.50,-0.62,6.56,-0.07,0.04,-0.23,0.00,0.00,0.61
9660,-3.56,2.06,-0.69,-0.56,-0.94,6.69,-0.07,0.02,-0.19,0.00,0.00,0.62
9667,-3.56,2.00,-0.75,-0.31,-0.88,6.75,-0.07,0.02,-0.19,0.00,0.00,0.60
9677,-3.56,2.00,-0.81,-0.50,-1.06,6.69,-0.07,0.03,-0.21,0.00,0.00,0.60
9687,-3.50,2.00,-0.88,-0.38,-1.38,6.81,-0.08,0.03,-0.23,0.00,0.00,0.59
9701,-3.50,2.00,-0.94,-0.56,-1.31,6.88,-0.08,0.01,-0.22,0.00,0.00,0.61
9709,-3.50,2.00,-1.00,-0.44,-1.50,6.81,-0.08,-0.01,-0.26,0.00,0.00,0.61
9743,-3.44,2.00,-1.19,-0.50,-2.00,6.81,-0.08,0.02,-0.27,0.00,0.00,0.61
9751,-3.44,2.00,-1.31,-0.38,-2.00,6.75,-0.07,0.00,-0.25,0.00,0.00,0.61
9762,-3.44,2.00,-1.31,-0.38,-2.00,6.69,-0.11,0.00,-0.24,0.00,0.00,0.60
9770,-3.38,2.00,-1.44,-0.44,-2.06,6.75,-0.10,0.00,-0.23,0.00,0.00,0.60
9779,-3.38,2.00,-1.44,-0.44,-2.06,6.75,-0.10,0.00,-0.23,0.00,0.00,0.61
9788,-3.38,2.00,-1.50,-0.50,-2.25,6.56,-0.12,-0.01,-0.19,0.00,0.00,0.61
9799,-3.38,2.00,-1.62,-0.38,-2.06,6.56,-0.11,0.01,-0.21,0.00,0.00,0.60
9809,-3.31,2.00,-1.69,-0.44,-2.31,6.50,-0.12,-0.01,-0.23,0.00,0.00,0.61
9817,-3.31,2.00,-1.75,-0.44,-2.56,6.50,-0.12,-0.01,-0.23,0.00,0.00,0.61
9824,-3.31,1.94,-1.81,-0.38,-2.56,6.50,-0.12,0.00,-0.20,0.00,0.00,0.61
9832,-3.25,1.94,-1.88,-0.44,-2.75,6.38,-0.14,-0.01,-0.24,0.00,0.00,0.59
9840,-3.25,1.94,-1.88,-0.50,-3.00,6.50,-0.14,-0.01,-0.26,0.00,0.00,0.62
9849,-3.25,1.94,-1.94,-0.50,-3.00,6.50,-0.15,-0.01,-0.23,0.00,0.00,0.62
9862,-3.19,1.94,-2.00,-0.38,-3.00,6.31,-0.16,0.00,-0.24,0.00,0.00,0.61
9892,-3.06,1.94,-2.19,-0.56,-3.38,5.94,-0.13,-0.02,-0.21,0.00,0.00,0.61
9900,-3.06,1.94,-2.19,-0.62,-3.50,5.94,-0.15,-0.03,-0.20,0.00,0.00,0.62
9910,-3.06,1.94,-2.25,-0.62,-3.50,5.94,-0.15,-0.03,-0.21,0.00,0.00,0.60
9918,-3.00,1.94,-2.31,-0.44,-3.44,5.94,-0.15,-0.03,-0.21,0.00,0.00,0.62
9925,-3.00,1.94,-2.38,-0.56,-3.50,5.81,-0.15,-0.04,-0.25,0.00,0.00,0.61
9933,-2.94,1.94,-2.44,-0.38,-3.62,5.69,-0.14,-0.04,-0.26,0.00,0.00,0.61
9941,-2.94,1.94,-2.44,-0.44,-3.81,5.62,-0.15,-0.04,-0.27,0.00,0.00,0.60
9952,-2.94,1.94,-2.50,-0.44,-3.81,5.62,-0.15,-0.03,-0.25,0.00,0.00,0.60
9961,-2.88,1.94,-2.56,-0.50,-3.94,5.44,-0.16,-0.02,-0.22,0.00,0.00,0.61
9970,-2.88,1.94,-2.62,-0.50,-3.94,5.44,-0.16,-0.02,-0.22,0.00,0.00,0.60
9977,-2.81,1.94,-2.69,-0.50,-3.75,5.25,-0.16,-0.03,-0.23,0.00,0.00,0.61
9988,-2.81,1.94,-2.69,-0.50,-3.81,5.19,-0.15,-0.04,-0.23,0.00,0.00,0.63
9999,-2.75,1.94,-2.75,-0.44,-3.81,4.94,-0.15,-0.03,-0.23,0.00,0.00,0.61
10013,-2.69,1.94,-2.81,-0.44,-3.75,5.00,-0.17,-0.03,-0.22,0.00,0.00,0.62
10043,-2.56,1.94,-3.00,-0.56,-3.88,4.50,-0.14,-0.02,-0.28,0.00,0.00,0.63
10054,-2.56,1.94,-3.00,-0.62,-3.81,4.38,-0.15,-0.03,-0.24,0.00,0.00,0.61
10062,-2.50,1.94,-3.06,-0.50,-3.94,4.25,-0.15,-0.06,-0.24,0.00,0.00,0.61
10070,-2.50,1.94,-3.06,-0.50,-3.94,4.25,-0.15,-0.06,-0.24,0.00,0.00,0.62
10078,-2.44,1.94,-3.12,-0.44,-3.88,4.12,-0.14,-0.05,-0.24,0.00,0.00,0.63
10087,-2.44,1.94,-3.19,-0.50,-3.56,3.94,-0.15,-0.08,-0.22,0.00,0.00,0.63
10095,-2.38,1.88,-3.19,-0.56,-3.50,3.81,-0.15,-0.08,-0.21,0.00,0.00,0.62
10104,-2.38,1.88,-3.25,-0.44,-3.56,3.75,-0.16,-0.05,-0.23,0.00,0.00,0.62
10112,-2.38,1.88,-3.25,-0.50,-3.69,3.56,-0.16,-0.07,-0.22,0.00,0.00,0.61
10122,-2.31,1.88,-3.25,-0.50,-3.69,3.56,-0.16,-0.07,-0.22,0.00,0.00,0.63
10129,-2.31,1.88,-3.31,-0.31,-3.25,3.38,-0.16,-0.06,-0.24,0.00,0.00,0.62
10138,-2.25,1.88,-3.31,-0.44,-3.25,3.38,-0.13,-0.07,-0.25,0.00,0.00,0.64
10147,-2.25,1.88,-3.38,-0.38,-3.06,3.19,-0.17,-0.07,-0.26,0.00,0.00,0.63
10156,-2.19,1.88,-3.38,-0.31,-3.25,3.06,-0.14,-0.06,-0.24,0.00,0.00,0.61
10187,-2.12,1.88,-3.50,-0.44,-2.62,2.50,-0.17,-0.04,-0.21,0.00,0.00,0.62
10195,-2.12,1.88,-3.50,-0.38,-2.56,2.44,-0.19,-0.07,-0.23,0.00,0.00,0.64
10203,-2.06,1.88,-3.50,-0.50,-2.38,2.19,-0.18,-0.08,-0.23,0.00,0.00,0.64
10212,-2.06,1.88,-3.50,-0.50,-2.38,2.19,-0.17,-0.09,-0.24,0.00,0.00,0.61
10221,-2.06,1.88,-3.56,-0.25,-2.62,2.06,-0.17,-0.09,-0.24,0.00,0.00,0.62
10229,-2.00,1.88,-3.56,-0.38,-2.62,2.06,-0.17,-0.07,-0.21,0.00,0.00,0.63
10238,-2.00,1.88,-3.56,-0.31,-2.19,1.75,-0.20,-0.07,-0.25,0.00,0.00,0.64
10245,-2.00,1.88,-3.62,-0.25,-2.06,1.56,-0.20,-0.07,-0.28,0.00,0.00,0.64
10253,-2.00,1.88,-3.62,-0.50,-2.06,1.44,-0.19,-0.03,-0.26,0.00,0.00,0.65
10262,-2.00,1.88,-3.62,-0.50,-2.06,1.44,-0.19,-0.07,-0.25,0.00,0.00,0.64
10273,-2.00,1.88,-3.62,-0.19,-2.12,1.38,-0.19,-0.07,-0.25,0.00,0.00,0.64
10280,-2.00,1.88,-3.62,-0.31,-2.00,1.25,-0.19,-0.06,-0.22,0.00,0.00,0.64
10291,-1.94,1.94,-3.62,-0.25,-1.75,0.94,-0.20,-0.05,-0.23,0.00,0.00,0.63
10302,-1.94,1.94,-3.69,-0.25,-1.50,0.88,-0.20,-0.07,-0.23,0.00,0.00,0.65
10333,-1.94,1.94,-3.69,-0.06,-1.00,0.12,-0.18,-0.06,-0.28,0.00,0.00,0.65
10342,-1.94,1.94,-3.69,-0.06,-1.00,0.12,-0.21,-0.07,-0.25,0.00,0.00,0.64
10356,-1.94,1.94,-3.69,-0.25,-1.12,0.00,-0.21,-0.07,-0.25,0.00,0.00,0.63
10368,-1.94,1.94,-3.69,-0.06,-0.81,-0.25,-0.21,-0.03,-0.22,0.00,0.00,0.64
10376,-1.94,1.94,-3.69,-0.25,-0.88,-0.62,-0.23,-0.04,-0.24,0.00,0.00,0.63
10386,-1.94,1.94,-3.69,-0.19,-0.69,-0.75,-0.21,-0.02,-0.25,0.00,0.00,0.63
10394,-1.94,1.94,-3.69,0.06,-0.69,-0.81,-0.19,-0.04,-0.24,0.00,0.00,0.65
10403,-1.94,1.94,-3.62,0.06,-0.69,-0.81,-0.20,-0.05,-0.26,0.00,0.00,0.64
10414,-1.94,1.94,-3.62,0.00,-0.56,-0.94,-0.21,-0.03,-0.22,0.00,0.00,0.64
10422,-2.00,1.94,-3.62,-0.06,-0.44,-1.12,-0.21,-0.03,-0.22,0.00,0.00,0.64
10432,-2.00,1.94,-3.62,0.00,-0.31,-1.25,-0.20,-0.05,-0.21,0.00,0.00,0.63
10443,-2.00,1.94,-3.62,0.00,0.12,-1.50,-0.18,-0.03,-0.24,0.00,0.00,0.63
10453,-2.00,1.94,-3.56,-0.06,0.00,-1.50,-0.17,-0.05,-0.25,0.00,0.00,0.63
10466,-2.00,1.94,-3.56,0.06,-0.06,-1.75,-0.17,-0.05,-0.25,0.00,0.00,0.63
10496,-2.06,1.94,-3.50,0.06,0.56,-2.25,-0.18,-0.02,-0.26,0.00,0.00,0.64
10508,-2.06,1.94,-3.50,-0.06,0.50,-2.44,-0.16,-0.03,-0.23,0.00,0.00,0.63
10515,-2.06,2.00,-3.44,0.19,0.94,-2.75,-0.17,-0.03,-0.23,0.00,0.00,0.63
10525,-2.06,2.00,-3.44,0.19,0.94,-2.75,-0.17,-0.03,-0.23,0.00,0.00,0.64
10533,-2.06,2.00,-3.44,0.19,1.00,-2.88,-0.15,-0.02,-0.23,0.00,0.00,0.64
10544,-2.06,2.00,-3.38,0.12,1.31,-2.94,-0.14,-0.03,-0.24,0.00,0.00,0.64
10554,-2.12,2.00,-3.38,0.06,1.25,-3.06,-0.16,-0.01,-0.26,0.00,0.00,0.64
10565,-2.12,2.00,-3.31,0.19,1.50,-3.25,-0.13,-0.02,-0.23,0.00,0.00,0.62
10572,-2.12,2.00,-3.31,0.06,1.50,-3.56,-0.13,-0.01,-0.25,0.00,0.00,0.62
10579,-2.12,2.00,-3.25,0.31,1.69,-3.44,-0.13,0.02,-0.23,0.00,0.00,0.64
10587,-2.19,2.00,-3.19,0.25,1.81,-3.69,-0.13,0.00,-0.24,0.00,0.00,0.64
10596,-2.19,2.00,-3.19,0.19,2.06,-3.88,-0.13,-0.01,-0.23,0.00,0.00,0.64
10605,-2.19,2.00,-3.19,0.19,2.06,-3.88,-0.12,0.00,-0.23,0.00,0.00,0.64
10614,-2.25,2.00,-3.12,0.19,2.25,-4.00,-0.13,0.01,-0.23,0.00,0.00,0.62
10645,-2.31,2.00,-3.00,0.31,2.69,-4.44,-0.11,0.00,-0.24,0.00,0.00,0.62
10655,-2.31,2.00,-3.00,0.31,2.69,-4.44,-0.12,0.01,-0.25,0.00,0.00,0.62
10666,-2.38,2.00,-2.94,0.25,2.81,-4.62,-0.14,0.00,-0.26,0.00,0.00,0.63
10674,-2.38,2.00,-2.88,0.31,2.81,-4.62,-0.14,0.00,-0.26,0.00,0.00,0.62
10682,-2.44,2.00,-2.81,0.31,3.00,-4.94,-0.15,0.04,-0.25,0.00,0.00,0.62
10689,-2.44,2.00,-2.75,0.31,3.06,-4.94,-0.13,0.01,-0.25,0.00,0.00,0.62
10697,-2.50,2.00,-2.75,0.38,3.00,-5.06,-0.13,0.01,-0.26,0.00,0.00,0.64
10705,-2.50,2.00,-2.75,0.38,3.00,-5.06,-0.14,0.02,-0.24,0.00,0.00,0.63
10715,-2.50,2.00,-2.69,0.31,3.25,-5.19,-0.11,0.00,-0.23,0.00,0.00,0.62
10723,-2.56,2.00,-2.62,0.44,3.25,-5.12,-0.11,0.00,-0.23,0.00,0.00,0.63
10730,-2.56,2.00,-2.56,0.38,3.25,-5.38,-0.12,0.00,-0.23,0.00,0.00,0.62
10740,-2.62,2.00,-2.50,0.25,3.44,-5.50,-0.14,0.01,-0.24,0.00,0.00,0.62
10747,-2.62,2.00,-2.44,0.25,3.38,-5.44,-0.14,0.00,-0.23,0.00,0.00,0.63
10758,-2.62,2.00,-2.44,0.25,3.38,-5.44,-0.13,0.02,-0.24,0.00,0.00,0.63
10788,-2.81,2.00,-2.25,0.38,3.44,-5.88,-0.15,0.03,-0.22,0.00,0.00,0.63
10798,-2.81,2.00,-2.25,0.44,3.44,-6.00,-0.13,0.03,-0.23,0.00,0.00,0.62
10807,-2.81,2.00,-2.19,0.38,3.31,-6.00,-0.12,0.06,-0.23,0.00,0.00,0.62
10817,-2.88,2.00,-2.12,0.38,3.31,-6.00,-0.13,0.02,-0.26,0.00,0.00,0.62
10824,-2.88,2.00,-2.06,0.25,3.50,-6.06,-0.13,0.02,-0.26,0.00,0.00,0.64
10832,-2.94,2.06,-2.00,0.50,3.44,-6.12,-0.12,0.03,-0.24,0.00,0.00,0.62
10841,-2.94,2.06,-1.94,0.44,3.44,-6.19,-0.13,0.03,-0.23,0.00,0.00,0.62
10848,-3.00,2.06,-1.88,0.25,3.25,-6.19,-0.11,0.02,-0.22,0.00,0.00,0.62
10857,-3.00,2.06,-1.88,0.25,3.31,-6.38,-0.10,0.04,-0.22,0.00,0.00,0.63
10867,-3.00,2.06,-1.81,0.25,3.31,-6.38,-0.10,0.07,-0.20,0.00,0.00,0.61
10875,-3.06,2.06,-1.75,0.38,3.19,-6.44,-0.10,0.07,-0.20,0.00,0.00,0.61
10883,-3.06,2.06,-1.69,0.44,3.38,-6.56,-0.07,0.03,-0.22,0.00,0.00,0.62
10890,-3.12,2.06,-1.62,0.44,3.06,-6.44,-0.09,0.05,-0.23,0.00,0.00,0.62
10898,-3.12,2.06,-1.56,0.31,3.19,-6.62,-0.06,0.04,-0.27,0.00,0.00,0.61
10930,-3.19,2.06,-1.44,0.38,2.88,-6.75,-0.07,0.03,-0.25,0.00,0.00,0.61
10938,-3.25,2.06,-1.38,0.38,3.00,-6.62,-0.06,0.04,-0.24,0.00,0.00,0.62
10951,-3.25,2.06,-1.31,0.38,3.00,-6.62,-0.06,0.04,-0.24,0.00,0.00,0.60
10958,-3.31,2.06,-1.19,0.38,2.94,-6.75,-0.09,0.03,-0.22,0.00,0.00,0.61
10971,-3.31,2.06,-1.19,0.38,2.94,-6.75,-0.06,0.04,-0.20,0.00,0.00,0.61
10979,-3.38,2.06,-1.06,0.38,2.69,-6.69,-0.04,0.03,-0.21,0.00,0.00,0.61
10990,-3.38,2.06,-1.06,0.38,2.69,-6.69,-0.04,0.03,-0.21,0.00,0.00,0.60
10998,-3.38,2.06,-1.00,0.50,2.69,-6.69,-0.04,0.06,-0.24,0.00,0.00,0.61
11010,-3.44,2.06,-0.88,0.50,2.69,-6.69,-0.04,0.05,-0.22,0.00,0.00,0.61
11018,-3.44,2.06,-0.81,0.31,2.75,-6.81,-0.05,0.07,-0.19,0.00,0.00,0.61
11028,-3.44,2.06,-0.75,0.31,2.75,-6.81,-0.05,0.07,-0.19,0.00,0.00,0.61
11036,-3.50,2.06,-0.69,0.38,2.81,-6.75,-0.02,0.05,-0.21,0.00,0.00,0.63
11045,-3.50,2.12,-0.62,0.44,2.62,-6.69,-0.04,0.03,-0.23,0.00,0.00,0.60
11054,-3.56,2.12,-0.56,0.50,2.31,-6.62,-0.02,0.04,-0.22,0.00,0.00,0.62
11061,-3.56,2.12,-0.50,0.31,2.31,-6.56,-0.04,0.02,-0.21,0.00,0.00,0.61
11105,-3.62,2.12,-0.25,0.44,2.00,-6.50,-0.02,0.06,-0.23,0.00,0.00,0.62
11114,-3.62,2.12,-0.19,0.38,1.94,-6.50,-0.01,0.04,-0.22,0.00,0.00,0.60
11121,-3.69,2.12,-0.12,0.25,2.00,-6.31,-0.04,0.05,-0.24,0.00,0.00,0.62
11129,-3.69,2.12,-0.12,0.44,1.75,-6.44,-0.05,0.05,-0.21,0.00,0.00,0.62
11137,-3.69,2.12,-0.06,0.44,1.75,-6.44,-0.05,0.05,-0.21,0.00,0.00,0.61
11145,-3.69,2.12,0.00,0.31,1.75,-6.38,-0.05,0.01,-0.23,0.00,0.00,0.61
11154,-3.69,2.12,0.06,0.38,1.69,-6.25,-0.03,0.06,-0.23,0.00,0.00,0.60
11161,-3.75,2.12,0.12,0.44,1.25,-6.31,-0.06,0.03,-0.20,0.00,0.00,0.61
11169,-3.75,2.12,0.12,0.25,1.31,-6.25,-0.05,0.01,-0.22,0.00,0.00,0.61
11177,-3.75,2.12,0.19,0.25,1.31,-6.25,-0.05,0.01,-0.22,0.00,0.00,0.62
11186,-3.75,2.12,0.25,0.19,1.31,-6.12,-0.04,0.05,-0.18,0.00,0.00,0.61
11193,-3.75,2.12,0.31,0.19,1.25,-6.12,-0.04,0.05,-0.21,0.00,0.00,0.62
11205,-3.75,2.12,0.38,0.25,1.06,-6.06,-0.05,0.04,-0.23,0.00,0.00,0.60
11215,-3.75,2.19,0.44,0.31,0.94,-5.88,-0.07,0.02,-0.25,0.00,0.00,0.61
11249,-3.81,2.19,0.56,0.19,0.38,-5.81,-0.06,0.03,-0.23,0.00,0.00,0.61
11262,-3.81,2.19,0.62,0.19,0.25,-5.56,-0.06,0.02,-0.22,0.00,0.00,0.60
11270,-3.81,2.19,0.69,0.19,-0.12,-5.38,-0.05,0.03,-0.19,0.00,0.00,0.59
11279,-3.81,2.19,0.75,0.19,-0.12,-5.38,-0.05,0.03,-0.19,0.00,0.00,0.60
11286,-3.81,2.19,0.81,0.25,-0.19,-5.25,-0.05,0.02,-0.21,0.00,0.00,0.61
11294,-3.81,2.19,0.88,0.31,-0.38,-5.19,-0.07,0.02,-0.18,0.00,0.00,0.61
11302,-3.81,2.19,0.88,0.25,-0.38,-5.06,-0.04,0.03,-0.22,0.00,0.00,0.61
11310,-3.81,2.19,0.88,0.19,-0.44,-5.00,-0.02,0.01,-0.24,0.00,0.00,0.62
11320,-3.75,2.19,0.94,0.19,-0.44,-5.00,-0.03,0.03,-0.21,0.00,0.00,0.62
11329,-3.75,2.19,1.00,0.25,-0.81,-4.75,-0.03,0.03,-0.21,0.00,0.00,0.62
11336,-3.75,2.19,1.06,0.25,-0.81,-4.75,-0.05,0.03,-0.23,0.00,0.00,0.61
11346,-3.75,2.19,1.06,0.38,-1.12,-4.75,-0.05,0.05,-0.22,0.00,0.00,0.62
11354,-3.75,2.19,1.12,0.19,-1.25,-4.56,-0.03,0.03,-0.24,0.00,0.00,0.63
11366,-3.75,2.19,1.19,0.19,-1.31,-4.31,-0.04,0.04,-0.23,0.00,0.00,0.62
11402,-3.69,2.19,1.31,0.25,-1.88,-3.94,-0.04,0.02,-0.19,0.00,0.00,0.62
11411,-3.62,2.19,1.31,0.19,-2.00,-3.88,-0.03,0.02,-0.23,0.00,0.00,0.62
11424,-3.62,2.19,1.38,0.25,-2.06,-3.81,-0.01,0.02,-0.24,0.00,0.00,0.63
11431,-3.62,2.19,1.38,0.25,-2.25,-3.38,-0.02,0.00,-0.23,0.00,0.00,0.61
11442,-3.56,2.19,1.44,0.25,-2.25,-3.38,-0.02,0.00,-0.23,0.00,0.00,0.61
11451,-3.56,2.19,1.44,0.19,-2.25,-3.25,-0.04,0.00,-0.22,0.00,0.00,0.62
11462,-3.56,2.25,1.50,0.12,-2.50,-3.12,-0.01,0.00,-0.23,0.00,0.00,0.61
11471,-3.50,2.25,1.50,0.19,-2.44,-3.00,-0.02,0.01,-0.25,0.00,0.00,0.62
11481,-3.50,2.25,1.56,0.19,-2.50,-2.88,-0.02,0.01,-0.25,0.00,0.00,0.63
11488,-3.44,2.25,1.56,0.06,-2.69,-2.75,-0.03,0.02,-0.21,0.00,0.00,0.62
11501,-3.44,2.25,1.62,0.12,-2.69,-2.69,-0.04,0.00,-0.23,0.00,0.00,0.63
11511,-3.44,2.25,1.62,0.12,-2.69,-2.50,-0.03,0.00,-0.21,0.00,0.00,0.59
11523,-3.38,2.25,1.62,0.25,-2.69,-2.19,-0.03,0.00,-0.21,0.00,0.00,0.62
11531,-3.38,2.25,1.69,0.19,-2.81,-2.12,-0.03,-0.01,-0.23,0.00,0.00,0.60
11565,-3.25,2.25,1.75,0.12,-3.06,-1.56,-0.05,0.00,-0.24,0.00,0.00,0.62
11573,-3.19,2.25,1.75,0.06,-3.06,-1.38,-0.05,0.02,-0.19,0.00,0.00,0.64
11583,-3.19,2.25,1.75,0.06,-3.06,-1.38,-0.05,0.02,-0.19,0.00,0.00,0.62
11590,-3.19,2.25,1.75,0.19,-3.19,-1.19,-0.06,0.01,-0.20,0.00,0.00,0.62
11600,-3.12,2.25,1.75,0.12,-3.19,-1.00,-0.05,-0.02,-0.25,0.00,0.00,0.61
11613,-3.12,2.25,1.75,0.00,-3.19,-0.94,-0.06,0.01,-0.23,0.00,0.00,0.61
11622,-3.06,2.25,1.81,-0.12,-3.12,-0.69,-0.07,0.00,-0.24,0.00,0.00,0.62
11631,-3.06,2.25,1.81,-0.06,-3.19,-0.50,-0.07,0.00,-0.24,0.00,0.00,0.62
11639,-3.00,2.25,1.81,0.00,-3.12,-0.50,-0.06,0.00,-0.22,0.00,0.00,0.61
11646,-3.00,2.25,1.81,0.06,-3.19,-0.25,-0.06,-0.02,-0.22,0.00,0.00,0.61
11654,-2.94,2.25,1.81,0.00,-3.25,-0.25,-0.09,0.00,-0.24,0.00,0.00,0.62
11663,-2.94,2.25,1.81,0.00,-3.44,0.06,-0.08,0.01,-0.22,0.00,0.00,0.61
11672,-2.94,2.25,1.75,0.00,-3.44,0.06,-0.09,0.01,-0.21,0.00,0.00,0.61
11679,-2.88,2.25,1.75,-0.06,-3.44,0.12,-0.09,0.01,-0.21,0.00,0.00,0.63
11691,-2.88,2.25,1.75,-0.12,-3.31,0.31,-0.10,0.00,-0.21,0.00,0.00,0.62
11724,-2.75,2.25,1.75,0.06,-3.56,0.88,-0.11,0.00,-0.25,0.00,0.00,0.62
11732,-2.69,2.25,1.75,0.12,-3.56,0.88,-0.11,0.00,-0.25,0.00,0.00,0.62
11739,-2.69,2.25,1.75,0.06,-3.56,1.19,-0.11,0.01,-0.22,0.00,0.00,0.62
11746,-2.62,2.25,1.75,-0.12,-3.62,1.38,-0.11,0.00,-0.24,0.00,0.00,0.62
11754,-2.62,2.25,1.69,-0.12,-3.56,1.44,-0.11,0.00,-0.26,0.00,0.00,0.61
11763,-2.62,2.25,1.69,-0.06,-3.44,1.69,-0.12,0.03,-0.23,0.00,0.00,0.64
11775,-2.56,2.25,1.69,-0.06,-3.44,1.69,-0.12,0.00,-0.24,0.00,0.00,0.64
11783,-2.56,2.25,1.69,-0.12,-3.38,1.62,-0.12,0.02,-0.21,0.00,0.00,0.62
11794,-2.50,2.25,1.69,-0.19,-3.56,1.88,-0.12,0.02,-0.21,0.00,0.00,0.62
11803,-2.50,2.25,1.62,-0.12,-3.31,2.12,-0.11,0.00,-0.25,0.00,0.00,0.62
11813,-2.44,2.25,1.62,-0.19,-3.69,2.12,-0.11,0.03,-0.24,0.00,0.00,0.64
11823,-2.44,2.25,1.62,-0.31,-3.38,2.19,-0.09,0.00,-0.24,0.00,0.00,0.63
11833,-2.38,2.25,1.56,-0.25,-3.19,2.50,-0.09,0.00,-0.24,0.00,0.00,0.63
11840,-2.38,2.25,1.56,-0.31,-3.31,2.69,-0.10,0.01,-0.24,0.00,0.00,0.62
11875,-2.25,2.25,1.44,-0.19,-3.06,3.00,-0.11,0.03,-0.21,0.00,0.00,0.61
11882,-2.25,2.25,1.44,-0.12,-2.94,3.06,-0.11,0.00,-0.23,0.00,0.00,0.61
11893,-2.19,2.25,1.38,-0.19,-2.81,3.25,-0.10,0.01,-0.24,0.00,0.00,0.62
11903,-2.19,2.19,1.38,-0.19,-2.62,3.44,-0.11,0.02,-0.22,0.00,0.00,0.62
11917,-2.19,2.19,1.31,-0.31,-2.50,3.56,-0.11,0.01,-0.26,0.00,0.00,0.63
11925,-2.12,2.19,1.31,-0.25,-2.38,3.75,-0.12,0.03,-0.24,0.00,0.00,0.63
11935,-2.12,2.19,1.25,-0.25,-2.38,3.75,-0.12,0.03,-0.24,0.00,0.00,0.61
11942,-2.12,2.19,1.19,-0.31,-2.50,3.94,-0.11,0.00,-0.21,0.00,0.00,0.63
11953,-2.06,2.19,1.19,-0.31,-2.19,4.25,-0.11,0.03,-0.21,0.00,0.00,0.62
11963,-2.06,2.19,1.12,-0.25,-2.00,4.19,-0.11,0.01,-0.23,0.00,0.00,0.61
11977,-2.06,2.19,1.06,-0.19,-1.88,4.31,-0.11,0.02,-0.23,0.00,0.00,0.63
11985,-2.00,2.19,1.06,-0.31,-1.50,4.38,-0.12,0.04,-0.23,0.00,0.00,0.61
11996,-2.00,2.19,1.00,-0.31,-1.50,4.38,-0.12,0.04,-0.23,0.00,0.00,0.61
12005,-2.00,2.19,0.94,-0.31,-1.44,4.75,-0.11,0.04,-0.23,0.00,0.00,0.62
12035,-2.00,2.19,0.81,-0.25,-1.06,5.00,-0.13,0.01,-0.24,0.00,0.00,0.63
12042,-2.00,2.19,0.75,-0.31,-1.00,5.06,-0.13,0.01,-0.24,0.00,0.00,0.61
12050,-1.94,2.19,0.69,-0.25,-0.81,5.12,-0.14,0.02,-0.24,0.00,0.00,0.61
12057,-1.94,2.19,0.69,-0.44,-0.50,5.19,-0.13,0.03,-0.26,0.00,0.00,0.63
12066,-1.94,2.19,0.69,-0.38,-0.56,5.31,-0.16,0.03,-0.25,0.00,0.00,0.61
12075,-1.94,2.19,0.62,-0.38,-0.56,5.31,-0.15,0.02,-0.24,0.00,0.00,0.63
12085,-2.00,2.19,0.56,-0.25,-0.19,5.38,-0.15,0.02,-0.24,0.00,0.00,0.61
12092,-2.00,2.19,0.50,-0.31,-0.12,5.44,-0.15,0.05,-0.22,0.00,0.00,0.63
12105,-2.00,2.19,0.44,-0.50,-0.12,5.50,-0.15,0.04,-0.22,0.00,0.00,0.61
12119,-2.00,2.19,0.38,-0.31,0.06,5.62,-0.15,0.04,-0.23,0.00,0.00,0.64
12127,-2.00,2.19,0.31,-0.38,0.31,5.56,-0.16,0.04,-0.24,0.00,0.00,0.62
12136,-2.00,2.19,0.31,-0.38,0.31,5.56,-0.16,0.04,-0.24,0.00,0.00,0.62
12144,-2.00,2.19,0.25,-0.38,0.19,5.75,-0.16,0.06,-0.21,0.00,0.00,0.62
12154,-2.00,2.19,0.19,-0.25,0.50,6.00,-0.17,0.05,-0.25,0.00,0.00,0.63
12184,-2.00,2.19,0.00,-0.50,0.69,6.00,-0.15,0.06,-0.23,0.00,0.00,0.64
12193,-2.00,2.19,-0.06,-0.50,0.75,6.12,-0.16,0.05,-0.23,0.00,0.00,0.61
12201,-2.06,2.19,-0.12,-0.44,0.81,6.19,-0.15,0.04,-0.27,0.00,0.00,0.63
12210,-2.06,2.19,-0.19,-0.44,1.00,6.19,-0.16,0.05,-0.24,0.00,0.00,0.62
12218,-2.06,2.19,-0.25,-0.31,1.25,6.19,-0.14,0.03,-0.26,0.00,0.00,0.62
12227,-2.06,2.19,-0.25,-0.31,1.25,6.19,-0.16,0.02,-0.24,0.00,0.00,0.61
12234,-2.06,2.19,-0.31,-0.31,1.31,6.25,-0.16,0.02,-0.24,0.00,0.00,0.62
12244,-2.06,2.12,-0.38,-0.31,1.31,6.25,-0.13,0.05,-0.21,0.00,0.00,0.61
12252,-2.12,2.12,-0.44,-0.38,1.31,6.31,-0.17,0.05,-0.21,0.00,0.00,0.62
12263,-2.12,2.12,-0.50,-0.38,1.50,6.38,-0.14,0.07,-0.22,0.00,0.00,0.61
12271,-2.12,2.12,-0.56,-0.25,1.69,6.38,-0.15,0.07,-0.24,0.00,0.00,0.63
12283,-2.19,2.12,-0.62,-0.31,1.75,6.44,-0.16,0.04,-0.25,0.00,0.00,0.63
12290,-2.19,2.12,-0.69,-0.38,2.00,6.31,-0.14,0.08,-0.23,0.00,0.00,0.62
12297,-2.19,2.12,-0.69,-0.50,2.00,6.38,-0.14,0.06,-0.22,0.00,0.00,0.63
12307,-2.19,2.12,-0.75,-0.50,2.00,6.38,-0.13,0.05,-0.26,0.00,0.00,0.63
12337,-2.25,2.12,-0.94,-0.44,2.25,6.38,-0.12,0.04,-0.21,0.00,0.00,0.63
12344,-2.31,2.12,-1.00,-0.44,2.44,6.25,-0.12,0.04,-0.21,0.00,0.00,0.62
12352,-2.31,2.12,-1.06,-0.31,2.56,6.31,-0.12,0.05,-0.24,0.00,0.00,0.62
12359,-2.38,2.12,-1.12,-0.25,2.62,6.25,-0.14,0.04,-0.26,0.00,0.00,0.63
12368,-2.38,2.12,-1.12,-0.31,2.75,6.31,-0.11,0.04,-0.27,0.00,0.00,0.61
12378,-2.38,2.12,-1.19,-0.31,2.75,6.31,-0.10,0.04,-0.27,0.00,0.00,0.63
12386,-2.44,2.12,-1.25,-0.31,2.44,6.25,-0.10,0.04,-0.27,0.00,0.00,0.62
12393,-2.44,2.12,-1.31,-0.25,2.69,6.19,-0.11,0.05,-0.25,0.00,0.00,0.61
12400,-2.50,2.12,-1.38,-0.12,2.94,6.12,-0.11,0.07,-0.23,0.00,0.00,0.63
12409,-2.50,2.12,-1.38,-0.12,2.81,6.25,-0.10,0.06,-0.26,0.00,0.00,0.63
12418,-2.50,2.12,-1.38,-0.12,3.06,6.12,-0.14,0.09,-0.20,0.00,0.00,0.63
12428,-2.56,2.12,-1.44,-0.12,3.06,6.12,-0.11,0.07,-0.18,0.00,0.00,0.61
12436,-2.56,2.12,-1.50,-0.19,3.12,6.12,-0.11,0.07,-0.18,0.00,0.00,0.62
12445,-2.62,2.12,-1.56,-0.25,2.94,6.19,-0.10,0.04,-0.23,0.00,0.00,0.62
12478,-2.69,2.12,-1.75,-0.38,3.25,5.88,-0.11,0.09,-0.21,0.00,0.00,0.61
12489,-2.75,2.12,-1.81,-0.25,3.25,5.88,-0.11,0.09,-0.19,0.00,0.00,0.62
12496,-2.75,2.06,-1.88,-0.31,3.44,5.81,-0.11,0.04,-0.26,0.00,0.00,0.60
12508,-2.81,2.06,-1.94,-0.31,3.44,5.69,-0.12,0.04,-0.22,0.00,0.00,0.62
12518,-2.81,2.06,-2.00,-0.31,3.62,5.56,-0.11,0.02,-0.27,0.00,0.00,0.62
12531,-2.88,2.06,-2.00,-0.31,3.44,5.62,-0.11,0.02,-0.27,0.00,0.00,0.62
12539,-2.94,2.06,-2.06,-0.19,3.56,5.44,-0.13,-0.03,-0.24,0.00,0.00,0.62
12548,-2.94,2.06,-2.12,-0.25,3.44,5.50,-0.13,-0.03,-0.24,0.00,0.00,0.62
12558,-3.00,2.06,-2.19,-0.12,3.44,5.38,-0.12,0.02,-0.25,0.00,0.00,0.62
12570,-3.00,2.06,-2.25,-0.19,3.38,5.31,-0.10,0.06,-0.23,0.00,0.00,0.64
12579,-3.06,2.06,-2.31,-0.12,3.25,5.12,-0.11,0.10,-0.21,0.00,0.00,0.62
12591,-3.06,2.06,-2.31,-0.12,3.19,5.19,-0.11,0.10,-0.21,0.00,0.00,0.61
12598,-3.12,2.06,-2.38,-0.12,3.19,5.12,-0.11,0.04,-0.26,0.00,0.00,0.61
12611,-3.12,2.06,-2.44,-0.19,3.19,4.88,-0.11,0.00,-0.23,0.00,0.00,0.60
12641,-3.25,2.06,-2.62,-0.12,3.06,4.50,-0.11,0.02,-0.21,0.00,0.00,0.60
12651,-3.25,2.06,-2.62,-0.12,3.06,4.50,-0.10,-0.01,-0.23,0.00,0.00,0.59
12660,-3.31,2.06,-2.69,-0.19,3.06,4.31,-0.11,0.02,-0.20,0.00,0.00,0.62
12674,-3.31,2.06,-2.69,-0.19,3.06,4.31,-0.11,0.00,-0.24,0.00,0.00,0.61
12683,-3.38,2.06,-2.81,-0.06,2.56,4.12,-0.09,0.01,-0.25,0.00,0.00,0.60
12690,-3.38,2.06,-2.81,0.00,2.44,3.88,-0.11,0.04,-0.22,0.00,0.00,0.61
12700,-3.44,2.06,-2.81,0.00,2.44,3.88,-0.11,0.04,-0.22,0.00,0.00,0.60
12710,-3.44,2.06,-2.88,0.06,2.69,3.94,-0.10,0.00,-0.24,0.00,0.00,0.61
12720,-3.50,2.06,-2.88,-0.19,2.31,3.69,-0.09,0.00,-0.20,0.00,0.00,0.61
12730,-3.50,2.06,-2.94,0.06,2.00,3.50,-0.08,0.02,-0.20,0.00,0.00,0.60
12738,-3.50,2.06,-2.94,-0.06,2.06,3.38,-0.08,0.02,-0.20,0.00,0.00,0.60
12746,-3.56,2.06,-3.00,-0.19,2.06,3.31,-0.08,0.06,-0.21,0.00,0.00,0.59
12757,-3.56,2.00,-3.00,-0.06,2.00,3.12,-0.10,0.01,-0.22,0.00,0.00,0.62
12765,-3.56,2.00,-3.06,0.06,1.81,3.12,-0.09,-0.01,-0.25,0.00,0.00,0.61
12797,-3.62,2.00,-3.12,0.00,1.44,2.69,-0.05,0.00,-0.21,0.00,0.00,0.61
12807,-3.62,2.00,-3.19,0.00,1.38,2.62,-0.09,-0.03,-0.24,0.00,0.00,0.60
12816,-3.62,2.00,-3.19,-0.06,1.25,2.31,-0.07,-0.02,-0.23,0.00,0.00,0.61
12823,-3.69,2.00,-3.19,0.00,1.25,2.38,-0.08,0.00,-0.22,0.00,0.00,0.60
12832,-3.69,2.00,-3.19,-0.06,1.12,2.31,-0.06,-0.04,-0.20,0.00,0.00,0.61
12839,-3.69,2.00,-3.25,-0.06,1.12,2.31,-0.06,-0.04,-0.20,0.00,0.00,0.62
12851,-3.69,2.00,-3.25,0.12,0.94,1.94,-0.07,0.02,-0.21,0.00,0.00,0.60
12864,-3.69,2.00,-3.25,-0.19,1.00,1.88,-0.07,-0.04,-0.23,0.00,0.00,0.60
12872,-3.69,2.00,-3.25,-0.06,0.69,1.56,-0.06,-0.02,-0.24,0.00,0.00,0.60
12885,-3.69,2.00,-3.31,-0.06,0.69,1.56,-0.07,-0.02,-0.24,0.00,0.00,0.60
12892,-3.75,2.00,-3.31,-0.12,0.62,1.25,-0.09,-0.02,-0.23,0.00,0.00,0.60
12905,-3.75,2.00,-3.31,-0.12,0.62,1.25,-0.09,0.00,-0.21,0.00,0.00,0.61
12912,-3.75,2.00,-3.31,-0.06,0.38,0.88,-0.05,-0.02,-0.19,0.00,0.00,0.59
12925,-3.75,2.00,-3.31,-0.06,0.38,0.88,-0.07,-0.02,-0.20,0.00,0.00,0.60
12956,-3.75,2.00,-3.38,-0.06,-0.25,0.25,-0.08,0.00,-0.24,0.00,0.00,0.60
12965,-3.75,2.00,-3.38,0.12,-0.19,0.19,-0.08,-0.03,-0.27,0.00,0.00,0.59
12973,-3.75,2.00,-3.38,-0.06,-0.38,0.00,-0.11,-0.02,-0.22,0.00,0.00,0.59
12986,-3.75,2.00,-3.38,-0.06,-0.38,0.00,-0.09,-0.02,-0.22,0.00,0.00,0.61
12996,-3.69,2.00,-3.38,-0.06,-0.69,-0.31,-0.09,-0.03,-0.22,0.00,0.00,0.61
13004,-3.69,2.00,-3.38,0.06,-0.75,-0.56,-0.08,-0.01,-0.19,0.00,0.00,0.59
13016,-3.69,2.00,-3.38,-0.12,-0.88,-0.62,-0.07,-0.02,-0.22,0.00,0.00,0.60
13023,-3.69,2.00,-3.31,0.06,-1.06,-0.75,-0.09,-0.04,-0.21,0.00,0.00,0.60
13037,-3.69,2.00,-3.31,0.06,-1.06,-0.75,-0.09,-0.03,-0.21,0.00,0.00,0.61
13044,-3.69,2.00,-3.31,0.06,-1.44,-1.00,-0.10,-0.04,-0.26,0.00,0.00,0.59
13052,-3.69,2.00,-3.31,0.06,-1.44,-1.00,-0.10,-0.03,-0.24,0.00,0.00,0.61
13064,-3.62,2.00,-3.31,-0.06,-1.56,-1.19,-0.10,-0.03,-0.24,0.00,0.00,0.61
13072,-3.62,2.00,-3.31,-0.06,-1.75,-1.31,-0.10,-0.02,-0.25,0.00,0.00,0.59
13085,-3.62,2.00,-3.25,-0.19,-1.62,-1.44,-0.08,-0.04,-0.24,0.00,0.00,0.61
13115,-3.56,2.00,-3.19,-0.12,-2.06,-2.00,-0.08,-0.04,-0.22,0.00,0.00,0.61
13126,-3.56,2.00,-3.19,-0.06,-2.31,-2.00,-0.10,-0.04,-0.20,0.00,0.00,0.61
13134,-3.50,2.00,-3.19,0.00,-2.38,-2.38,-0.09,-0.02,-0.22,0.00,0.00,0.61
13142,-3.50,2.00,-3.19,0.00,-2.38,-2.38,-0.09,-0.02,-0.22,0.00,0.00,0.62
13149,-3.50,2.00,-3.12,0.00,-2.25,-2.44,-0.11,-0.04,-0.22,0.00,0.00,0.62
13156,-3.44,2.00,-3.12,0.06,-2.31,-2.56,-0.11,-0.02,-0.22,0.00,0.00,0.62
13164,-3.44,2.00,-3.12,-0.12,-2.31,-2.69,-0.08,-0.01,-0.25,0.00,0.00,0.61
13173,-3.44,2.00,-3.12,-0.12,-2.31,-2.69,-0.12,-0.03,-0.23,0.00,0.00,0.61
13183,-3.38,2.00,-3.06,-0.06,-2.69,-2.94,-0.09,-0.02,-0.25,0.00,0.00,0.61
13190,-3.38,2.00,-3.06,0.00,-2.94,-2.94,-0.09,-0.02,-0.25,0.00,0.00,0.61
13200,-3.31,2.00,-3.00,-0.06,-3.06,-3.06,-0.10,-0.04,-0.22,0.00,0.00,0.59
13208,-3.31,2.06,-3.00,-0.12,-2.94,-3.31,-0.11,-0.06,-0.22,0.00,0.00,0.61
13220,-3.25,2.06,-2.94,0.00,-2.94,-3.38,-0.10,-0.04,-0.23,0.00,0.00,0.61
13228,-3.25,2.06,-2.94,0.06,-3.19,-3.56,-0.10,-0.04,-0.25,0.00,0.00,0.61
13259,-3.12,2.06,-2.81,0.00,-3.25,-3.81,-0.09,-0.05,-0.25,0.00,0.00,0.60
13266,-3.12,2.06,-2.75,0.06,-3.38,-3.88,-0.10,-0.01,-0.24,0.00,0.00,0.61
13274,-3.12,2.06,-2.75,-0.06,-3.56,-4.00,-0.11,-0.04,-0.24,0.00,0.00,0.61
13284,-3.06,2.06,-2.75,-0.06,-3.56,-4.00,-0.11,-0.04,-0.22,0.00,0.00,0.61
13291,-3.06,2.06,-2.69,-0.06,-3.31,-4.12,-0.11,-0.04,-0.22,0.00,0.00,0.61
13299,-3.00,2.06,-2.62,0.06,-3.44,-4.44,-0.11,0.00,-0.23,0.00,0.00,0.61
13309,-3.00,2.06,-2.62,0.06,-3.50,-4.31,-0.10,0.00,-0.26,0.00,0.00,0.61
13316,-2.94,2.06,-2.56,0.06,-3.44,-4.62,-0.12,-0.02,-0.24,0.00,0.00,0.61
13328,-2.94,2.06,-2.56,0.06,-3.62,-4.69,-0.13,-0.01,-0.23,0.00,0.00,0.62
13336,-2.88,2.06,-2.50,0.00,-3.44,-4.81,-0.11,-0.04,-0.24,0.00,0.00,0.62
13348,-2.88,2.06,-2.50,0.00,-3.44,-4.81,-0.11,-0.04,-0.24,0.00,0.00,0.62
13360,-2.81,2.06,-2.44,0.12,-3.25,-4.88,-0.12,-0.02,-0.24,0.00,0.00,0.62
13371,-2.75,2.06,-2.31,0.06,-3.50,-5.06,-0.12,-0.01,-0.26,0.00,0.00,0.61
13379,-2.75,2.06,-2.25,0.12,-3.44,-5.06,-0.12,0.00,-0.21,0.00,0.00,0.62
13412,-2.62,2.06,-2.12,0.12,-3.19,-5.31,-0.15,0.00,-0.20,0.00,0.00,0.63
13422,-2.56,2.06,-2.06,0.19,-3.25,-5.50,-0.16,-0.02,-0.24,0.00,0.00,0.61
13432,-2.56,2.06,-2.00,0.06,-3.38,-5.56,-0.14,0.00,-0.23,0.00,0.00,0.61
13440,-2.50,2.06,-1.94,0.31,-3.31,-5.69,-0.15,0.00,-0.22,0.00,0.00,0.61
13448,-2.50,2.06,-1.94,0.19,-3.31,-5.50,-0.16,0.01,-0.25,0.00,0.00,0.62
13456,-2.50,2.06,-1.94,0.12,-3.31,-5.75,-0.12,0.04,-0.20,0.00,0.00,0.62
13465,-2.44,2.06,-1.88,0.12,-3.31,-5.75,-0.14,0.00,-0.25,0.00,0.00,0.61
13475,-2.44,2.06,-1.81,0.12,-3.12,-5.81,-0.14,0.00,-0.25,0.00,0.00,0.61
13486,-2.38,2.06,-1.75,0.12,-3.19,-5.88,-0.16,0.00,-0.24,0.00,0.00,0.62
13493,-2.38,2.12,-1.69,0.12,-3.25,-5.94,-0.15,0.02,-0.24,0.00,0.00,0.64
13503,-2.31,2.12,-1.62,-0.12,-3.00,-5.94,-0.14,0.02,-0.23,0.00,0.00,0.63
13513,-2.31,2.12,-1.56,0.06,-3.12,-6.00,-0.14,0.01,-0.23,0.00,0.00,0.63
13526,-2.25,2.12,-1.50,0.00,-2.81,-6.06,-0.13,-0.01,-0.24,0.00,0.00,0.62
13536,-2.25,2.12,-1.44,0.12,-2.75,-6.06,-0.14,0.00,-0.27,0.00,0.00,0.64
13568,-2.12,2.12,-1.25,0.06,-2.62,-6.19,-0.15,0.03,-0.26,0.00,0.00,0.64
13576,-2.12,2.12,-1.19,0.06,-2.62,-6.12,-0.16,0.03,-0.25,0.00,0.00,0.64
13588,-2.06,2.12,-1.12,0.06,-2.62,-6.12,-0.15,0.03,-0.24,0.00,0.00,0.63
13595,-2.06,2.12,-1.06,0.31,-2.44,-6.19,-0.15,0.03,-0.24,0.00,0.00,0.63
13605,-2.06,2.12,-1.06,0.25,-2.12,-6.25,-0.18,0.02,-0.21,0.00,0.00,0.63
13615,-2.00,2.12,-1.00,0.31,-2.06,-6.38,-0.17,0.02,-0.25,0.00,0.00,0.63
13628,-2.00,2.12,-0.94,0.31,-2.19,-6.25,-0.16,0.04,-0.25,0.00,0.00,0.62
13637,-2.00,2.12,-0.88,0.19,-1.81,-6.38,-0.15,0.05,-0.22,0.00,0.00,0.63
13645,-1.94,2.12,-0.81,0.19,-1.81,-6.38,-0.15,0.05,-0.22,0.00,0.00,0.64
13653,-1.94,2.12,-0.75,0.25,-1.75,-6.25,-0.16,0.03,-0.22,0.00,0.00,0.64
13660,-1.94,2.12,-0.69,0.12,-1.62,-6.38,-0.15,0.03,-0.24,0.00,0.00,0.63
13668,-1.94,2.12,-0.69,0.19,-1.56,-6.25,-0.17,0.06,-0.25,0.00,0.00,0.63
13676,-1.88,2.12,-0.62,0.19,-1.56,-6.25,-0.16,0.06,-0.24,0.00,0.00,0.63
13686,-1.88,2.12,-0.56,0.31,-1.69,-6.31,-0.18,0.08,-0.22,0.00,0.00,0.64
13717,-1.81,2.12,-0.38,0.25,-1.06,-6.12,-0.19,0.07,-0.22,0.00,0.00,0.64
13729,-1.81,2.12,-0.31,0.25,-1.06,-6.12,-0.20,0.05,-0.24,0.00,0.00,0.64
13738,-1.81,2.12,-0.25,0.25,-0.81,-6.00,-0.18,0.05,-0.23,0.00,0.00,0.63
13745,-1.81,2.12,-0.19,0.25,-0.81,-6.00,-0.18,0.05,-0.23,0.00,0.00,0.62
13752,-1.81,2.12,-0.12,0.25,-0.50,-6.12,-0.19,0.04,-0.21,0.00,0.00,0.63
13760,-1.81,2.12,-0.06,0.31,-0.38,-5.88,-0.18,0.05,-0.23,0.00,0.00,0.62
13768,-1.81,2.12,-0.06,0.19,-0.56,-5.88,-0.17,0.04,-0.26,0.00,0.00,0.64
13778,-1.88,2.12,0.00,0.19,-0.56,-5.88,-0.14,0.07,-0.22,0.00,0.00,0.64
13788,-1.88,2.12,0.06,0.25,-0.44,-6.00,-0.15,0.08,-0.20,0.00,0.00,0.64
13796,-1.88,2.12,0.12,0.25,-0.19,-5.94,-0.15,0.08,-0.20,0.00,0.00,0.64
13803,-1.88,2.12,0.19,0.25,0.00,-5.75,-0.15,0.09,-0.21,0.00,0.00,0.64
13813,-1.88,2.12,0.25,0.25,0.19,-5.75,-0.12,0.08,-0.24,0.00,0.00,0.63
13821,-1.88,2.12,0.25,0.19,0.31,-5.75,-0.11,0.08,-0.27,0.00,0.00,0.62
13832,-1.88,2.12,0.25,0.06,0.44,-5.50,-0.11,0.09,-0.28,0.00,0.00,0.64
13862,-1.88,2.12,0.50,0.00,0.88,-5.44,-0.14,0.00,-0.27,0.00,0.00,0.64
13869,-1.88,2.12,0.56,0.06,1.06,-5.12,-0.14,0.00,-0.26,0.00,0.00,0.64
13878,-1.88,2.12,0.56,0.06,1.06,-5.12,-0.15,-0.01,-0.23,0.00,0.00,0.63
13888,-1.94,2.12,0.56,0.19,1.31,-5.25,-0.15,0.00,-0.21,0.00,0.00,0.63
13895,-1.94,2.12,0.62,0.38,1.25,-5.12,-0.15,0.00,-0.21,0.00,0.00,0.63
13904,-1.94,2.12,0.69,0.44,1.62,-5.00,-0.16,0.06,-0.22,0.00,0.00,0.63
13912,-1.94,2.12,0.75,0.44,1.62,-5.00,-0.16,0.06,-0.23,0.00,0.00,0.63
13921,-1.94,2.12,0.75,0.62,1.75,-4.88,-0.13,0.06,-0.27,0.00,0.00,0.62
13929,-2.00,2.12,0.81,0.44,2.06,-4.75,-0.15,0.15,-0.22,0.00,0.00,0.63
13939,-2.00,2.12,0.81,0.44,2.06,-4.75,-0.14,0.16,-0.22,0.00,0.00,0.64
13948,-2.06,2.12,0.88,0.44,2.19,-4.56,-0.14,0.16,-0.22,0.00,0.00,0.63
13955,-2.06,2.12,0.94,0.12,2.31,-4.50,-0.15,0.16,-0.17,0.00,0.00,0.64
13965,-2.06,2.12,0.94,0.12,2.31,-4.50,-0.12,0.16,-0.19,0.00,0.00,0.63
13972,-2.12,2.12,1.00,-0.12,2.12,-4.38,-0.13,0.09,-0.25,0.00,0.00,0.62
14006,-2.19,2.12,1.12,-0.06,2.94,-4.00,-0.12,-0.02,-0.27,0.00,0.00,0.63
14013,-2.25,2.12,1.19,-0.06,2.94,-4.00,-0.12,-0.05,-0.28,0.00,0.00,0.66
14020,-2.25,2.12,1.19,0.06,3.00,-4.06,-0.12,-0.05,-0.27,0.00,0.00,0.63
14033,-2.25,2.12,1.19,0.06,3.00,-4.06,-0.11,-0.03,-0.24,0.00,0.00,0.64
14041,-2.31,2.12,1.31,0.31,3.19,-3.50,-0.14,-0.01,-0.23,0.00,0.00,0.63
14049,-2.31,2.12,1.31,0.31,3.19,-3.50,-0.14,-0.01,-0.23,0.00,0.00,0.63
14056,-2.38,2.12,1.31,0.44,3.06,-3.31,-0.15,0.05,-0.23,0.00,0.00,0.64
14064,-2.38,2.12,1.38,0.50,3.12,-3.25,-0.14,0.09,-0.26,0.00,0.00,0.65
14072,-2.44,2.12,1.38,0.31,3.12,-3.12,-0.15,0.11,-0.27,0.00,0.00,0.65
14081,-2.44,2.12,1.38,0.19,3.12,-2.88,-0.15,0.13,-0.21,0.00,0.00,0.64
14090,-2.44,2.12,1.38,0.25,3.31,-2.62,-0.14,0.14,-0.18,0.00,0.00,0.63
14098,-2.50,2.12,1.44,0.25,3.31,-2.62,-0.14,0.14,-0.18,0.00,0.00,0.64
14106,-2.56,2.12,1.44,-0.06,3.31,-2.56,-0.12,0.12,-0.17,0.00,0.00,0.62
14114,-2.56,2.12,1.50,-0.25,3.25,-2.44,-0.12,0.09,-0.18,0.00,0.00,0.61
14121,-2.62,2.12,1.50,-0.19,3.25,-2.44,-0.11,0.04,-0.23,0.00,0.00,0.62
14153,-2.69,2.12,1.56,-0.38,3.25,-1.88,-0.10,-0.02,-0.25,0.00,0.00,0.62
14161,-2.69,2.12,1.56,-0.38,3.25,-1.88,-0.09,-0.01,-0.24,0.00,0.00,0.61
14172,-2.75,2.12,1.56,-0.31,3.12,-1.69,-0.09,-0.02,-0.25,0.00,0.00,0.62
14181,-2.75,2.12,1.62,-0.19,3.25,-1.62,-0.06,-0.03,-0.27,0.00,0.00,0.63
14192,-2.81,2.12,1.62,0.06,3.31,-1.56,-0.08,-0.02,-0.26,0.00,0.00,0.62
14199,-2.88,2.12,1.62,0.12,3.31,-1.38,-0.08,-0.02,-0.26,0.00,0.00,0.64
14209,-2.88,2.12,1.62,0.25,3.38,-1.12,-0.07,0.00,-0.28,0.00,0.00,0.62
14218,-2.94,2.12,1.62,0.31,3.19,-1.00,-0.07,0.03,-0.23,0.00,0.00,0.62
14229,-2.94,2.12,1.69,0.38,3.25,-0.94,-0.07,0.06,-0.24,0.00,0.00,0.65
14240,-3.00,2.12,1.69,0.19,3.19,-0.75,-0.07,0.04,-0.21,0.00,0.00,0.63
14247,-3.00,2.12,1.69,0.06,3.25,-0.62,-0.10,0.10,-0.18,0.00,0.00,0.61
14254,-3.06,2.12,1.69,0.06,3.06,-0.56,-0.05,0.08,-0.17,0.00,0.00,0.63
14262,-3.06,2.12,1.69,-0.06,2.94,-0.31,-0.07,0.09,-0.17,0.00,0.00,0.62
14271,-3.06,2.12,1.69,-0.06,2.94,-0.31,-0.06,0.10,-0.24,0.00,0.00,0.62
14302,-3.19,2.12,1.69,-0.44,3.12,0.25,-0.04,0.00,-0.24,0.00,0.00,0.63
14309,-3.19,2.12,1.69,-0.50,2.94,0.12,-0.03,-0.01,-0.24,0.00,0.00,0.62
14319,-3.25,2.12,1.69,-0.31,3.00,0.31,-0.03,-0.05,-0.23,0.00,0.00,0.62
14330,-3.25,2.12,1.69,-0.31,2.94,0.50,-0.05,-0.06,-0.24,0.00,0.00,0.61
14341,-3.31,2.12,1.69,-0.25,3.06,0.81,-0.03,-0.05,-0.26,0.00,0.00,0.63
14349,-3.31,2.12,1.69,-0.06,2.94,0.88,-0.02,-0.10,-0.25,0.00,0.00,0.60
14357,-3.38,2.12,1.62,0.12,2.94,1.19,-0.03,-0.08,-0.25,0.00,0.00,0.61
14368,-3.38,2.12,1.62,0.12,3.00,1.06,-0.05,-0.03,-0.22,0.00,0.00,0.62
14375,-3.44,2.12,1.62,0.25,3.00,1.19,-0.02,0.00,-0.23,0.00,0.00,0.61
14387,-3.44,2.12,1.62,0.25,2.88,1.25,-0.05,0.03,-0.21,0.00,0.00,0.62
14394,-3.44,2.12,1.62,0.19,2.75,1.38,-0.05,0.07,-0.22,0.00,0.00,0.61
14403,-3.44,2.12,1.62,0.19,2.75,1.38,-0.01,0.04,-0.22,0.00,0.00,0.61
14411,-3.50,2.12,1.62,0.12,2.44,1.25,-0.01,0.04,-0.22,0.00,0.00,0.62
14420,-3.50,2.12,1.56,0.00,2.56,1.19,-0.06,0.04,-0.23,0.00,0.00,0.62
14451,-3.62,2.12,1.56,-0.31,2.44,1.06,-0.09,-0.05,-0.22,0.00,0.00,0.61
14458,-3.62,2.12,1.56,-0.25,2.12,0.88,-0.09,-0.07,-0.22,0.00,0.00,0.62
14467,-3.62,2.12,1.56,-0.19,2.31,0.88,-0.08,-0.09,-0.23,0.00,0.00,0.60
14474,-3.69,2.12,1.50,0.06,2.19,0.81,-0.11,-0.07,-0.25,0.00,0.00,0.61
14486,-3.69,2.12,1.50,-0.06,2.19,1.00,-0.07,-0.11,-0.25,0.00,0.00,0.61
14494,-3.69,2.12,1.50,-0.06,1.94,1.38,-0.08,-0.11,-0.21,0.00,0.00,0.60
14504,-3.69,2.12,1.50,-0.06,1.94,1.38,-0.08,-0.11,-0.21,0.00,0.00,0.61
14511,-3.75,2.12,1.50,-0.25,1.75,2.25,-0.07,-0.25,-0.26,0.00,0.00,0.60
14522,-3.75,2.12,1.44,-0.25,1.31,3.38,-0.06,0.23,-0.11,0.00,0.00,0.61
14532,-3.75,2.12,1.44,-0.44,1.25,4.19,-0.10,-0.16,-0.24,0.00,0.00,0.60
14545,-3.75,2.12,1.38,-0.50,0.94,5.06,0.00,-0.05,-0.22,0.00,0.00,0.58
14552,-3.81,2.12,1.31,-0.62,0.75,5.31,-0.05,-0.02,-0.21,0.00,0.00,0.60
14564,-3.81,2.12,1.25,-0.56,0.62,5.31,0.00,-0.11,-0.25,0.00,0.00,0.61
14573,-3.81,2.12,1.19,-0.50,0.75,4.50,0.10,-0.25,-0.23,0.00,0.00,0.60
14586,-3.81,2.12,1.19,-0.12,1.00,3.19,0.01,-0.19,-0.27,0.00,0.00,0.61
14616,-3.88,2.12,1.19,0.38,1.19,-2.62,-0.04,-0.07,-0.23,0.00,0.00,0.61
14628,-3.88,2.12,1.19,0.31,1.19,-3.56,-0.04,0.09,-0.21,0.00,0.00,0.60
14635,-3.88,2.12,1.31,0.44,0.81,-4.12,-0.16,-0.01,-0.19,0.00,0.00,0.61
14646,-3.88,2.12,1.31,0.19,0.69,-4.88,-0.12,0.07,-0.19,0.00,0.00,0.60
14653,-3.88,2.12,1.31,0.19,0.69,-4.88,-0.18,0.10,-0.18,0.00,0.00,0.61
14665,-3.88,2.19,1.38,0.06,0.62,-5.25,-0.18,0.10,-0.18,0.00,0.00,0.59
14676,-3.88,2.19,1.44,0.06,-0.06,-5.50,-0.24,-0.11,-0.28,0.00,0.00,0.59
14684,-3.94,2.19,1.50,0.06,-0.75,-6.12,-0.25,-0.08,-0.27,0.00,0.00,0.59
14696,-3.94,2.19,1.56,0.06,-0.75,-6.12,-0.26,-0.04,-0.23,0.00,0.00,0.59
14703,-3.94,2.19,1.62,0.31,-0.94,-6.69,-0.26,-0.04,-0.23,0.00,0.00,0.59
14713,-3.94,2.19,1.69,0.19,-1.50,-6.75,-0.26,-0.14,-0.19,0.00,0.00,0.61
14722,-3.94,2.19,1.75,0.38,-1.88,-7.25,-0.28,-0.21,-0.22,0.00,0.00,0.61
14734,-3.88,2.25,1.81,0.50,-2.25,-7.44,-0.32,-0.15,-0.26,0.00,0.00,0.61
14744,-3.94,2.25,1.88,0.81,-3.00,-7.81,-1.15,-0.10,-0.29,0.00,0.00,0.62
14778,-3.75,2.25,2.25,0.88,-6.44,-14.50,-1.37,0.33,-0.14,0.00,0.00,0.61
14785,-3.69,2.25,2.38,0.62,-7.62,-16.75,-1.09,0.19,-0.18,0.00,0.00,0.60
14799,-3.62,2.25,2.50,0.62,-7.62,-16.75,-1.11,0.32,-0.15,0.00,0.00,0.60
14809,-3.44,2.25,2.88,0.12,-8.88,-20.38,-1.20,0.45,-0.15,0.00,0.00,0.62
14817,-3.31,2.25,3.12,-0.19,-9.44,-22.38,-0.94,0.08,-0.24,0.00,0.00,0.61
14827,-3.31,2.25,3.12,-0.12,-10.06,-24.31,-0.44,0.04,-0.27,0.00,0.00,0.61
14836,-3.25,2.25,3.38,-0.12,-10.12,-25.69,-0.36,-0.06,-0.29,0.00,0.00,0.64
14848,-3.12,2.31,3.56,-0.12,-10.12,-25.69,-0.27,-0.15,-0.32,0.00,0.00,0.63
14855,-3.00,2.31,3.88,0.25,-9.94,-26.75,0.04,-0.23,-0.31,0.00,0.00,0.62
14867,-2.94,2.31,4.12,0.62,-9.75,-27.81,0.04,-0.23,-0.31,0.00,0.00,0.62
14875,-2.81,2.31,4.38,1.31,-8.75,-29.44,0.41,0.13,-0.27,0.00,0.00,0.62
14885,-2.69,2.31,4.69,1.31,-8.75,-29.44,0.59,0.17,-0.25,0.00,0.00,0.61
14895,-2.62,2.31,5.00,1.50,-7.69,-30.00,0.59,0.17,-0.25,0.00,0.00,0.63
14902,-2.56,2.31,5.25,1.69,-6.50,-30.81,0.63,0.05,-0.27,0.00,0.00,0.63
14947,-2.38,2.31,6.88,0.94,0.44,-35.06,0.76,0.35,-0.20,0.00,0.00,0.61
14955,-2.38,2.31,6.88,0.94,0.44,-35.06,0.76,0.35,-0.20,0.00,0.00,0.62
14962,-2.38,2.31,7.25,0.81,1.88,-35.94,0.58,0.20,-0.28,0.00,0.00,0.62
14970,-2.38,2.31,7.56,0.94,3.12,-36.88,0.35,-0.02,-0.30,0.00,0.00,0.63
14978,-2.44,2.31,7.94,0.94,4.00,-37.75,0.24,-0.18,-0.30,0.00,0.00,0.61
14986,-2.44,2.31,7.94,1.44,4.75,-38.06,0.12,-0.22,-0.25,0.00,0.00,0.64
14996,-2.44,2.31,8.31,1.44,4.75,-38.06,-0.06,-0.34,-0.26,0.00,0.00,0.62
