Time,sensPitch,sensRoll,sensYaw,xGyro,yGyro,ZGyro,xAcc,yAcc,zAcc,latitude,longitude,altitude
5997,-4.19,91.44,-1.12,-0.38,-3.81,-5.50,-0.02,-0.09,-0.07,0.00,0.00,1.09
6007,-4.12,91.44,-1.06,-0.50,-3.94,-5.56,0.00,-0.14,-0.09,0.00,0.00,1.20
6017,-4.06,91.44,-1.06,-0.50,-3.69,-5.50,0.04,-0.15,-0.08,0.00,0.00,1.19
6028,-4.00,91.44,-1.06,-0.38,-3.62,-5.19,0.09,-0.17,-0.08,0.00,0.00,1.26
6040,-3.94,91.44,-1.06,-0.31,-3.69,-4.62,0.10,-0.18,-0.06,0.00,0.00,1.24
6050,-3.94,91.44,-1.06,-0.38,-3.75,-3.94,0.11,-0.14,-0.08,0.00,0.00,1.19
6067,-3.88,91.44,-1.06,-0.31,-3.81,-3.12,0.13,-0.13,-0.09,0.00,0.00,1.20
6079,-3.81,91.44,-1.06,-0.38,-3.69,-1.25,0.17,-0.12,-0.11,0.00,0.00,1.26
6090,-3.81,91.44,-1.12,-0.44,-3.62,-0.31,0.16,-0.12,-0.11,0.00,0.00,1.18
6102,-3.81,91.44,-1.12,-0.25,-3.62,0.81,0.16,-0.13,-0.11,0.00,0.00,1.26
6115,-3.88,91.44,-1.19,-0.31,-3.50,1.88,0.15,-0.12,-0.08,0.00,0.00,1.25
6128,-3.88,91.44,-1.25,-0.25,-3.44,3.75,0.13,-0.12,-0.11,0.00,0.00,1.28
6138,-3.94,91.44,-1.38,-0.25,-3.44,4.62,0.08,-0.14,-0.09,0.00,0.00,1.27
6255,-4.56,91.44,-2.31,-0.19,-2.50,3.25,-0.11,-0.11,-0.04,0.00,0.00,1.27
6267,-4.56,91.44,-2.31,-0.12,-2.38,2.44,-0.12,-0.12,-0.09,0.00,0.00,1.25
6278,-4.56,91.44,-2.38,-0.25,-2.06,0.38,-0.13,-0.10,-0.07,0.00,0.00,1.23
6288,-4.56,91.44,-2.44,-0.19,-1.94,-0.44,-0.12,-0.11,-0.07,0.00,0.00,1.22
6299,-4.56,91.44,-2.44,-0.19,-1.81,-1.38,-0.05,-0.13,-0.04,0.00,0.00,1.29
6311,-4.56,91.44,-2.44,-0.25,-1.69,-2.00,-0.07,-0.12,-0.04,0.00,0.00,1.20
6323,-4.50,91.44,-2.44,-0.25,-1.75,-2.88,-0.02,-0.14,-0.08,0.00,0.00,1.26
6339,-4.50,91.44,-2.38,-0.12,-1.31,-3.31,-0.02,-0.15,-0.05,0.00,0.00,1.31
6350,-4.44,91.44,-2.31,-0.12,-1.00,-3.94,0.06,-0.11,-0.06,0.00,0.00,1.33
6363,-4.38,91.44,-2.31,-0.12,-1.06,-4.00,0.10,-0.14,-0.05,0.00,0.00,1.30
6377,-4.31,91.44,-2.25,-0.12,-0.88,-3.88,0.12,-0.16,-0.05,0.00,0.00,1.25
6392,-4.31,91.44,-2.25,-0.06,-0.69,-3.12,0.18,-0.13,-0.06,0.00,0.00,1.25
6403,-4.25,91.44,-2.19,0.00,-0.50,-2.44,0.20,-0.16,-0.03,0.00,0.00,1.29
6416,-4.19,91.44,-2.19,-0.06,-0.50,-1.81,0.22,-0.15,-0.06,0.00,0.00,1.27
6442,-4.19,91.44,-2.12,0.06,-0.19,1.06,0.24,-0.16,-0.06,0.00,0.00,1.23
6458,-4.19,91.50,-2.12,0.06,-0.31,1.62,0.22,-0.13,-0.03,0.00,0.00,1.33
6472,-4.19,91.50,-2.19,0.12,0.19,3.75,0.22,-0.12,-0.04,0.00,0.00,1.21
6484,-4.25,91.50,-2.19,0.00,0.06,4.50,0.20,-0.14,-0.03,0.00,0.00,1.24
6498,-4.31,91.50,-2.25,0.06,0.25,5.25,0.16,-0.12,-0.04,0.00,0.00,1.23
6509,-4.38,91.50,-2.31,-0.06,0.25,6.00,0.12,-0.13,-0.02,0.00,0.00,1.31
6521,-4.44,91.50,-2.38,-0.06,0.56,6.75,0.10,-0.15,-0.03,0.00,0.00,1.22
6532,-4.56,91.50,-2.50,-0.06,0.44,7.12,0.06,-0.14,-0.01,0.00,0.00,1.24
6545,-4.62,91.50,-2.56,0.12,0.75,6.81,0.03,-0.17,-0.01,0.00,0.00,1.22
6556,-4.69,91.50,-2.62,0.12,0.75,6.69,0.00,-0.16,0.00,0.00,0.00,1.34
6571,-4.75,91.50,-2.69,0.06,0.94,6.31,-0.02,-0.17,0.00,0.00,0.00,1.35
6581,-4.81,91.50,-2.75,0.25,1.25,5.00,-0.04,-0.12,0.00,0.00,0.00,1.27
6592,-4.88,91.50,-2.75,0.12,1.44,4.31,-0.07,-0.12,0.00,0.00,0.00,1.30
6603,-4.94,91.50,-2.81,0.00,1.62,3.38,-0.09,-0.10,0.01,0.00,0.00,1.24
6631,-4.94,91.50,-2.81,0.12,1.75,1.50,-0.07,-0.13,0.02,0.00,0.00,1.29
6642,-4.94,91.50,-2.75,0.12,2.00,-0.38,-0.07,-0.14,0.01,0.00,0.00,1.23
6655,-4.94,91.50,-2.75,0.06,2.25,-1.38,0.00,-0.16,0.03,0.00,0.00,1.10
6666,-4.94,91.50,-2.69,0.06,2.31,-2.12,0.00,-0.14,0.01,0.00,0.00,1.20
6682,-4.88,91.50,-2.62,0.06,2.38,-2.81,0.02,-0.15,0.00,0.00,0.00,1.31
6693,-4.81,91.50,-2.50,0.19,2.81,-3.88,0.07,-0.12,0.00,0.00,0.00,1.24
6705,-4.81,91.50,-2.44,0.06,2.56,-4.00,0.10,-0.12,0.00,0.00,0.00,1.20
6716,-4.75,91.50,-2.38,0.25,2.88,-4.25,0.14,-0.13,0.03,0.00,0.00,1.19
6729,-4.69,91.50,-2.31,0.25,3.00,-4.12,0.18,-0.17,0.00,0.00,0.00,1.16
6741,-4.62,91.50,-2.25,0.25,3.25,-3.62,0.18,-0.19,0.02,0.00,0.00,1.25
6752,-4.62,91.50,-2.12,0.38,3.12,-3.00,0.20,-0.16,0.02,0.00,0.00,1.31
6762,-4.56,91.50,-2.00,0.19,3.44,-2.38,0.24,-0.12,0.02,0.00,0.00,1.24
6772,-4.50,91.50,-1.94,0.31,3.44,-1.56,0.24,-0.13,0.01,0.00,0.00,1.26
6783,-4.50,91.50,-1.94,0.31,3.31,-0.81,0.24,-0.14,0.01,0.00,0.00,1.21
6793,-4.50,91.50,-1.88,0.31,3.31,-0.06,0.25,-0.15,0.02,0.00,0.00,1.26
6824,-4.50,91.50,-1.81,0.44,3.44,1.75,0.20,-0.14,0.03,0.00,0.00,1.28
6835,-4.56,91.50,-1.75,0.25,3.50,3.38,0.18,-0.13,0.02,0.00,0.00,1.31
6848,-4.56,91.50,-1.75,0.31,3.44,3.94,0.14,-0.11,0.04,0.00,0.00,1.25
6858,-4.62,91.50,-1.75,0.31,3.69,4.44,0.11,-0.12,0.05,0.00,0.00,1.32
6872,-4.62,91.50,-1.81,0.31,3.50,4.94,0.07,-0.15,0.03,0.00,0.00,1.37
6883,-4.69,91.56,-1.81,0.38,3.69,5.25,0.00,-0.17,0.02,0.00,0.00,1.36
6894,-4.81,91.56,-1.81,0.25,3.62,5.25,-0.01,-0.17,0.03,0.00,0.00,1.44
6907,-4.88,91.56,-1.81,0.38,3.56,4.94,-0.01,-0.16,0.05,0.00,0.00,1.38
6919,-4.88,91.56,-1.88,0.31,3.56,4.62,-0.04,-0.14,0.04,0.00,0.00,1.37
6934,-4.94,91.56,-1.88,0.38,3.69,4.12,-0.09,-0.11,0.02,0.00,0.00,1.40
6945,-5.00,91.56,-1.81,0.38,3.94,2.62,-0.10,-0.12,0.04,0.00,0.00,1.40
6956,-5.00,91.56,-1.81,0.44,3.94,1.81,-0.12,-0.13,0.02,0.00,0.00,1.36
6967,-5.00,91.56,-1.81,0.44,4.06,0.94,-0.11,-0.09,0.04,0.00,0.00,1.36
6980,-5.00,91.56,-1.75,0.25,3.94,0.00,-0.12,-0.12,0.06,0.00,0.00,1.33
7005,-4.94,91.56,-1.56,0.25,4.00,-2.69,-0.10,-0.12,0.06,0.00,0.00,1.32
7016,-4.94,91.56,-1.50,0.19,4.12,-3.44,-0.08,-0.10,0.06,0.00,0.00,1.39
7027,-4.88,91.56,-1.44,0.44,4.06,-4.31,-0.05,-0.10,0.06,0.00,0.00,1.47
7039,-4.81,91.56,-1.31,0.25,4.00,-4.88,0.00,-0.16,0.03,0.00,0.00,1.49
7050,-4.81,91.56,-1.25,0.31,4.12,-5.06,0.00,-0.16,0.04,0.00,0.00,1.68
7062,-4.75,91.56,-1.12,0.12,4.06,-5.50,0.02,-0.14,0.02,0.00,0.00,1.66
7073,-4.69,91.56,-1.06,0.25,4.12,-5.56,0.07,-0.12,0.01,0.00,0.00,1.74
7084,-4.56,91.56,-0.88,0.44,4.25,-5.38,0.09,-0.13,0.03,0.00,0.00,1.77
7096,-4.50,91.56,-0.75,0.44,4.00,-5.00,0.11,-0.11,0.05,0.00,0.00,1.78
7106,-4.50,91.56,-0.69,0.19,3.94,-4.56,0.11,-0.12,0.03,0.00,0.00,1.84
7116,-4.44,91.56,-0.62,0.31,3.81,-3.75,0.14,-0.14,0.04,0.00,0.00,1.85
7127,-4.38,91.62,-0.56,0.25,3.81,-3.12,0.13,-0.14,0.00,0.00,0.00,1.85
7138,-4.38,91.62,-0.50,0.31,3.94,-2.44,0.13,-0.16,0.01,0.00,0.00,1.85
7150,-4.38,91.62,-0.44,0.25,3.62,-1.50,0.16,-0.16,0.01,0.00,0.00,1.82
7160,-4.31,91.62,-0.38,0.25,3.75,-0.81,0.12,-0.14,0.02,0.00,0.00,1.84
7187,-4.38,91.62,-0.25,0.44,3.44,1.69,0.07,-0.12,0.03,0.00,0.00,1.78
7197,-4.38,91.62,-0.25,0.50,3.25,2.31,0.03,-0.12,0.00,0.00,0.00,1.76
7210,-4.38,91.62,-0.25,0.44,3.25,2.88,0.00,-0.15,0.03,0.00,0.00,1.72
7223,-4.44,91.62,-0.25,0.44,3.06,3.25,0.00,-0.13,0.01,0.00,0.00,1.69
7238,-4.44,91.62,-0.25,0.38,2.81,3.62,-0.08,-0.14,0.03,0.00,0.00,1.60
7249,-4.56,91.62,-0.31,0.44,2.88,3.69,-0.11,-0.14,0.03,0.00,0.00,1.55
7260,-4.56,91.62,-0.31,0.38,2.69,3.44,-0.14,-0.12,0.02,0.00,0.00,1.60
7274,-4.62,91.62,-0.31,0.38,2.62,3.06,-0.15,-0.13,0.02,0.00,0.00,1.55
7287,-4.62,91.62,-0.31,0.25,2.50,2.00,-0.19,-0.12,0.00,0.00,0.00,1.39
7298,-4.69,91.62,-0.31,0.19,2.25,1.31,-0.20,-0.13,0.00,0.00,0.00,1.36
7312,-4.69,91.62,-0.25,0.19,2.69,0.50,-0.23,-0.08,0.02,0.00,0.00,1.32
7325,-4.69,91.62,-0.25,0.19,2.25,-0.25,-0.22,-0.11,0.02,0.00,0.00,1.33
7339,-4.69,91.62,-0.25,0.25,2.31,-2.12,-0.24,-0.08,0.00,0.00,0.00,1.27
7350,-4.62,91.62,-0.12,0.12,2.19,-3.06,-0.18,-0.14,0.01,0.00,0.00,1.30
7379,-4.56,91.62,-0.06,0.00,2.19,-5.12,-0.16,-0.12,-0.01,0.00,0.00,1.27
7391,-4.50,91.62,0.12,-0.06,1.88,-5.69,-0.13,-0.15,0.00,0.00,0.00,1.16
7403,-4.44,91.62,0.19,0.12,1.75,-6.12,-0.11,-0.12,0.00,0.00,0.00,1.27
7414,-4.38,91.62,0.25,0.00,1.81,-6.25,-0.08,-0.12,0.00,0.00,0.00,1.26
7426,-4.31,91.62,0.31,0.12,1.56,-6.12,0.00,-0.14,-0.02,0.00,0.00,1.22
7438,-4.19,91.62,0.50,0.19,1.38,-6.00,-0.02,-0.13,-0.01,0.00,0.00,1.27
7448,-4.12,91.62,0.56,-0.06,1.56,-5.62,-0.01,-0.14,-0.03,0.00,0.00,1.18
7460,-4.06,91.62,0.62,-0.06,1.25,-5.19,0.00,-0.14,-0.04,0.00,0.00,1.25
7470,-4.00,91.62,0.69,-0.06,1.25,-4.44,0.03,-0.13,-0.01,0.00,0.00,1.20
7484,-4.00,91.62,0.69,0.12,0.94,-3.75,0.04,-0.12,-0.04,0.00,0.00,1.25
7496,-3.94,91.62,0.75,0.06,0.75,-2.94,0.05,-0.14,-0.02,0.00,0.00,1.22
7510,-3.94,91.62,0.75,-0.06,0.12,-1.25,0.01,-0.15,-0.01,0.00,0.00,1.17
7521,-3.94,91.62,0.75,0.00,0.19,-0.38,0.00,-0.13,-0.03,0.00,0.00,1.25
7535,-3.94,91.62,0.75,0.06,0.19,0.44,0.00,-0.15,-0.04,0.00,0.00,1.17
7559,-4.00,91.62,0.75,0.12,-0.50,2.62,-0.08,-0.11,-0.03,0.00,0.00,1.21
7570,-4.00,91.62,0.69,0.00,-0.50,2.94,-0.11,-0.11,-0.04,0.00,0.00,1.23
7581,-4.06,91.62,0.69,0.06,-0.50,3.31,-0.16,-0.11,-0.03,0.00,0.00,1.26
7593,-4.06,91.62,0.62,0.00,-0.69,3.31,-0.17,-0.13,-0.03,0.00,0.00,1.23
7604,-4.12,91.62,0.56,-0.12,-0.88,3.50,-0.19,-0.10,-0.02,0.00,0.00,1.26
7616,-4.19,91.62,0.50,-0.12,-1.00,3.38,-0.22,-0.13,-0.02,0.00,0.00,1.38
7629,-4.19,91.62,0.50,-0.06,-1.31,2.62,-0.25,-0.10,-0.03,0.00,0.00,1.40
7639,-4.25,91.62,0.38,-0.12,-1.25,2.19,-0.27,-0.11,-0.03,0.00,0.00,1.36
7650,-4.31,91.62,0.38,-0.12,-1.31,1.44,-0.27,-0.11,-0.02,0.00,0.00,1.37
7661,-4.31,91.62,0.31,0.00,-1.44,0.00,-0.29,-0.09,-0.01,0.00,0.00,1.39
7672,-4.31,91.62,0.31,0.00,-1.44,0.00,-0.30,-0.11,-0.04,0.00,0.00,1.49
7685,-4.31,91.62,0.25,-0.19,-1.62,-0.75,-0.28,-0.11,-0.05,0.00,0.00,1.48
7699,-4.31,91.62,0.25,-0.19,-1.62,-1.75,-0.26,-0.09,-0.04,0.00,0.00,1.67
7710,-4.25,91.69,0.25,-0.19,-1.94,-3.88,-0.22,-0.10,-0.05,0.00,0.00,1.60
7739,-4.19,91.62,0.31,-0.31,-1.88,-4.25,-0.20,-0.11,-0.02,0.00,0.00,1.68
7750,-4.12,91.62,0.31,-0.31,-2.12,-5.38,-0.14,-0.13,-0.03,0.00,0.00,1.76
7760,-4.06,91.62,0.38,-0.38,-2.19,-5.38,-0.12,-0.12,-0.01,0.00,0.00,1.75
7770,-4.00,91.62,0.38,-0.44,-2.31,-5.31,-0.10,-0.11,-0.05,0.00,0.00,1.78
7781,-4.00,91.62,0.44,-0.31,-2.31,-4.94,-0.06,-0.15,-0.05,0.00,0.00,1.81
7791,-3.94,91.62,0.44,-0.31,-2.62,-4.56,-0.02,-0.14,-0.05,0.00,0.00,1.82
7801,-3.88,91.62,0.44,-0.31,-2.62,-4.06,-0.03,-0.14,-0.02,0.00,0.00,1.83
7811,-3.88,91.62,0.44,-0.56,-2.62,-3.50,-0.02,-0.12,-0.04,0.00,0.00,1.82
7822,-3.81,91.62,0.44,-0.38,-2.88,-2.75,0.00,-0.15,-0.07,0.00,0.00,1.85
7832,-3.81,91.62,0.44,-0.38,-3.31,-1.94,0.04,-0.16,-0.08,0.00,0.00,1.83
7843,-3.81,91.62,0.44,-0.38,-3.19,-1.00,0.02,-0.15,-0.04,0.00,0.00,1.79
7853,-3.81,91.62,0.38,-0.25,-3.25,0.12,0.03,-0.15,-0.04,0.00,0.00,1.78
7864,-3.81,91.62,0.31,-0.31,-3.31,0.75,0.03,-0.13,-0.04,0.00,0.00,1.77
7875,-3.81,91.62,0.31,-0.38,-3.50,1.62,0.02,-0.15,-0.04,0.00,0.00,1.71
7901,-3.88,91.62,0.19,-0.25,-3.44,3.50,0.35,-0.16,-0.08,0.00,0.00,1.66
7913,-3.94,91.62,0.06,-0.12,-3.19,3.56,0.28,-0.14,-0.03,0.00,0.00,1.64
7924,-3.94,91.62,0.00,-0.19,-2.44,3.25,0.16,-0.16,-0.05,0.00,0.00,1.62
7937,-3.94,91.62,0.00,-0.19,-1.94,2.94,0.30,-0.22,-0.09,0.00,0.00,1.65
7951,-4.00,91.62,-0.06,0.06,-1.06,2.69,0.06,-0.16,-0.06,0.00,0.00,1.68
7962,-4.00,91.62,-0.06,0.38,0.00,1.94,0.18,-0.13,-0.08,0.00,0.00,1.57
7973,-4.00,91.62,-0.06,0.31,0.56,1.56,0.15,-0.10,-0.04,0.00,0.00,1.64
7985,-4.06,91.62,-0.06,0.31,1.00,1.31,-0.07,-0.01,-0.02,0.00,0.00,1.70
7998,-4.06,91.62,-0.06,0.12,1.25,1.19,0.05,0.15,0.00,0.00,0.00,1.77
8009,-4.06,91.62,-0.06,-0.44,1.69,0.81,0.28,0.15,0.04,0.00,0.00,1.79
8020,-4.06,91.62,-0.06,-0.50,2.56,0.12,0.00,-0.14,-0.06,0.00,0.00,1.79
8031,-4.06,91.69,0.00,-0.31,3.44,-0.81,0.31,-0.26,-0.12,0.00,0.00,1.83
8041,-4.00,91.69,0.06,-0.06,4.25,-1.44,0.46,-0.25,-0.10,0.00,0.00,1.79
8053,-4.00,91.69,0.19,0.06,5.25,-2.12,0.43,-0.07,-0.01,0.00,0.00,1.73
8065,-3.94,91.69,0.25,0.06,6.00,-2.69,0.43,-0.19,-0.02,0.00,0.00,1.69
8094,-3.94,91.69,0.44,0.44,7.38,-2.25,0.38,-0.24,-0.05,0.00,0.00,1.31
8104,-3.81,91.69,0.69,0.81,8.12,-1.12,0.39,-0.25,-0.04,0.00,0.00,1.18
8117,-3.81,91.69,0.81,0.94,8.75,-0.38,0.45,-0.26,-0.02,0.00,0.00,1.20
8129,-3.75,91.69,0.94,1.19,8.94,0.75,0.52,-0.15,-0.01,0.00,0.00,1.13
8143,-3.75,91.69,1.00,1.00,9.50,1.69,0.47,0.02,0.05,0.00,0.00,1.04
8154,-3.75,91.69,1.25,0.62,10.38,3.38,0.45,0.01,0.07,0.00,0.00,1.09
8164,-3.75,91.69,1.31,0.38,10.81,4.38,0.21,-0.05,0.03,0.00,0.00,1.06
8174,-3.75,91.69,1.38,0.25,11.31,4.88,0.24,-0.10,0.03,0.00,0.00,1.12
8186,-3.81,91.69,1.50,0.19,11.31,5.44,0.26,-0.13,0.00,0.00,0.00,1.04
8199,-3.88,91.69,1.56,0.38,11.50,5.94,0.17,-0.25,-0.01,0.00,0.00,0.91
8209,-3.94,91.69,1.62,0.69,11.81,6.31,0.08,-0.43,-0.06,0.00,0.00,0.86
8219,-4.00,91.69,1.69,1.00,12.12,6.44,0.13,-0.40,-0.05,0.00,0.00,0.95
8233,-4.06,91.69,1.75,1.50,12.19,6.38,-0.02,-0.22,0.01,0.00,0.00,1.11
8243,-4.12,91.69,1.88,1.94,12.81,5.75,0.03,-0.06,0.08,0.00,0.00,0.90
8266,-4.25,91.69,2.00,1.56,13.00,4.69,0.06,0.09,0.09,0.00,0.00,0.73
8277,-4.25,91.62,2.12,1.44,13.44,4.06,0.04,0.04,0.07,0.00,0.00,0.79
8290,-4.31,91.62,2.25,1.31,14.00,3.38,0.04,-0.07,0.01,0.00,0.00,0.73
8303,-4.31,91.62,2.31,1.12,14.25,3.06,-0.04,-0.16,0.03,0.00,0.00,0.76
8312,-4.31,91.62,2.44,1.12,14.44,1.50,-0.11,-0.15,0.08,0.00,0.00,0.74
8323,-4.38,91.62,2.56,1.12,14.44,1.50,-0.08,-0.13,0.02,0.00,0.00,0.72
8333,-4.38,91.62,2.75,1.25,14.88,0.06,-0.13,-0.10,0.04,0.00,0.00,0.79
8343,-4.38,91.62,2.88,1.25,15.00,-0.75,-0.10,-0.12,0.04,0.00,0.00,0.79
8353,-4.31,91.62,3.06,1.19,15.00,-1.44,-0.08,-0.13,0.05,0.00,0.00,0.86
8362,-4.31,91.62,3.19,1.19,15.00,-1.44,-0.08,-0.10,0.07,0.00,0.00,0.80
8374,-4.31,91.62,3.38,1.19,15.19,-2.12,-0.08,-0.10,0.07,0.00,0.00,0.85
8383,-4.25,91.62,3.75,1.38,15.62,-3.00,0.22,-0.15,0.04,0.00,0.00,0.85
8393,-4.25,91.62,3.75,1.31,16.12,-3.12,0.23,-0.18,0.03,0.00,0.00,0.86
8403,-4.19,91.62,3.94,1.38,16.56,-3.12,0.46,-0.27,0.00,0.00,0.00,0.85
8412,-4.19,91.62,4.12,1.50,17.31,-2.88,0.56,-0.26,0.00,0.00,0.00,0.90
8437,-4.06,91.62,4.75,1.69,18.25,-1.75,0.56,-0.19,0.00,0.00,0.00,0.93
8448,-4.06,91.62,4.94,1.75,19.12,-1.00,0.48,-0.16,0.01,0.00,0.00,1.10
8456,-4.06,91.62,5.12,2.00,19.38,-0.62,0.45,-0.18,0.00,0.00,0.00,1.43
8466,-4.00,91.62,5.38,1.94,20.06,0.31,0.41,-0.10,0.00,0.00,0.00,1.53
8474,-4.00,91.62,5.56,2.00,20.38,1.12,0.49,-0.10,0.00,0.00,0.00,1.48
8485,-3.94,91.62,5.81,1.69,21.00,1.88,0.49,-0.10,-0.02,0.00,0.00,1.41
8493,-3.94,91.62,6.06,1.81,21.25,2.75,0.58,-0.16,-0.01,0.00,0.00,1.39
8507,-3.94,91.62,6.06,2.00,22.06,3.56,0.56,-0.22,-0.01,0.00,0.00,1.45
8517,-3.88,91.56,6.50,1.88,22.62,4.06,0.42,-0.17,-0.01,0.00,0.00,1.47
8525,-3.88,91.56,6.75,2.12,23.44,4.50,0.33,-0.19,-0.06,0.00,0.00,1.46
8536,-3.94,91.56,6.94,2.31,23.94,4.75,0.27,-0.25,-0.08,0.00,0.00,1.45
8544,-3.94,91.56,7.19,2.69,24.38,4.81,0.18,-0.27,-0.11,0.00,0.00,1.44
8553,-3.94,91.56,7.19,3.00,24.81,4.69,0.00,-0.22,-0.08,0.00,0.00,1.46
8562,-4.00,91.56,7.38,3.00,24.81,4.69,0.00,-0.22,-0.08,0.00,0.00,1.44
8584,-4.12,91.50,8.00,2.94,25.31,3.62,-0.12,0.00,-0.03,0.00,0.00,1.43
8593,-4.12,91.50,8.00,2.75,25.19,3.06,-0.16,0.02,-0.02,0.00,0.00,1.46
8603,-4.12,91.50,8.25,2.75,25.19,3.06,-0.29,0.01,0.00,0.00,0.00,1.47
8611,-4.12,91.50,8.44,2.50,25.25,2.38,-0.29,0.01,0.00,0.00,0.00,1.45
8620,-4.12,91.50,8.69,2.44,25.06,1.56,-0.41,0.03,-0.02,0.00,0.00,1.41
8632,-4.12,91.50,8.94,2.31,25.00,0.81,-0.48,-0.05,-0.04,0.00,0.00,1.23
8644,-4.12,91.50,9.19,2.12,24.62,0.00,-0.56,-0.10,-0.04,0.00,0.00,0.62
8654,-4.12,91.50,9.44,2.19,23.75,-1.50,-0.56,-0.08,-0.04,0.00,0.00,0.29
8666,-4.12,91.50,9.69,2.19,23.75,-1.50,-0.56,-0.08,-0.04,0.00,0.00,0.12
8675,-4.12,91.50,10.12,1.88,22.75,-3.25,-0.62,-0.04,-0.01,0.00,0.00,0.09
8688,-4.12,91.50,10.12,1.81,22.31,-3.94,-0.56,-0.05,-0.04,0.00,0.00,0.20
8696,-4.12,91.50,10.56,1.62,21.69,-4.56,-0.54,-0.05,-0.04,0.00,0.00,0.19
8708,-4.12,91.50,10.75,1.31,21.25,-5.19,-0.56,-0.14,-0.02,0.00,0.00,0.20
8716,-4.06,91.50,11.00,1.56,20.50,-5.19,-0.38,-0.31,-0.07,0.00,0.00,0.20
8743,-4.00,91.50,11.44,1.94,19.56,-5.25,-0.23,-0.39,-0.17,0.00,0.00,0.24
8754,-3.94,91.50,11.69,2.31,19.25,-4.69,0.11,-0.05,-0.05,0.00,0.00,0.27
8762,-3.88,91.50,11.94,2.25,19.06,-3.88,0.11,-0.05,-0.05,0.00,0.00,0.29
8770,-3.88,91.44,12.12,2.38,18.94,-2.88,0.13,0.01,-0.03,0.00,0.00,0.29
8781,-3.81,91.44,12.31,2.12,18.81,-2.00,0.18,0.06,-0.04,0.00,0.00,0.34
8792,-3.81,91.44,12.56,1.88,18.75,-1.00,0.25,0.00,-0.03,0.00,0.00,0.55
8803,-3.81,91.44,12.75,1.81,18.81,0.19,0.25,-0.09,-0.06,0.00,0.00,0.50
8810,-3.81,91.44,12.94,1.69,19.00,1.12,0.30,-0.16,-0.07,0.00,0.00,0.40
8818,-3.81,91.44,13.06,1.62,19.38,2.00,0.32,-0.24,-0.08,0.00,0.00,0.35
8828,-3.88,91.44,13.25,1.75,19.69,2.88,0.28,-0.35,-0.17,0.00,0.00,0.30
8835,-3.88,91.44,13.44,2.06,19.75,3.44,0.22,-0.19,-0.13,0.00,0.00,0.34
8846,-3.88,91.44,13.44,2.31,20.19,3.81,0.28,-0.23,-0.12,0.00,0.00,0.35
8855,-3.88,91.44,13.62,2.62,20.88,3.88,0.20,-0.21,-0.12,0.00,0.00,0.38
8865,-3.88,91.44,13.81,2.62,20.88,3.88,0.20,-0.21,-0.12,0.00,0.00,0.37
8887,-3.94,91.44,14.38,2.81,21.62,3.19,0.07,-0.11,-0.09,0.00,0.00,0.37
8895,-3.94,91.44,14.38,2.75,21.94,2.69,-0.05,-0.14,-0.13,0.00,0.00,0.35
8905,-4.00,91.38,14.56,2.75,21.94,2.69,-0.08,-0.01,-0.09,0.00,0.00,0.33
8915,-4.00,91.38,14.75,2.69,22.00,2.06,-0.08,-0.01,-0.09,0.00,0.00,0.38
8923,-4.00,91.38,14.94,2.69,22.25,1.69,-0.09,-0.05,-0.11,0.00,0.00,0.65
8936,-4.00,91.38,15.19,2.50,22.38,0.88,-0.20,-0.09,-0.09,0.00,0.00,1.31
8946,-4.00,91.38,15.38,2.19,22.25,-0.62,-0.33,-0.10,-0.10,0.00,0.00,1.48
8959,-4.00,91.38,15.62,2.25,22.00,-1.06,-0.43,-0.20,-0.11,0.00,0.00,1.49
8967,-4.00,91.38,16.06,2.25,21.69,-1.44,-0.42,-0.22,-0.13,0.00,0.00,1.52
8977,-4.00,91.38,16.06,2.38,21.12,-1.81,-0.35,-0.21,-0.11,0.00,0.00,1.49
8987,-3.94,91.38,16.31,2.50,20.81,-2.00,-0.36,-0.17,-0.13,0.00,0.00,1.52
8998,-3.94,91.31,16.50,2.50,20.19,-2.06,-0.33,-0.20,-0.14,0.00,0.00,1.56
9007,-3.94,91.31,16.75,2.56,19.69,-2.06,-0.27,-0.12,-0.10,0.00,0.00,1.62
9017,-3.94,91.31,16.94,2.56,19.69,-2.06,-0.20,0.00,-0.07,0.00,0.00,1.62
9040,-3.88,91.31,17.50,2.50,18.94,-1.38,-0.03,-0.10,-0.12,0.00,0.00,1.63
9048,-3.88,91.31,17.75,2.38,18.81,-1.31,0.06,-0.10,-0.08,0.00,0.00,1.63
9057,-3.88,91.31,17.75,2.25,18.75,-1.12,0.05,-0.07,-0.08,0.00,0.00,1.57
9066,-3.88,91.25,17.94,2.25,18.75,-1.12,0.02,-0.02,-0.09,0.00,0.00,1.50
9076,-3.81,91.25,18.12,2.00,19.00,-1.19,0.02,-0.02,-0.09,0.00,0.00,1.33
9087,-3.81,91.25,18.31,1.88,19.12,-1.19,-0.09,0.02,-0.10,0.00,0.00,1.01
9099,-3.81,91.25,18.50,1.75,18.81,-0.81,-0.21,-0.10,-0.15,0.00,0.00,0.69
9109,-3.81,91.25,18.94,1.56,18.81,-1.00,-0.22,-0.16,-0.13,0.00,0.00,0.95
9122,-3.81,91.25,18.94,1.75,18.56,-1.06,-0.24,-0.25,-0.15,0.00,0.00,1.46
9130,-3.75,91.25,19.31,1.81,18.56,-0.94,-0.27,-0.35,-0.16,0.00,0.00,1.43
9144,-3.75,91.25,19.50,2.19,18.06,-1.06,-0.16,-0.45,-0.25,0.00,0.00,0.97
9156,-3.75,91.25,19.69,2.56,17.56,-0.94,-0.09,-0.38,-0.20,0.00,0.00,0.64
9165,-3.75,91.19,19.88,2.81,17.38,-0.81,-0.02,-0.32,-0.20,0.00,0.00,0.69
9174,-3.75,91.19,20.06,3.25,17.31,-0.75,0.03,-0.22,-0.17,0.00,0.00,0.88
9203,-3.69,91.19,20.38,2.75,18.00,-0.38,0.16,0.13,-0.07,0.00,0.00,0.99
9212,-3.69,91.12,20.75,2.50,18.31,-0.44,0.15,0.13,-0.06,0.00,0.00,0.59
9221,-3.69,91.12,20.94,1.88,18.69,-0.44,0.04,0.01,-0.10,0.00,0.00,0.59
9235,-3.69,91.12,21.12,1.69,18.75,-0.44,0.00,-0.10,-0.18,0.00,0.00,1.02
9252,-3.69,91.12,21.31,1.75,18.81,-0.25,-0.05,-0.25,-0.18,0.00,0.00,1.51
9262,-3.69,91.12,21.69,2.38,18.75,-0.25,-0.16,-0.35,-0.23,0.00,0.00,1.53
9275,-3.69,91.06,21.88,2.69,18.56,-0.44,-0.16,-0.35,-0.20,0.00,0.00,1.55
9287,-3.69,91.06,22.06,2.94,18.38,-0.38,-0.15,-0.27,-0.13,0.00,0.00,1.55
9301,-3.69,91.06,22.25,3.19,18.12,-0.19,-0.17,0.06,-0.07,0.00,0.00,1.58
9311,-3.69,91.00,22.56,2.69,17.81,-0.06,-0.21,0.14,-0.07,0.00,0.00,1.52
9322,-3.69,91.00,22.56,2.31,17.62,-0.12,-0.20,0.13,-0.06,0.00,0.00,1.57
9331,-3.69,91.00,22.94,1.88,17.38,-0.38,-0.35,-0.03,-0.11,0.00,0.00,1.56
9341,-3.69,91.00,23.12,1.69,17.06,-0.44,-0.42,-0.14,-0.12,0.00,0.00,1.56
9350,-3.69,91.00,23.12,1.69,16.81,-0.69,-0.48,-0.25,-0.13,0.00,0.00,1.53
9374,-3.62,91.00,23.56,2.06,15.62,-1.06,-0.56,-0.24,-0.11,0.00,0.00,1.55
9388,-3.62,90.94,23.75,2.12,14.88,-1.25,-0.51,-0.14,-0.08,0.00,0.00,1.55
9400,-3.69,90.94,23.88,2.25,14.38,-1.50,-0.28,0.01,-0.05,0.00,0.00,1.53
9411,-3.69,90.94,24.00,1.94,13.75,-2.19,-0.17,0.01,-0.01,0.00,0.00,1.58
9421,-3.69,90.94,24.12,1.94,13.75,-2.19,-0.05,-0.02,-0.02,0.00,0.00,1.58
9431,-3.62,90.94,24.31,1.44,13.62,-2.69,0.01,-0.09,-0.05,0.00,0.00,1.57
9441,-3.62,90.94,24.44,1.50,14.00,-2.94,-0.01,-0.14,-0.06,0.00,0.00,1.59
9451,-3.56,90.94,24.62,1.69,14.19,-3.00,0.03,-0.13,-0.05,0.00,0.00,1.60
9462,-3.56,90.94,24.81,1.44,14.38,-3.25,0.04,-0.10,0.00,0.00,0.00,1.55
9472,-3.50,90.94,25.00,1.31,14.50,-3.19,-0.03,-0.11,-0.04,0.00,0.00,1.54
9482,-3.50,90.94,25.12,1.19,14.69,-3.44,-0.05,-0.10,0.00,0.00,0.00,1.57
9492,-3.44,90.94,25.31,1.12,14.62,-3.38,-0.21,-0.16,-0.03,0.00,0.00,1.58
9502,-3.38,90.94,25.50,1.00,14.38,-3.56,-0.20,-0.24,-0.03,0.00,0.00,1.62
9512,-3.38,90.88,25.69,1.31,14.25,-3.31,-0.16,-0.29,-0.03,0.00,0.00,1.62
9539,-3.31,90.88,26.19,1.44,13.62,-2.62,-0.07,-0.11,0.00,0.00,0.00,1.58
9551,-3.25,90.88,26.31,1.69,13.56,-2.25,0.03,-0.01,0.05,0.00,0.00,1.64
9562,-3.25,90.88,26.44,1.31,13.50,-1.62,-0.02,0.14,0.10,0.00,0.00,1.59
9573,-3.25,90.88,26.62,1.31,13.50,-1.62,0.03,-0.06,0.01,0.00,0.00,1.57
9583,-3.19,90.88,26.75,0.69,13.75,-0.88,-0.07,-0.14,0.00,0.00,0.00,1.56
9593,-3.19,90.88,27.06,0.75,13.50,-0.69,-0.21,-0.15,-0.01,0.00,0.00,1.59
9603,-3.19,90.88,27.19,0.81,13.38,-0.25,-0.05,-0.36,-0.07,0.00,0.00,1.62
9613,-3.19,90.88,27.31,1.12,13.50,-0.25,-0.06,-0.49,-0.11,0.00,0.00,1.62
9623,-3.19,90.88,27.31,1.62,13.44,0.00,-0.09,-0.50,-0.13,0.00,0.00,1.59
9637,-3.19,90.88,27.44,2.12,13.44,-0.06,-0.01,-0.37,-0.09,0.00,0.00,1.63
9650,-3.19,90.81,27.69,2.56,13.50,-0.19,0.13,-0.19,-0.05,0.00,0.00,1.60
9662,-3.19,90.81,27.88,2.69,14.00,-0.12,0.13,0.12,-0.01,0.00,0.00,1.67
9672,-3.19,90.81,28.00,2.69,14.38,0.00,0.16,0.14,0.05,0.00,0.00,1.69
9682,-3.19,90.75,28.12,2.31,14.56,0.19,0.00,0.03,-0.01,0.00,0.00,1.72
9704,-3.19,90.75,28.56,1.25,14.94,0.88,-0.02,-0.08,-0.08,0.00,0.00,1.88
9713,-3.19,90.75,28.69,1.38,15.31,1.06,-0.05,-0.20,-0.08,0.00,0.00,1.82
9723,-3.19,90.75,28.69,1.38,15.31,1.06,-0.12,-0.34,-0.13,0.00,0.00,1.63
9733,-3.19,90.75,28.88,1.56,15.44,1.31,-0.08,-0.29,-0.10,0.00,0.00,1.11
9743,-3.19,90.75,29.00,2.38,15.25,1.31,-0.11,-0.25,-0.07,0.00,0.00,0.57
9753,-3.25,90.69,29.12,2.44,15.38,1.56,-0.12,-0.22,-0.06,0.00,0.00,0.42
9766,-3.25,90.69,29.25,2.56,15.44,1.75,-0.08,0.00,-0.02,0.00,0.00,1.64
9775,-3.25,90.69,29.56,2.25,15.50,1.50,-0.11,0.08,0.01,0.00,0.00,2.04
9785,-3.31,90.69,29.69,2.19,15.75,1.44,-0.17,0.10,0.03,0.00,0.00,2.14
9793,-3.31,90.62,29.81,1.75,15.56,1.25,-0.43,0.16,0.03,0.00,0.00,2.22
9802,-3.31,90.62,29.81,1.19,15.06,1.31,-0.51,0.09,0.01,0.00,0.00,2.24
9812,-3.31,90.62,29.94,1.19,15.06,1.31,-0.54,0.00,-0.01,0.00,0.00,2.25
9821,-3.31,90.62,30.06,1.00,14.56,1.25,-0.54,0.00,-0.01,0.00,0.00,2.25
9829,-3.31,90.62,30.19,0.81,13.69,1.25,-0.63,-0.16,-0.01,0.00,0.00,2.24
9853,-3.38,90.62,30.44,1.12,12.31,0.94,-0.28,-0.25,-0.03,0.00,0.00,2.30
9862,-3.38,90.62,30.56,1.12,12.31,0.94,-0.17,-0.16,-0.05,0.00,0.00,2.33
9870,-3.38,90.62,30.69,1.12,12.38,0.62,-0.17,-0.16,-0.05,0.00,0.00,2.32
9878,-3.38,90.62,30.81,1.31,12.19,0.56,-0.06,-0.07,-0.03,0.00,0.00,2.31
9887,-3.38,90.62,30.88,1.19,12.25,0.25,-0.04,-0.08,-0.01,0.00,0.00,2.30
9896,-3.38,90.62,31.00,1.06,12.31,0.25,0.00,-0.04,-0.05,0.00,0.00,2.28
9904,-3.38,90.62,31.12,1.06,12.38,0.12,0.04,-0.02,-0.06,0.00,0.00,2.28
9913,-3.38,90.62,31.12,0.81,12.50,0.31,0.04,-0.05,-0.05,0.00,0.00,2.29
9922,-3.38,90.62,31.25,0.81,12.50,0.31,0.04,-0.05,-0.05,0.00,0.00,2.26
9930,-3.38,90.62,31.38,0.88,12.62,0.31,0.02,-0.13,-0.04,0.00,0.00,2.28
9941,-3.38,90.62,31.50,0.69,12.75,0.31,0.03,-0.15,-0.07,0.00,0.00,2.26
9953,-3.38,90.62,31.62,0.69,12.75,0.69,0.00,-0.17,-0.06,0.00,0.00,2.19
9966,-3.38,90.62,31.75,0.94,12.75,0.94,-0.16,-0.25,-0.08,0.00,0.00,2.07
9976,-3.38,90.62,31.94,1.19,12.31,1.94,-0.19,-0.19,-0.09,0.00,0.00,2.06
9988,-3.44,90.62,32.06,1.38,11.94,2.38,-0.25,-0.17,-0.07,0.00,0.00,2.05
10014,-3.50,90.62,32.19,1.50,11.19,2.94,-0.30,-0.11,-0.08,0.00,0.00,2.02
10025,-3.56,90.62,32.25,1.56,10.56,3.19,-0.36,-0.15,-0.08,0.00,0.00,1.95
10036,-3.62,90.62,32.31,1.56,10.06,3.19,-0.27,-0.12,-0.09,0.00,0.00,1.89
10048,-3.62,90.62,32.38,1.31,9.31,3.00,-0.30,0.00,-0.06,0.00,0.00,1.79
10059,-3.75,90.56,32.44,1.12,9.12,2.81,-0.35,-0.03,-0.06,0.00,0.00,1.74
10070,-3.75,90.56,32.50,0.88,8.69,2.62,-0.31,-0.03,-0.03,0.00,0.00,1.76
10081,-3.81,90.56,32.50,1.00,8.50,2.25,-0.28,0.04,0.00,0.00,0.00,1.79
10092,-3.88,90.62,32.56,0.44,8.50,2.00,-0.35,0.04,-0.03,0.00,0.00,1.80
10106,-3.88,90.62,32.62,0.31,8.19,1.50,-0.30,-0.09,-0.06,0.00,0.00,1.88
10119,-3.94,90.62,32.69,0.06,7.38,1.00,-0.33,-0.19,-0.08,0.00,0.00,1.99
10129,-4.00,90.62,32.75,0.12,7.06,1.00,-0.31,-0.23,-0.11,0.00,0.00,2.04
10139,-4.00,90.62,32.81,0.00,6.56,0.94,-0.23,-0.23,-0.08,0.00,0.00,2.16
10148,-4.00,90.62,32.81,0.25,6.12,0.81,-0.20,-0.29,-0.12,0.00,0.00,2.24
10158,-4.00,90.62,32.88,0.50,5.62,0.88,-0.10,-0.14,-0.01,0.00,0.00,2.24
10181,-4.06,90.69,32.94,0.25,5.38,0.88,0.03,-0.06,-0.03,0.00,0.00,2.32
10191,-4.06,90.69,33.00,0.12,5.38,0.75,-0.04,-0.02,0.00,0.00,0.00,2.35
10201,-4.06,90.69,33.06,0.00,5.25,0.94,-0.06,-0.01,-0.01,0.00,0.00,2.35
10212,-4.06,90.69,33.06,-0.25,5.25,1.00,-0.12,-0.02,-0.03,0.00,0.00,2.32
10221,-4.06,90.69,33.12,-0.38,4.75,1.19,-0.23,-0.01,0.00,0.00,0.00,2.32
10230,-4.12,90.69,33.12,-0.38,4.31,1.38,-0.27,-0.23,-0.08,0.00,0.00,2.28
10239,-4.12,90.69,33.19,-0.56,3.94,1.38,-0.30,-0.30,-0.10,0.00,0.00,2.32
10249,-4.12,90.69,33.19,-0.44,3.31,1.56,-0.33,-0.36,-0.13,0.00,0.00,2.26
10259,-4.19,90.69,33.19,-0.25,3.00,1.31,-0.29,-0.40,-0.18,0.00,0.00,2.24
10268,-4.19,90.69,33.19,0.06,2.25,1.12,-0.22,-0.30,-0.11,0.00,0.00,2.22
10279,-4.19,90.69,33.19,0.38,1.88,0.88,-0.24,-0.20,-0.06,0.00,0.00,2.19
10289,-4.19,90.69,33.19,0.50,1.81,0.69,-0.17,0.00,-0.05,0.00,0.00,2.25
10302,-4.19,90.69,33.19,0.38,1.38,0.44,-0.13,0.07,-0.01,0.00,0.00,2.14
10315,-4.19,90.69,33.25,0.06,1.06,0.25,-0.13,0.14,0.01,0.00,0.00,2.18
10341,-4.19,90.75,33.25,-0.94,0.12,0.31,-0.11,-0.17,-0.11,0.00,0.00,2.20
10352,-4.19,90.75,33.25,-0.75,-0.25,0.38,-0.20,-0.27,-0.14,0.00,0.00,2.18
10365,-4.19,90.75,33.25,-0.62,-0.56,0.69,-0.27,-0.28,-0.08,0.00,0.00,2.25
10374,-4.19,90.75,33.19,-0.38,-1.00,0.81,-0.33,-0.31,-0.10,0.00,0.00,2.25
10383,-4.25,90.75,33.19,-0.19,-1.81,0.88,-0.29,-0.26,-0.09,0.00,0.00,2.28
10395,-4.25,90.75,33.12,-0.19,-2.31,0.75,-0.51,-0.10,-0.02,0.00,0.00,2.33
10406,-4.25,90.75,33.12,-0.06,-2.94,0.81,-0.56,0.02,-0.01,0.00,0.00,2.34
10417,-4.25,90.75,33.06,-0.25,-3.81,0.38,-0.60,0.12,0.01,0.00,0.00,2.34
10426,-4.25,90.75,33.00,-0.56,-4.50,0.38,-0.60,0.12,0.01,0.00,0.00,2.30
10435,-4.25,90.75,33.00,-0.88,-5.56,0.25,-0.82,0.16,0.04,0.00,0.00,2.25
10447,-4.25,90.75,32.94,-1.19,-6.44,-0.19,-0.76,0.11,0.03,0.00,0.00,2.11
10464,-4.25,90.75,32.81,-1.81,-8.69,-0.94,-1.08,-0.04,-0.01,0.00,0.00,1.93
10477,-4.25,90.75,32.69,-2.06,-10.12,-1.69,-1.21,-0.06,0.01,0.00,0.00,1.86
10501,-4.12,90.81,32.38,-2.50,-15.50,-3.44,-1.47,0.07,0.00,0.00,0.00,1.94
10513,-4.12,90.81,32.19,-2.69,-17.62,-4.00,-1.56,0.07,0.00,0.00,0.00,2.01
10523,-4.06,90.88,32.06,-3.19,-19.50,-4.50,-1.78,0.03,-0.02,0.00,0.00,2.09
10532,-4.00,90.88,31.88,-3.44,-22.06,-4.88,-1.73,0.13,0.00,0.00,0.00,2.25
10541,-4.00,90.88,31.69,-3.88,-24.38,-5.00,-1.54,0.19,-0.02,0.00,0.00,2.29
10552,-3.94,90.94,31.50,-4.56,-26.69,-5.00,-1.66,0.05,-0.07,0.00,0.00,2.29
10560,-4.19,90.94,30.94,-4.81,-28.94,-5.00,-1.59,0.01,-0.08,0.00,0.00,2.29
10572,-4.19,90.94,30.94,-5.00,-31.56,-4.56,-1.41,0.02,-0.08,0.00,0.00,2.25
10580,-4.62,91.06,29.88,-5.44,-34.00,-4.38,-1.47,-0.27,-0.16,0.00,0.00,2.23
10591,-4.56,91.06,29.56,-5.44,-36.50,-3.62,-1.42,-0.27,-0.18,0.00,0.00,2.08
10601,-4.56,91.06,29.19,-5.25,-38.75,-3.31,-1.32,-0.26,-0.23,0.00,0.00,0.44
10612,-4.56,91.12,28.81,-5.19,-41.06,-2.44,-1.34,-0.26,-0.23,0.00,0.00,1.67
10621,-4.56,91.12,28.38,-5.06,-43.12,-1.75,-1.31,-0.23,-0.25,0.00,0.00,1.81
10633,-4.56,91.12,27.94,-4.88,-45.56,-0.88,-1.15,-0.15,-0.23,0.00,0.00,1.64
10660,-5.00,91.25,26.56,-5.19,-50.06,0.88,-0.98,-0.04,-0.24,0.00,0.00,1.58
10674,-5.19,91.25,25.81,-5.56,-54.38,2.88,-1.01,-0.03,-0.24,0.00,0.00,1.57
10683,-5.56,91.38,24.38,-5.81,-56.44,3.75,-1.12,-0.07,-0.28,0.00,0.00,1.57
10694,-5.75,91.38,23.56,-6.06,-58.62,4.56,-1.03,-0.17,-0.28,0.00,0.00,1.56
10703,-5.94,91.44,22.81,-6.25,-60.56,5.12,-0.96,-0.15,-0.41,0.00,0.00,1.59
10714,-6.12,91.44,22.00,-6.31,-62.38,5.69,-1.03,-0.17,-0.39,0.00,0.00,1.53
10723,-6.31,91.50,21.25,-6.50,-64.38,5.88,-0.95,-0.19,-0.41,0.00,0.00,1.53
10734,-6.44,91.50,20.44,-6.69,-66.31,5.88,-0.84,-0.21,-0.41,0.00,0.00,0.56
10743,-6.56,91.56,19.62,-6.69,-67.88,6.00,-0.95,-0.06,-0.40,0.00,0.00,1.26
10754,-6.75,91.56,18.81,-7.00,-69.81,5.81,-0.85,-0.02,-0.43,0.00,0.00,1.12
10763,-6.88,91.62,17.94,-7.31,-71.75,5.50,-0.73,-0.05,-0.46,0.00,0.00,0.72
10772,-7.00,91.62,17.12,-7.62,-73.19,4.94,-0.75,0.00,-0.46,0.00,0.00,1.49
10780,-7.00,91.62,17.12,-8.19,-74.38,4.31,-0.74,0.09,-0.46,0.00,0.00,1.59
10805,-7.31,91.69,14.56,-8.88,-77.38,3.00,-0.66,-0.01,-0.56,0.00,0.00,0.75
10813,-7.44,91.75,13.69,-9.31,-78.56,1.94,-0.65,-0.08,-0.61,0.00,0.00,0.37
10823,-7.50,91.75,12.81,-9.56,-80.12,1.12,-0.54,-0.17,-0.67,0.00,0.00,0.29
10831,-7.56,91.81,12.00,-9.69,-81.31,0.12,-0.56,-0.24,-0.70,0.00,0.00,0.37
10839,-7.56,91.81,12.00,-9.69,-81.31,0.12,-0.56,-0.24,-0.70,0.00,0.00,0.48
10849,-7.62,91.88,11.12,-9.75,-82.44,-1.00,-0.57,-0.26,-0.69,0.00,0.00,0.24
10860,-7.62,91.88,10.25,-9.94,-83.50,-1.88,-0.36,-0.25,-0.81,0.00,0.00,0.14
10871,-7.69,91.94,9.44,-9.75,-84.56,-2.75,-0.33,-0.25,-0.76,0.00,0.00,0.34
10879,-7.69,91.94,8.56,-9.75,-85.81,-3.50,-0.33,-0.25,-0.76,0.00,0.00,1.46
10888,-7.69,91.94,7.75,-9.56,-86.88,-4.12,-0.18,-0.18,-0.78,0.00,0.00,1.45
10899,-7.69,91.88,6.88,-9.62,-87.69,-4.75,-0.11,-0.18,-0.86,0.00,0.00,1.48
10910,-7.62,91.88,6.06,-9.69,-88.31,-5.06,0.07,-0.22,-0.91,0.00,0.00,1.46
10920,-7.62,91.88,5.19,-9.44,-89.06,-5.19,0.13,-0.20,-0.89,0.00,0.00,1.49
10929,-7.56,91.81,4.38,-9.56,-89.94,-5.50,0.13,-0.20,-0.89,0.00,0.00,0.95
10954,-7.56,91.75,2.62,-9.06,-91.81,-4.75,0.38,-0.35,-1.02,0.00,0.00,0.74
10964,-7.50,91.69,0.88,-8.94,-92.19,-4.19,0.32,-0.38,-1.04,0.00,0.00,0.80
10975,-7.50,91.69,0.00,-8.62,-92.56,-3.69,0.50,-0.39,-1.05,0.00,0.00,1.04
10987,-7.50,91.62,-0.94,-8.38,-93.00,-2.94,0.60,-0.33,-1.04,0.00,0.00,1.65
11000,-7.50,91.62,-1.81,-8.12,-93.06,-2.25,0.54,-0.33,-1.02,0.00,0.00,1.35
11013,-7.50,91.56,-2.75,-8.12,-93.50,-1.44,0.76,-0.18,-0.98,0.00,0.00,1.29
11026,-7.56,91.50,-3.69,-8.00,-93.44,0.12,0.73,-0.15,-0.99,0.00,0.00,1.31
11037,-7.56,91.44,-5.56,-8.06,-93.25,1.00,0.73,-0.15,-1.01,0.00,0.00,1.42
11048,-7.56,91.44,-6.44,-8.12,-93.31,1.50,0.80,-0.19,-1.01,0.00,0.00,1.55
11061,-7.56,91.50,-7.31,-8.19,-93.31,2.12,0.78,-0.21,-0.99,0.00,0.00,1.66
11073,-7.56,91.50,-8.19,-8.31,-93.00,2.75,0.83,-0.28,-0.98,0.00,0.00,1.93
11082,-7.56,91.56,-9.12,-8.25,-92.50,3.12,0.86,-0.27,-0.94,0.00,0.00,2.05
11091,-7.56,91.56,-10.00,-8.31,-91.81,3.25,0.86,-0.27,-0.94,0.00,0.00,2.17
11112,-7.50,91.69,-12.56,-8.12,-89.88,3.06,0.93,-0.24,-0.91,0.00,0.00,2.27
11121,-7.50,91.69,-12.56,-8.12,-89.88,3.06,0.91,-0.23,-0.89,0.00,0.00,2.21
11128,-7.50,91.75,-13.44,-8.19,-89.12,2.69,0.91,-0.23,-0.89,0.00,0.00,2.21
11136,-7.44,91.81,-14.25,-8.19,-88.44,2.25,0.94,-0.29,-0.89,0.00,0.00,1.65
11145,-7.38,91.81,-15.06,-8.06,-87.50,1.62,0.98,-0.29,-0.84,0.00,0.00,2.26
11152,-7.31,91.88,-15.81,-8.00,-86.56,0.88,0.88,-0.23,-0.84,0.00,0.00,2.35
11162,-7.31,91.88,-15.81,-8.00,-86.56,0.88,0.99,-0.23,-0.80,0.00,0.00,2.36
11171,-7.25,91.94,-16.56,-7.69,-85.69,0.19,1.02,-0.24,-0.78,0.00,0.00,2.36
11179,-7.19,92.00,-17.31,-7.69,-84.50,-0.75,1.02,-0.24,-0.78,0.00,0.00,2.36
11187,-7.12,92.00,-18.06,-7.69,-83.19,-1.56,0.95,-0.28,-0.75,0.00,0.00,2.31
11194,-7.00,92.06,-18.75,-7.44,-81.88,-2.38,0.97,-0.25,-0.74,0.00,0.00,2.31
11203,-7.00,92.06,-18.75,-7.19,-80.94,-3.19,1.13,-0.30,-0.74,0.00,0.00,2.28
11214,-6.88,92.12,-19.44,-7.19,-80.94,-3.19,1.08,-0.29,-0.69,0.00,0.00,2.30
11223,-6.75,92.19,-20.06,-6.44,-78.00,-4.69,1.07,-0.29,-0.68,0.00,0.00,2.32
11247,-6.31,92.31,-21.81,-5.88,-75.06,-5.81,1.17,-0.30,-0.60,0.00,0.00,2.34
11254,-6.12,92.38,-22.38,-5.50,-73.56,-6.31,1.18,-0.26,-0.58,0.00,0.00,2.34
11266,-6.12,92.38,-22.38,-5.38,-72.12,-6.56,1.35,-0.26,-0.56,0.00,0.00,2.01
11277,-6.06,92.31,-23.69,-5.06,-70.56,-6.88,1.38,-0.24,-0.51,0.00,0.00,1.21
11288,-6.00,92.31,-24.31,-4.69,-68.69,-7.00,1.40,-0.18,-0.45,0.00,0.00,1.19
11298,-6.00,92.31,-24.88,-4.38,-67.06,-6.88,1.50,-0.16,-0.44,0.00,0.00,1.10
11309,-5.94,92.25,-25.50,-4.31,-65.25,-6.69,1.54,-0.12,-0.44,0.00,0.00,1.04
11323,-5.88,92.25,-26.06,-4.25,-63.50,-6.31,1.52,-0.15,-0.39,0.00,0.00,0.96
11333,-5.88,92.19,-26.62,-4.00,-61.62,-5.88,1.67,-0.09,-0.31,0.00,0.00,1.10
11345,-5.81,92.19,-27.19,-3.88,-59.81,-5.38,1.65,-0.15,-0.33,0.00,0.00,1.29
11355,-5.81,92.19,-27.75,-3.81,-55.88,-4.06,1.62,-0.12,-0.27,0.00,0.00,2.07
11369,-5.50,92.19,-27.94,-3.69,-53.88,-3.38,1.66,-0.10,-0.23,0.00,0.00,1.21
11377,-4.94,92.25,-28.38,-3.62,-51.81,-2.56,1.58,-0.11,-0.18,0.00,0.00,0.29
11404,-4.38,92.31,-28.75,-3.50,-47.75,-0.88,1.58,-0.07,-0.12,0.00,0.00,0.50
11414,-4.12,92.38,-28.94,-3.44,-45.62,-0.19,1.45,-0.06,-0.11,0.00,0.00,0.29
11427,-3.88,92.38,-29.12,-3.56,-43.69,0.44,1.47,-0.08,-0.05,0.00,0.00,0.34
11435,-3.69,92.38,-29.25,-3.56,-39.31,1.69,1.42,-0.07,-0.03,0.00,0.00,0.38
11444,-3.44,92.44,-29.44,-3.56,-39.31,1.69,1.42,-0.07,-0.03,0.00,0.00,0.34
11454,-3.25,92.44,-29.56,-3.38,-37.19,2.12,1.36,-0.11,-0.01,0.00,0.00,0.29
11466,-3.06,92.44,-29.69,-3.38,-34.75,2.31,1.33,-0.15,0.01,0.00,0.00,0.32
11475,-2.88,92.44,-29.81,-3.12,-30.06,2.69,1.18,-0.14,0.05,0.00,0.00,0.37
11483,-2.69,92.50,-29.94,-3.12,-30.06,2.69,1.18,-0.14,0.05,0.00,0.00,0.33
11494,-2.50,92.50,-30.00,-2.94,-27.75,2.75,1.10,-0.17,0.05,0.00,0.00,0.28
11504,-2.31,92.50,-30.06,-2.88,-25.38,2.62,1.24,-0.11,0.04,0.00,0.00,0.19
11517,-2.19,92.50,-30.12,-2.69,-22.75,2.38,1.05,-0.12,0.07,0.00,0.00,0.20
11526,-2.00,92.50,-30.12,-2.25,-18.19,1.69,1.05,-0.18,0.08,0.00,0.00,0.14
11538,-1.81,92.50,-30.12,-2.25,-18.19,1.69,1.03,-0.22,0.07,0.00,0.00,0.14
11575,-1.19,92.50,-29.94,-1.31,-8.81,-0.44,0.80,-0.23,0.08,0.00,0.00,0.19
11585,-1.06,92.50,-29.88,-1.00,-6.19,-1.06,0.80,-0.23,0.08,0.00,0.00,0.14
11594,-0.88,92.50,-29.75,-0.56,-3.88,-1.56,0.85,-0.20,0.09,0.00,0.00,0.14
11605,-0.69,92.44,-29.56,-0.44,-1.38,-2.19,0.84,-0.16,0.10,0.00,0.00,0.14
11615,-0.56,92.44,-29.38,-0.12,1.12,-2.69,0.82,-0.13,0.11,0.00,0.00,0.12
11626,-0.38,92.44,-29.19,0.19,3.44,-3.00,0.85,-0.14,0.10,0.00,0.00,0.19
11635,-0.25,92.44,-28.94,0.25,5.69,-3.38,0.85,-0.14,0.10,0.00,0.00,0.17
11643,-0.06,92.38,-28.69,0.56,8.56,-3.81,0.74,-0.15,0.08,0.00,0.00,0.23
11654,0.06,92.38,-28.44,0.69,10.81,-3.94,0.79,-0.13,0.10,0.00,0.00,0.33
11665,0.19,92.38,-28.12,0.81,13.12,-3.94,0.84,-0.12,0.08,0.00,0.00,0.32
11677,0.38,92.31,-27.81,0.94,15.44,-3.81,0.79,-0.11,0.05,0.00,0.00,0.37
11685,0.50,92.31,-27.50,1.19,17.81,-3.81,0.77,-0.10,0.05,0.00,0.00,0.34
11694,0.69,92.31,-27.12,1.25,20.25,-3.50,0.77,-0.10,0.05,0.00,0.00,0.32
11702,0.81,92.25,-26.75,1.56,22.62,-3.19,0.70,-0.09,0.06,0.00,0.00,0.34
11730,1.06,92.19,-26.00,1.62,29.50,-1.69,0.63,-0.06,0.01,0.00,0.00,0.34
11738,1.25,92.19,-25.19,1.69,31.94,-1.06,0.55,-0.04,0.00,0.00,0.00,0.37
11750,1.25,92.19,-25.19,1.69,31.94,-1.06,0.65,-0.07,-0.05,0.00,0.00,0.51
11761,1.44,92.12,-24.38,1.75,36.44,0.06,0.51,-0.08,-0.09,0.00,0.00,0.24
11770,1.50,92.12,-23.94,1.69,38.62,0.69,0.45,-0.10,-0.11,0.00,0.00,0.42
11780,1.50,92.06,-23.50,1.81,40.56,1.25,0.51,-0.14,-0.13,0.00,0.00,2.07
11790,1.50,92.06,-23.50,1.94,42.69,1.81,0.40,-0.16,-0.15,0.00,0.00,1.97
11800,1.56,92.06,-23.06,2.06,44.88,2.38,0.35,-0.16,-0.19,0.00,0.00,1.10
11812,1.56,92.00,-22.12,2.31,46.62,2.94,0.40,-0.14,-0.24,0.00,0.00,1.07
11822,1.56,92.00,-21.62,2.44,48.81,3.19,0.37,-0.16,-0.25,0.00,0.00,1.05
11832,1.56,91.94,-21.19,2.50,50.94,3.38,0.17,-0.15,-0.30,0.00,0.00,1.05
11842,1.56,91.94,-20.62,2.81,53.19,3.56,0.24,-0.15,-0.30,0.00,0.00,1.19
11853,1.56,91.94,-20.12,3.06,54.75,3.69,0.22,-0.15,-0.33,0.00,0.00,1.17
11865,1.56,91.88,-19.56,3.12,56.94,3.62,0.08,-0.17,-0.38,0.00,0.00,1.23
11887,1.56,91.81,-18.44,3.75,60.44,3.06,0.05,-0.24,-0.42,0.00,0.00,2.31
11895,1.56,91.81,-17.88,3.94,62.12,2.81,-0.05,-0.23,-0.45,0.00,0.00,2.32
11904,1.56,91.75,-17.25,4.12,64.06,2.31,-0.09,-0.25,-0.48,0.00,0.00,2.33
11915,1.56,91.75,-16.62,4.56,65.62,2.06,-0.10,-0.22,-0.52,0.00,0.00,2.31
11925,1.56,91.69,-15.94,4.94,67.25,1.50,-0.17,-0.22,-0.54,0.00,0.00,2.31
11934,1.56,91.62,-15.31,5.12,68.88,0.75,-0.21,-0.22,-0.57,0.00,0.00,2.27
11942,1.56,91.62,-14.62,5.31,70.25,0.19,-0.16,-0.20,-0.58,0.00,0.00,2.31
11950,1.56,91.56,-13.88,5.50,71.62,-0.44,-0.30,-0.21,-0.61,0.00,0.00,2.27
11958,1.56,91.56,-13.88,5.94,73.31,-0.94,-0.31,-0.19,-0.64,0.00,0.00,2.35
11970,1.56,91.50,-13.19,5.94,73.31,-0.94,-0.27,-0.15,-0.66,0.00,0.00,2.34
11978,1.56,91.50,-12.44,6.25,76.19,-1.81,-0.35,-0.17,-0.71,0.00,0.00,2.35
11988,1.62,91.44,-11.69,6.25,76.19,-1.81,-0.35,-0.17,-0.71,0.00,0.00,2.35
11996,1.62,91.38,-10.94,6.31,77.44,-2.31,-0.36,-0.16,-0.73,0.00,0.00,2.30
12022,1.69,91.31,-8.56,6.50,80.56,-2.88,-0.42,-0.16,-0.78,0.00,0.00,2.21
12029,1.69,91.25,-7.75,6.50,81.75,-2.88,-0.39,-0.16,-0.82,0.00,0.00,2.27
12039,1.69,91.25,-7.75,6.50,81.75,-2.88,-0.39,-0.16,-0.82,0.00,0.00,2.23
12048,1.75,91.25,-6.94,6.62,82.56,-2.75,-0.45,-0.16,-0.79,0.00,0.00,2.20
12060,1.75,91.19,-6.12,6.69,83.19,-2.44,-0.54,-0.15,-0.83,0.00,0.00,2.02
12071,1.75,91.19,-5.31,6.75,84.88,-1.69,-0.52,-0.14,-0.87,0.00,0.00,1.90
12087,1.75,91.12,-4.50,6.75,85.62,-1.25,-0.59,-0.13,-0.91,0.00,0.00,1.62
12098,1.69,91.12,-2.88,6.81,86.00,-0.75,-0.61,-0.15,-0.91,0.00,0.00,1.44
12111,1.69,91.06,-2.06,6.75,86.56,-0.25,-0.63,-0.14,-0.92,0.00,0.00,1.38
12123,1.62,91.06,-1.25,7.00,87.62,1.06,-0.73,-0.16,-0.96,0.00,0.00,1.29
12133,1.50,91.06,0.31,7.06,87.81,1.62,-0.70,-0.16,-0.95,0.00,0.00,1.23
12144,1.44,91.00,1.06,7.12,88.12,2.38,-0.84,-0.19,-0.99,0.00,0.00,1.21
12159,1.38,91.00,1.88,7.25,88.50,2.81,-0.86,-0.18,-0.99,0.00,0.00,1.66
12175,1.25,91.00,2.62,7.31,88.25,3.12,-0.90,-0.20,-1.00,0.00,0.00,1.05
12199,0.94,91.00,4.81,7.81,88.00,4.19,-1.05,-0.19,-0.97,0.00,0.00,0.70
12211,0.94,90.94,5.69,8.12,87.94,4.38,-1.10,-0.15,-0.99,0.00,0.00,0.83
12222,0.88,90.81,6.50,8.38,87.19,4.44,-1.24,-0.14,-0.98,0.00,0.00,0.93
12232,0.88,90.75,7.31,8.44,87.00,4.19,-1.28,-0.12,-1.01,0.00,0.00,1.48
12240,0.81,90.62,8.12,8.44,87.00,4.19,-1.38,-0.11,-0.98,0.00,0.00,1.39
12248,0.81,90.56,8.94,8.50,86.62,3.94,-1.38,-0.11,-0.98,0.00,0.00,1.45
12259,0.75,90.44,9.69,8.38,86.25,3.69,-1.39,-0.11,-0.99,0.00,0.00,1.44
12272,0.75,90.38,10.50,8.50,85.56,3.25,-1.53,-0.07,-0.98,0.00,0.00,1.46
12282,0.69,90.25,11.31,8.44,84.38,2.38,-1.54,-0.08,-0.94,0.00,0.00,1.46
12294,0.69,90.19,12.12,8.44,84.38,2.38,-1.60,-0.06,-0.95,0.00,0.00,0.52
12303,0.44,90.12,13.50,8.38,82.81,1.31,-1.59,-0.03,-0.93,0.00,0.00,0.10
12314,0.44,90.12,13.50,8.19,81.94,0.88,-1.58,-0.03,-0.90,0.00,0.00,0.27
12322,0.00,90.19,14.62,8.12,81.06,0.31,-1.53,-0.02,-0.88,0.00,0.00,0.33
12331,0.00,90.19,14.62,7.88,80.06,-0.12,-1.58,-0.03,-0.81,0.00,0.00,0.53
12353,-0.56,90.38,16.25,7.69,78.00,-0.94,-1.49,-0.01,-0.79,0.00,0.00,0.39
12363,-0.56,90.38,16.25,7.31,76.62,-1.06,-1.49,-0.02,-0.77,0.00,0.00,0.38
12373,-0.75,90.44,16.81,7.12,75.25,-1.31,-1.48,-0.02,-0.69,0.00,0.00,1.45
12384,-0.94,90.44,17.38,6.81,74.12,-1.38,-1.44,-0.05,-0.68,0.00,0.00,1.62
12392,-1.12,90.50,17.88,6.69,72.81,-1.25,-1.44,-0.06,-0.66,0.00,0.00,1.62
12402,-1.31,90.56,18.38,6.69,72.81,-1.25,-1.44,-0.06,-0.66,0.00,0.00,1.36
12412,-1.50,90.62,18.94,6.50,71.31,-1.31,-1.41,-0.05,-0.59,0.00,0.00,1.33
12423,-1.69,90.62,19.44,6.38,70.12,-1.00,-1.40,-0.05,-0.57,0.00,0.00,0.72
12434,-1.88,90.69,19.88,5.94,66.94,-0.44,-1.42,-0.05,-0.54,0.00,0.00,1.29
12443,-2.06,90.75,20.38,5.94,66.94,-0.44,-1.36,-0.08,-0.52,0.00,0.00,0.59
12453,-2.25,90.75,20.81,5.88,65.31,0.00,-1.36,-0.08,-0.52,0.00,0.00,1.51
12463,-2.44,90.81,21.25,5.69,63.50,0.50,-1.38,-0.07,-0.46,0.00,0.00,1.52
12474,-2.62,90.88,21.62,5.44,60.19,1.56,-1.33,-0.07,-0.44,0.00,0.00,1.56
12484,-2.81,90.94,22.00,5.38,58.50,2.12,-1.32,-0.05,-0.41,0.00,0.00,1.54
12510,-3.56,91.06,22.94,5.06,54.69,3.25,-1.34,-0.06,-0.32,0.00,0.00,1.51
12521,-3.81,91.12,23.19,4.94,52.69,3.62,-1.30,-0.08,-0.33,0.00,0.00,1.54
12535,-4.06,91.12,23.38,4.75,50.88,4.12,-1.31,-0.08,-0.28,0.00,0.00,1.56
12545,-4.31,91.19,23.62,4.62,46.81,4.94,-1.30,-0.06,-0.20,0.00,0.00,1.57
12555,-4.56,91.19,23.81,4.25,45.00,5.12,-1.29,-0.04,-0.19,0.00,0.00,1.62
12565,-4.81,91.25,24.00,4.31,42.69,5.44,-1.26,-0.04,-0.15,0.00,0.00,1.58
12576,-5.06,91.25,24.12,4.12,40.75,5.25,-1.24,-0.03,-0.13,0.00,0.00,1.64
12586,-5.62,91.31,24.38,3.94,38.56,5.38,-1.23,-0.03,-0.10,0.00,0.00,1.68
12595,-5.62,91.31,24.38,3.62,36.38,5.31,-1.20,-0.01,-0.09,0.00,0.00,1.55
12603,-5.88,91.31,24.50,3.50,34.38,5.06,-1.18,-0.01,-0.02,0.00,0.00,1.49
12613,-6.06,91.38,24.56,3.50,34.38,5.06,-1.18,0.00,-0.05,0.00,0.00,1.52
12622,-6.31,91.38,24.62,3.19,32.19,4.94,-1.16,0.01,-0.02,0.00,0.00,1.54
12632,-6.56,91.38,24.69,2.94,29.94,4.50,-1.16,0.01,-0.02,0.00,0.00,1.52
12641,-6.81,91.38,24.75,2.62,27.88,4.25,-1.11,0.02,0.01,0.00,0.00,1.52
12663,-7.25,91.38,24.75,1.75,21.31,2.81,-1.05,0.00,0.02,0.00,0.00,1.52
12674,-7.44,91.38,24.75,1.75,21.31,2.81,-1.02,-0.01,0.03,0.00,0.00,1.51
12683,-7.62,91.38,24.75,1.38,18.88,2.44,-1.01,-0.02,0.07,0.00,0.00,1.50
12694,-7.81,91.38,24.69,0.88,16.62,2.12,-1.01,-0.02,0.07,0.00,0.00,1.51
12701,-8.00,91.44,24.62,0.56,14.50,1.69,-0.96,-0.02,0.08,0.00,0.00,1.51
12712,-8.19,91.44,24.62,0.19,12.25,1.06,-0.93,-0.03,0.09,0.00,0.00,1.52
12722,-8.38,91.44,24.50,-0.19,9.75,0.75,-0.89,-0.05,0.03,0.00,0.00,1.51
12735,-8.50,91.44,24.44,-0.31,7.62,0.38,-0.85,-0.06,0.05,0.00,0.00,1.52
12743,-8.62,91.44,24.38,-0.75,5.31,0.06,-0.80,-0.08,0.04,0.00,0.00,1.51
12757,-8.75,91.44,24.25,-1.19,1.06,-0.25,-0.75,-0.09,0.04,0.00,0.00,1.52
12765,-8.88,91.44,24.12,-1.50,-1.50,-0.25,-0.70,-0.13,0.02,0.00,0.00,1.51
12775,-9.00,91.44,24.00,-1.50,-1.50,-0.25,-0.68,-0.12,0.01,0.00,0.00,1.51
12784,-9.06,91.44,23.88,-1.62,-3.75,-0.38,-0.66,-0.13,0.01,0.00,0.00,1.52
12792,-9.19,91.44,23.69,-2.12,-6.06,-0.31,-0.66,-0.13,0.01,0.00,0.00,1.51
12814,-9.31,91.44,23.38,-2.56,-12.69,0.12,-0.57,-0.17,-0.01,0.00,0.00,1.52
12824,-9.38,91.50,23.19,-2.56,-12.69,0.12,-0.55,-0.21,-0.01,0.00,0.00,1.50
12834,-9.44,91.50,22.94,-2.75,-15.25,0.62,-0.55,-0.21,-0.01,0.00,0.00,1.51
12841,-9.50,91.50,22.69,-2.88,-17.50,0.88,-0.53,-0.20,-0.02,0.00,0.00,1.51
12848,-9.56,91.50,22.44,-3.25,-22.00,1.44,-0.52,-0.21,-0.07,0.00,0.00,1.52
12856,-9.56,91.50,22.44,-3.25,-22.00,1.44,-0.50,-0.22,-0.06,0.00,0.00,1.52
12866,-9.62,91.50,22.12,-3.25,-22.00,1.44,-0.48,-0.21,-0.05,0.00,0.00,1.52
12875,-9.69,91.50,21.81,-3.31,-24.38,2.00,-0.48,-0.20,-0.09,0.00,0.00,1.52
12886,-9.75,91.44,21.50,-3.50,-28.75,2.69,-0.45,-0.20,-0.07,0.00,0.00,1.53
12894,-9.81,91.44,21.12,-3.62,-30.81,2.81,-0.45,-0.20,-0.07,0.00,0.00,1.53
12903,-9.88,91.44,20.75,-3.81,-33.12,3.12,-0.44,-0.19,-0.13,0.00,0.00,1.53
12911,-10.00,91.44,20.31,-4.00,-35.19,3.31,-0.44,-0.18,-0.11,0.00,0.00,1.53
12920,-10.06,91.44,19.88,-4.25,-37.19,3.50,-0.42,-0.18,-0.17,0.00,0.00,1.44
12944,-10.19,91.38,19.00,-4.56,-41.19,3.50,-0.40,-0.17,-0.21,0.00,0.00,1.57
12953,-10.25,91.38,18.50,-4.94,-43.44,3.31,-0.39,-0.18,-0.21,0.00,0.00,1.58
12962,-10.31,91.38,18.00,-5.12,-45.31,3.12,-0.37,-0.16,-0.25,0.00,0.00,1.57
12975,-10.31,91.31,17.50,-5.38,-47.06,2.75,-0.37,-0.15,-0.28,0.00,0.00,1.55
12987,-10.38,91.31,16.94,-5.69,-49.12,2.38,-0.36,-0.15,-0.30,0.00,0.00,1.55
12997,-10.44,91.31,16.44,-5.88,-50.94,1.88,-0.34,-0.14,-0.30,0.00,0.00,1.56
13007,-10.50,91.31,15.88,-6.00,-52.69,1.62,-0.31,-0.17,-0.33,0.00,0.00,1.43
13019,-10.50,91.25,15.25,-6.31,-54.50,1.12,-0.27,-0.15,-0.43,0.00,0.00,0.72
13029,-10.56,91.25,14.12,-6.81,-58.06,0.00,-0.25,-0.17,-0.43,0.00,0.00,0.80
13040,-10.56,91.25,14.12,-7.00,-59.69,-0.56,-0.19,-0.18,-0.46,0.00,0.00,1.41
13049,-10.62,91.25,12.88,-7.31,-61.44,-1.06,-0.16,-0.16,-0.51,0.00,0.00,0.67
13062,-10.62,91.25,12.88,-7.50,-62.81,-1.56,-0.12,-0.17,-0.50,0.00,0.00,1.62
13072,-10.62,91.19,11.62,-7.62,-64.19,-2.06,-0.13,-0.19,-0.55,0.00,0.00,1.60
13081,-10.62,91.19,11.00,-7.81,-65.75,-2.50,-0.03,-0.23,-0.59,0.00,0.00,1.50
13104,-10.62,91.19,9.69,-7.88,-68.56,-3.19,0.02,-0.25,-0.64,0.00,0.00,1.07
13113,-10.56,91.19,9.06,-8.06,-69.88,-3.44,0.07,-0.26,-0.66,0.00,0.00,0.34
13121,-10.56,91.19,8.38,-7.88,-71.19,-3.56,0.16,-0.26,-0.72,0.00,0.00,0.35
13130,-10.50,91.19,7.75,-7.88,-72.25,-3.75,0.19,-0.28,-0.74,0.00,0.00,0.34
13138,-10.50,91.19,7.75,-8.00,-73.56,-3.75,0.23,-0.28,-0.77,0.00,0.00,0.43
13148,-10.50,91.12,7.06,-8.00,-73.56,-3.75,0.23,-0.28,-0.77,0.00,0.00,0.27
13157,-10.44,91.12,6.38,-7.94,-74.56,-3.75,0.29,-0.30,-0.79,0.00,0.00,0.19
13170,-10.38,91.12,5.69,-7.94,-75.62,-3.50,0.32,-0.29,-0.81,0.00,0.00,0.14
13179,-10.38,91.12,5.00,-8.00,-77.88,-3.19,0.40,-0.29,-0.84,0.00,0.00,0.79
13192,-10.31,91.12,4.25,-7.94,-78.88,-3.00,0.46,-0.27,-0.87,0.00,0.00,1.45
13201,-10.19,91.12,2.81,-7.88,-79.62,-2.56,0.49,-0.29,-0.87,0.00,0.00,1.45
13213,-10.19,91.12,2.81,-7.88,-80.50,-2.31,0.52,-0.27,-0.87,0.00,0.00,1.44
13221,-10.12,91.19,1.38,-7.94,-81.19,-1.94,0.56,-0.28,-0.93,0.00,0.00,1.43
13246,-10.00,91.19,-0.12,-7.88,-82.38,-1.38,0.62,-0.25,-0.91,0.00,0.00,0.88
13255,-9.94,91.19,-0.88,-7.94,-82.88,-1.06,0.65,-0.26,-0.90,0.00,0.00,0.78
13267,-9.88,91.25,-1.62,-7.88,-83.25,-0.81,0.65,-0.26,-0.94,0.00,0.00,0.80
13279,-9.88,91.25,-2.38,-7.94,-83.56,-0.75,0.70,-0.24,-0.92,0.00,0.00,0.93
13294,-9.81,91.25,-3.12,-8.00,-84.25,-0.56,0.74,-0.24,-0.92,0.00,0.00,1.29
13305,-9.69,91.31,-4.69,-8.00,-84.56,-0.69,0.73,-0.21,-0.88,0.00,0.00,1.56
13317,-9.62,91.38,-5.44,-8.06,-84.62,-0.69,0.77,-0.22,-0.91,0.00,0.00,1.24
13331,-9.56,91.38,-6.19,-8.06,-84.81,-0.81,0.79,-0.24,-0.92,0.00,0.00,1.31
13344,-9.50,91.38,-6.94,-8.12,-84.38,-1.38,0.82,-0.24,-0.91,0.00,0.00,1.33
13355,-9.31,91.50,-8.44,-8.12,-84.19,-1.62,0.85,-0.23,-0.89,0.00,0.00,1.52
13367,-9.25,91.50,-9.12,-8.06,-84.19,-2.00,0.86,-0.25,-0.87,0.00,0.00,1.65
13380,-9.12,91.56,-9.88,-8.00,-83.81,-2.44,0.89,-0.23,-0.90,0.00,0.00,1.76
13391,-9.06,91.56,-10.56,-7.88,-82.69,-3.38,0.95,-0.24,-0.84,0.00,0.00,1.93
13400,-8.94,91.62,-11.25,-7.88,-82.69,-3.38,0.96,-0.25,-0.82,0.00,0.00,2.04
13423,-8.56,91.75,-13.25,-7.50,-81.31,-4.50,1.00,-0.25,-0.83,0.00,0.00,2.25
13430,-8.44,91.81,-13.88,-7.12,-80.69,-4.69,1.06,-0.25,-0.75,0.00,0.00,2.28
13441,-8.44,91.81,-13.88,-7.12,-80.69,-4.69,1.09,-0.25,-0.74,0.00,0.00,2.24
13449,-8.25,91.88,-14.50,-7.12,-80.12,-5.06,1.08,-0.24,-0.72,0.00,0.00,2.20
13460,-8.12,91.88,-15.12,-7.06,-79.06,-5.19,1.08,-0.24,-0.72,0.00,0.00,1.62
13470,-7.94,91.94,-15.69,-7.00,-78.25,-5.44,1.17,-0.24,-0.68,0.00,0.00,2.07
13482,-7.75,92.00,-16.31,-6.75,-77.31,-5.38,1.18,-0.23,-0.63,0.00,0.00,2.35
13490,-7.62,92.06,-16.88,-6.62,-75.31,-5.38,1.20,-0.23,-0.61,0.00,0.00,2.35
13500,-7.44,92.12,-17.38,-6.62,-75.31,-5.38,1.20,-0.23,-0.61,0.00,0.00,2.35
13508,-7.25,92.12,-17.94,-6.31,-74.12,-5.31,1.26,-0.19,-0.59,0.00,0.00,2.36
13519,-7.06,92.19,-18.44,-6.19,-73.25,-5.00,1.25,-0.20,-0.56,0.00,0.00,2.27
13529,-6.88,92.25,-18.94,-6.00,-72.00,-4.75,1.27,-0.20,-0.52,0.00,0.00,2.31
13541,-6.69,92.31,-19.44,-5.94,-70.62,-4.38,1.28,-0.19,-0.47,0.00,0.00,2.26
13562,-6.12,92.38,-20.88,-5.69,-66.88,-3.25,1.31,-0.18,-0.38,0.00,0.00,2.32
13571,-6.12,92.38,-20.88,-5.62,-65.44,-2.75,1.30,-0.15,-0.36,0.00,0.00,2.32
13583,-6.00,92.44,-21.38,-5.62,-65.44,-2.75,1.31,-0.15,-0.30,0.00,0.00,2.35
13592,-5.81,92.50,-21.81,-5.31,-62.25,-1.94,1.32,-0.14,-0.28,0.00,0.00,2.32
13601,-5.62,92.50,-22.19,-5.31,-62.25,-1.94,1.32,-0.14,-0.28,0.00,0.00,2.32
13611,-5.44,92.56,-22.62,-5.25,-60.69,-1.62,1.29,-0.16,-0.27,0.00,0.00,1.88
13624,-5.25,92.56,-23.00,-5.38,-59.25,-1.19,1.27,-0.14,-0.17,0.00,0.00,1.24
13635,-4.88,92.62,-23.69,-5.31,-55.62,-0.75,1.25,-0.16,-0.14,0.00,0.00,1.19
13647,-4.75,92.69,-24.06,-5.06,-53.94,-0.56,1.24,-0.14,-0.14,0.00,0.00,1.13
13657,-4.50,92.69,-24.31,-5.00,-52.00,-0.50,1.23,-0.16,-0.08,0.00,0.00,1.15
13668,-4.38,92.75,-24.62,-4.81,-50.56,0.00,1.16,-0.15,-0.08,0.00,0.00,1.09
13679,-4.19,92.75,-24.94,-4.75,-48.62,-0.25,1.18,-0.16,-0.04,0.00,0.00,1.09
13694,-4.00,92.75,-25.19,-4.50,-46.62,-0.12,1.15,-0.14,-0.04,0.00,0.00,1.00
13719,-3.44,92.81,-25.88,-4.19,-40.62,-0.56,1.07,-0.17,0.02,0.00,0.00,1.72
13730,-3.25,92.81,-26.06,-4.00,-38.62,-0.81,1.06,-0.17,0.05,0.00,0.00,2.09
13743,-3.12,92.81,-26.25,-3.75,-36.75,-1.06,1.03,-0.19,0.07,0.00,0.00,1.86
13752,-2.94,92.81,-26.38,-3.69,-34.50,-1.38,1.02,-0.20,0.11,0.00,0.00,0.44
13761,-2.75,92.81,-26.50,-3.38,-32.50,-1.38,1.00,-0.16,0.12,0.00,0.00,0.27
13772,-2.56,92.81,-26.62,-3.12,-30.44,-1.69,0.98,-0.18,0.14,0.00,0.00,0.25
13782,-2.38,92.81,-26.75,-2.88,-28.56,-2.06,0.95,-0.17,0.14,0.00,0.00,0.40
13793,-2.19,92.81,-26.81,-2.75,-26.12,-2.31,0.94,-0.18,0.16,0.00,0.00,0.53
13801,-2.06,92.81,-26.81,-2.50,-24.12,-2.62,0.94,-0.18,0.16,0.00,0.00,0.54
13811,-1.88,92.75,-26.88,-2.31,-21.88,-2.69,0.91,-0.17,0.22,0.00,0.00,0.40
13821,-1.69,92.75,-26.88,-2.19,-19.50,-2.81,0.92,-0.17,0.19,0.00,0.00,0.34
13834,-1.50,92.75,-26.88,-1.94,-17.62,-3.00,0.90,-0.16,0.20,0.00,0.00,0.38
13843,-1.31,92.69,-26.81,-1.56,-13.06,-3.12,0.89,-0.15,0.21,0.00,0.00,0.32
13855,-1.12,92.69,-26.75,-1.56,-13.06,-3.12,0.89,-0.15,0.21,0.00,0.00,0.37
13877,-0.62,92.62,-26.44,-0.88,-6.19,-2.94,0.83,-0.13,0.19,0.00,0.00,0.33
13887,-0.44,92.56,-26.31,-0.75,-4.19,-2.81,0.82,-0.13,0.21,0.00,0.00,0.33
13895,-0.25,92.56,-26.19,-0.62,-1.75,-2.56,0.81,-0.13,0.22,0.00,0.00,0.35
13905,-0.25,92.56,-26.19,-0.62,-1.75,-2.56,0.80,-0.11,0.21,0.00,0.00,0.38
13913,-0.12,92.50,-26.00,-0.50,0.38,-2.25,0.77,-0.10,0.21,0.00,0.00,0.37
13925,0.00,92.44,-25.81,-0.44,2.38,-1.94,0.75,-0.11,0.19,0.00,0.00,0.33
13934,0.12,92.44,-25.62,-0.19,6.88,-1.44,0.70,-0.12,0.22,0.00,0.00,0.32
13946,0.25,92.38,-25.44,-0.19,6.88,-1.44,0.70,-0.11,0.18,0.00,0.00,0.42
13954,0.38,92.38,-25.19,0.25,11.38,-0.69,0.66,-0.14,0.16,0.00,0.00,0.48
13963,0.50,92.31,-25.00,0.25,11.38,-0.69,0.66,-0.14,0.16,0.00,0.00,0.52
13972,0.56,92.31,-24.75,0.25,13.38,-0.38,0.63,-0.12,0.17,0.00,0.00,0.53
13984,0.69,92.31,-24.50,0.38,15.69,-0.25,0.60,-0.12,0.14,0.00,0.00,0.37
13994,0.75,92.25,-24.25,0.50,17.88,0.25,0.54,-0.16,0.10,0.00,0.00,0.20
14004,0.81,92.25,-23.94,0.56,20.19,0.44,0.54,-0.16,0.10,0.00,0.00,0.28
14028,1.00,92.19,-23.12,1.19,26.50,1.00,0.45,-0.18,0.02,0.00,0.00,2.03
14041,1.00,92.19,-22.75,1.38,28.69,0.94,0.41,-0.16,0.02,0.00,0.00,1.25
14051,1.06,92.12,-22.44,1.69,30.75,1.00,0.36,-0.15,0.00,0.00,0.00,1.11
14064,1.06,92.12,-22.12,1.88,32.81,1.19,0.34,-0.18,0.00,0.00,0.00,1.14
14077,1.12,92.06,-21.75,1.94,34.81,0.81,0.31,-0.20,-0.05,0.00,0.00,1.11
14089,1.12,92.06,-21.38,2.44,38.81,0.62,0.25,-0.19,-0.06,0.00,0.00,1.15
14099,1.19,92.00,-20.56,2.88,40.88,0.50,0.23,-0.20,-0.10,0.00,0.00,1.10
14110,1.19,91.94,-20.12,2.88,42.62,0.44,0.19,-0.21,-0.11,0.00,0.00,1.13
14120,1.19,91.94,-19.69,3.25,44.62,0.12,0.18,-0.20,-0.14,0.00,0.00,1.15
14131,1.25,91.88,-19.19,3.50,46.19,-0.12,0.15,-0.20,-0.19,0.00,0.00,1.31
14143,1.25,91.81,-18.69,3.50,48.31,-0.31,0.12,-0.18,-0.18,0.00,0.00,1.67
14152,1.25,91.81,-18.19,3.88,50.25,-0.56,0.11,-0.18,-0.21,0.00,0.00,2.34
14159,1.31,91.75,-17.69,4.00,51.69,-0.62,0.08,-0.16,-0.23,0.00,0.00,2.35
14169,1.31,91.69,-17.12,4.25,53.62,-0.88,0.05,-0.18,-0.30,0.00,0.00,2.35
14194,1.38,91.62,-16.00,4.81,57.00,-1.12,0.02,-0.16,-0.36,0.00,0.00,2.31
14202,1.44,91.56,-15.38,4.75,58.38,-1.25,0.00,-0.16,-0.37,0.00,0.00,2.32
14210,1.44,91.56,-14.81,4.81,59.94,-1.12,-0.03,-0.13,-0.42,0.00,0.00,2.30
14220,1.44,91.50,-14.19,4.94,61.56,-0.94,-0.03,-0.15,-0.44,0.00,0.00,2.30
14227,1.50,91.44,-13.56,5.12,63.06,-0.94,-0.06,-0.16,-0.46,0.00,0.00,2.31
14240,1.50,91.44,-13.56,5.19,64.12,-0.69,-0.08,-0.14,-0.51,0.00,0.00,2.36
14248,1.50,91.38,-12.25,5.31,65.56,-0.62,-0.13,-0.14,-0.52,0.00,0.00,2.35
14255,1.50,91.38,-12.25,5.31,65.56,-0.62,-0.16,-0.16,-0.51,0.00,0.00,2.35
14262,1.50,91.31,-11.56,5.38,66.69,-0.25,-0.16,-0.16,-0.51,0.00,0.00,2.36
14270,1.56,91.25,-10.94,5.56,67.94,-0.06,-0.17,-0.14,-0.56,0.00,0.00,2.36
14277,1.56,91.25,-10.25,5.50,69.56,0.31,-0.19,-0.15,-0.61,0.00,0.00,2.35
14288,1.56,91.25,-10.25,5.69,70.50,0.69,-0.23,-0.14,-0.62,0.00,0.00,1.85
14296,1.56,91.19,-9.56,5.62,71.69,1.06,-0.27,-0.13,-0.67,0.00,0.00,1.69
14318,1.50,91.12,-7.56,5.94,73.31,1.94,-0.32,-0.13,-0.68,0.00,0.00,2.29
14329,1.50,91.12,-7.56,6.12,74.38,2.38,-0.39,-0.14,-0.76,0.00,0.00,2.27
14337,1.44,91.06,-6.88,6.12,75.19,2.62,-0.41,-0.13,-0.73,0.00,0.00,2.21
14352,1.38,91.06,-6.19,6.25,75.81,3.06,-0.42,-0.15,-0.77,0.00,0.00,2.05
14362,1.31,91.00,-4.81,6.44,76.75,3.50,-0.50,-0.14,-0.78,0.00,0.00,1.87
14372,1.25,91.00,-4.12,6.44,77.50,3.69,-0.56,-0.15,-0.82,0.00,0.00,1.75
14384,1.12,91.00,-3.44,6.62,77.94,4.00,-0.58,-0.16,-0.82,0.00,0.00,1.55
14397,1.06,91.00,-2.75,6.69,78.62,4.00,-0.61,-0.15,-0.85,0.00,0.00,1.41
14407,1.00,91.00,-2.06,6.75,79.19,4.31,-0.67,-0.13,-0.88,0.00,0.00,1.35
14421,0.88,91.00,-1.44,6.88,79.25,4.38,-0.71,-0.14,-0.85,0.00,0.00,1.36
14432,0.69,91.00,-0.06,7.25,80.12,4.25,-0.75,-0.14,-0.85,0.00,0.00,1.33
14445,0.56,91.06,0.62,7.38,80.31,4.31,-0.80,-0.12,-0.85,0.00,0.00,1.27
14456,0.50,91.06,1.25,7.38,80.56,4.12,-0.82,-0.13,-0.86,0.00,0.00,1.32
14470,0.38,91.06,1.94,7.38,80.44,4.06,-0.85,-0.11,-0.86,0.00,0.00,1.48
14498,0.00,91.12,3.94,7.56,80.44,3.56,-0.92,-0.08,-0.86,0.00,0.00,0.75
14510,-0.06,91.12,4.56,7.56,80.44,3.38,-0.95,-0.08,-0.84,0.00,0.00,0.78
14520,-0.19,91.19,5.19,7.62,80.06,2.81,-0.98,-0.07,-0.81,0.00,0.00,0.87
14532,-0.31,91.19,5.88,7.56,79.44,2.75,-1.01,-0.08,-0.81,0.00,0.00,0.93
14540,-0.56,91.25,7.12,7.50,79.06,2.69,-1.01,-0.05,-0.82,0.00,0.00,1.53
14551,-0.56,91.25,7.12,7.44,78.81,2.56,-1.00,-0.07,-0.78,0.00,0.00,1.45
14559,-0.69,91.31,7.75,7.44,78.12,2.44,-1.02,-0.06,-0.74,0.00,0.00,1.49
14571,-0.81,91.31,8.38,7.44,78.12,2.44,-1.02,-0.06,-0.74,0.00,0.00,1.50
14579,-0.94,91.38,9.00,7.12,77.06,2.50,-1.03,-0.05,-0.74,0.00,0.00,1.48
14591,-1.06,91.38,9.62,7.19,76.31,2.44,-1.04,-0.08,-0.71,0.00,0.00,1.45
14599,-1.19,91.44,10.25,7.00,75.44,2.69,-1.07,-0.06,-0.69,0.00,0.00,1.37
14612,-1.31,91.44,10.88,7.00,75.44,2.69,-1.07,-0.06,-0.69,0.00,0.00,0.14
14620,-1.62,91.56,12.00,6.62,73.75,2.88,-1.06,-0.07,-0.66,0.00,0.00,0.22
14629,-1.62,91.56,12.00,6.62,72.94,2.88,-1.09,-0.08,-0.63,0.00,0.00,0.19
14651,-2.00,91.62,13.69,6.44,71.06,3.44,-1.08,-0.07,-0.58,0.00,0.00,0.32
14660,-2.00,91.62,13.69,6.25,70.00,3.62,-1.09,-0.07,-0.56,0.00,0.00,0.40
14669,-2.19,91.69,14.19,6.25,70.00,3.62,-1.09,-0.07,-0.56,0.00,0.00,0.30
14680,-2.31,91.75,14.69,6.31,68.62,4.00,-1.12,-0.06,-0.52,0.00,0.00,1.11
14694,-2.50,91.75,15.19,6.31,67.31,4.06,-1.12,-0.05,-0.50,0.00,0.00,1.48
14705,-2.81,91.81,16.12,5.94,64.88,4.50,-1.12,-0.08,-0.47,0.00,0.00,1.61
14713,-2.94,91.88,16.56,5.81,63.44,4.69,-1.17,-0.08,-0.43,0.00,0.00,1.62
14723,-3.12,91.88,17.00,5.81,61.94,4.69,-1.17,-0.06,-0.42,0.00,0.00,1.49
14732,-3.31,91.94,17.44,5.81,60.56,4.94,-1.17,-0.05,-0.40,0.00,0.00,0.73
14741,-3.31,91.94,17.44,5.69,59.06,5.00,-1.16,-0.06,-0.37,0.00,0.00,1.43
14754,-3.50,91.94,17.81,5.44,57.50,4.94,-1.20,-0.04,-0.32,0.00,0.00,0.65
14763,-3.88,92.00,18.56,5.44,56.12,4.88,-1.20,-0.07,-0.24,0.00,0.00,1.17
14775,-4.06,92.00,18.88,5.31,54.62,4.81,-1.20,-0.05,-0.27,0.00,0.00,0.59
14784,-4.25,92.06,19.19,5.06,53.06,4.75,-1.18,-0.04,-0.25,0.00,0.00,1.46
14811,-4.69,92.12,19.69,4.69,49.44,4.50,-1.20,-0.04,-0.22,0.00,0.00,1.52
14820,-4.94,92.12,19.94,4.56,47.62,4.12,-1.18,-0.04,-0.18,0.00,0.00,1.46
14832,-5.12,92.19,20.19,4.12,46.12,3.88,-1.16,-0.02,-0.13,0.00,0.00,1.07
14840,-5.38,92.19,20.38,4.00,42.44,3.19,-1.14,-0.02,-0.09,0.00,0.00,1.37
14850,-5.56,92.25,20.56,4.00,42.44,3.19,-1.13,-0.02,-0.04,0.00,0.00,1.36
14859,-5.75,92.25,20.75,3.81,40.62,2.88,-1.13,-0.02,-0.04,0.00,0.00,1.35
14867,-5.94,92.25,20.94,3.62,38.69,2.69,-1.10,-0.02,-0.03,0.00,0.00,1.34
14877,-6.19,92.25,21.06,3.31,36.94,2.31,-1.07,-0.05,-0.01,0.00,0.00,1.36
14885,-6.38,92.31,21.25,3.06,35.00,2.06,-1.05,-0.03,-0.03,0.00,0.00,1.34
14895,-6.50,92.31,21.38,2.94,33.12,1.75,-1.02,-0.04,0.01,0.00,0.00,1.35
14902,-6.69,92.31,21.50,2.81,31.12,1.38,-1.00,-0.04,0.05,0.00,0.00,1.35
14909,-6.69,92.31,21.50,2.81,31.12,1.38,-0.97,-0.05,0.05,0.00,0.00,1.37
14917,-6.88,92.31,21.56,2.25,28.88,1.12,-0.97,-0.05,0.05,0.00,0.00,1.36
14925,-7.06,92.31,21.69,2.06,27.19,0.88,-0.95,-0.03,0.05,0.00,0.00,1.37
14950,-7.31,92.31,21.81,1.62,23.06,0.50,-0.89,-0.08,0.07,0.00,0.00,1.37
14957,-7.50,92.31,21.88,1.31,21.00,0.31,-0.88,-0.09,0.09,0.00,0.00,1.37
14965,-7.62,92.31,21.94,1.25,19.19,0.12,-0.85,-0.09,0.12,0.00,0.00,1.38
14973,-7.62,92.31,21.94,1.06,17.00,0.12,-0.82,-0.11,0.09,0.00,0.00,1.38
14981,-7.75,92.31,21.94,0.81,14.88,0.06,-0.81,-0.12,0.08,0.00,0.00,1.38
14992,-7.88,92.31,22.00,0.81,14.88,0.06,-0.80,-0.12,0.10,0.00,0.00,1.37
15001,-8.00,92.31,22.00,0.69,12.75,0.06,-0.77,-0.12,0.12,0.00,0.00,1.38
15010,-8.12,92.31,21.94,0.50,10.50,0.19,-0.77,-0.12,0.12,0.00,0.00,1.38
15017,-8.19,92.25,21.94,0.31,8.69,0.12,-0.75,-0.13,0.08,0.00,0.00,1.40
15026,-8.31,92.25,21.88,0.06,6.44,0.25,-0.75,-0.15,0.10,0.00,0.00,1.37
15033,-8.44,92.25,21.81,-0.12,4.06,0.31,-0.71,-0.15,0.10,0.00,0.00,1.38
15041,-8.44,92.25,21.81,-0.25,2.06,0.38,-0.70,-0.16,0.09,0.00,0.00,1.38
15051,-8.50,92.25,21.75,-0.25,2.06,0.38,-0.69,-0.13,0.10,0.00,0.00,1.38
15058,-8.62,92.25,21.62,-0.38,-0.12,0.56,-0.69,-0.13,0.10,0.00,0.00,1.37
15081,-8.81,92.19,21.38,-0.75,-4.38,0.69,-0.64,-0.16,0.09,0.00,0.00,1.38
15091,-8.88,92.19,21.25,-1.00,-6.56,0.75,-0.63,-0.15,0.09,0.00,0.00,1.38
15101,-8.94,92.19,21.06,-1.06,-8.75,0.81,-0.63,-0.15,0.09,0.00,0.00,1.39
15108,-9.06,92.19,20.88,-1.19,-10.62,0.75,-0.61,-0.16,0.13,0.00,0.00,1.38
15116,-9.12,92.12,20.69,-1.44,-12.81,0.75,-0.59,-0.14,0.09,0.00,0.00,1.37
15123,-9.19,92.12,20.44,-1.56,-15.00,0.75,-0.58,-0.15,0.08,0.00,0.00,1.40
15132,-9.19,92.12,20.44,-1.75,-17.06,0.69,-0.56,-0.16,0.04,0.00,0.00,1.39
15141,-9.25,92.12,20.19,-1.75,-17.06,0.69,-0.56,-0.13,0.06,0.00,0.00,1.38
15153,-9.31,92.06,19.94,-2.00,-19.06,0.50,-0.56,-0.13,0.06,0.00,0.00,1.39
15160,-9.38,92.06,19.69,-2.06,-21.06,0.31,-0.54,-0.14,0.03,0.00,0.00,1.39
15170,-9.44,92.06,19.38,-2.50,-23.19,0.19,-0.54,-0.14,0.04,0.00,0.00,1.39
15177,-9.50,92.00,19.06,-2.75,-25.25,0.00,-0.53,-0.11,0.02,0.00,0.00,1.39
15184,-9.56,92.00,18.75,-2.88,-27.25,-0.19,-0.51,-0.12,0.00,0.00,0.00,1.38
15193,-9.56,92.00,18.75,-2.94,-29.19,-0.56,-0.50,-0.13,-0.03,0.00,0.00,1.39
15214,-9.69,91.94,17.69,-3.56,-33.12,-1.06,-0.45,-0.14,-0.05,0.00,0.00,1.39
15224,-9.69,91.94,17.69,-3.56,-33.12,-1.06,-0.45,-0.14,-0.05,0.00,0.00,1.41
15233,-9.75,91.94,17.38,-3.75,-35.12,-1.19,-0.43,-0.15,-0.06,0.00,0.00,1.39
15247,-9.75,91.94,16.94,-4.00,-36.88,-1.62,-0.40,-0.14,-0.10,0.00,0.00,1.46
15256,-9.81,91.88,16.12,-4.31,-40.38,-2.06,-0.37,-0.16,-0.11,0.00,0.00,1.56
15268,-9.81,91.88,16.12,-4.44,-42.44,-2.50,-0.35,-0.17,-0.12,0.00,0.00,1.24
15278,-9.81,91.81,15.31,-4.75,-44.06,-2.69,-0.35,-0.18,-0.14,0.00,0.00,0.54
15287,-9.81,91.81,14.88,-4.88,-46.12,-2.88,-0.31,-0.17,-0.20,0.00,0.00,0.97
15296,-9.81,91.81,14.38,-5.00,-47.50,-2.94,-0.26,-0.18,-0.21,0.00,0.00,0.66
15306,-9.81,91.81,14.38,-5.12,-49.12,-3.31,-0.25,-0.18,-0.23,0.00,0.00,1.50
15316,-9.81,91.75,13.94,-5.38,-50.94,-3.31,-0.19,-0.19,-0.26,0.00,0.00,0.77
15327,-9.75,91.75,13.44,-5.38,-50.94,-3.31,-0.18,-0.18,-0.30,0.00,0.00,1.50
15336,-9.75,91.69,12.44,-5.56,-54.12,-3.38,-0.13,-0.20,-0.34,0.00,0.00,1.59
15360,-9.75,91.62,11.38,-5.75,-57.00,-3.31,-0.06,-0.19,-0.34,0.00,0.00,1.50
15369,-9.75,91.62,10.81,-5.81,-58.56,-3.25,-0.03,-0.21,-0.37,0.00,0.00,1.47
15377,-9.69,91.62,10.25,-5.94,-59.81,-3.25,0.01,-0.21,-0.41,0.00,0.00,0.83
15386,-9.69,91.56,9.62,-6.12,-61.31,-3.00,0.03,-0.19,-0.44,0.00,0.00,0.37
15397,-9.69,91.56,9.62,-5.94,-62.44,-3.06,0.05,-0.20,-0.47,0.00,0.00,0.39
15405,-9.69,91.56,9.06,-6.12,-63.81,-2.88,0.09,-0.21,-0.44,0.00,0.00,0.37
15415,-9.69,91.56,8.44,-6.12,-63.81,-2.88,0.09,-0.21,-0.44,0.00,0.00,0.49
