Time,sensPitch,sensRoll,sensYaw,xGyro,yGyro,ZGyro,xAcc,yAcc,zAcc,latitude,longitude,altitude
6043,-3.94,91.88,2.44,0.75,9.44,-1.75,0.08,-0.14,0.01,0.00,0.00,1.32
6054,-3.94,91.88,2.62,0.69,9.31,-1.06,0.01,-0.14,-0.01,0.00,0.00,1.51
6069,-3.94,91.88,2.75,0.75,9.25,-0.44,0.03,-0.12,-0.01,0.00,0.00,1.31
6080,-3.94,91.88,2.81,0.81,9.25,0.62,-0.03,-0.14,0.00,0.00,0.00,1.33
6096,-3.94,91.88,3.00,0.75,9.25,1.06,-0.03,-0.13,-0.02,0.00,0.00,1.40
6107,-3.94,91.88,3.06,0.75,9.25,1.44,-0.09,-0.13,0.00,0.00,0.00,1.36
6123,-3.94,91.88,3.19,0.75,9.19,1.75,-0.12,-0.15,-0.01,0.00,0.00,1.54
6135,-4.00,91.81,3.31,0.81,9.38,1.94,-0.13,-0.12,-0.01,0.00,0.00,1.73
6145,-4.00,91.81,3.38,0.88,9.25,1.69,-0.17,-0.12,0.00,0.00,0.00,1.80
6155,-4.00,91.81,3.44,0.94,9.12,1.50,-0.21,-0.13,0.00,0.00,0.00,1.80
6168,-4.06,91.81,3.50,0.88,9.06,1.25,-0.23,-0.14,-0.01,0.00,0.00,1.76
6180,-4.06,91.81,3.62,0.94,8.94,0.75,-0.25,-0.13,0.00,0.00,0.00,1.67
6192,-4.06,91.81,3.75,0.75,8.94,-0.19,-0.28,-0.13,0.00,0.00,0.00,1.63
6202,-4.06,91.81,3.88,0.81,9.19,-0.69,-0.28,-0.12,0.02,0.00,0.00,1.38
6962,-4.81,91.75,4.19,-0.75,-7.19,-0.19,-0.16,-0.13,0.00,0.00,0.00,1.03
6975,-4.81,91.75,4.12,-0.94,-7.38,-0.69,-0.12,-0.14,0.00,0.00,0.00,1.01
6989,-4.81,91.75,4.06,-0.88,-7.38,-1.44,-0.06,-0.13,-0.03,0.00,0.00,1.14
6999,-4.81,91.75,3.94,-0.88,-7.69,-1.44,-0.06,-0.14,-0.01,0.00,0.00,1.06
7011,-4.75,91.75,3.88,-0.88,-7.94,-1.50,-0.04,-0.13,0.00,0.00,0.00,1.12
7021,-4.75,91.75,3.81,-1.00,-8.25,-1.56,-0.01,-0.13,-0.01,0.00,0.00,1.19
7035,-4.75,91.75,3.75,-0.94,-8.31,-1.31,0.02,-0.14,-0.01,0.00,0.00,1.15
7047,-4.75,91.75,3.69,-0.81,-8.56,-0.75,0.04,-0.13,-0.01,0.00,0.00,1.26
7063,-4.75,91.75,3.50,-0.88,-8.62,-0.44,0.06,-0.14,-0.01,0.00,0.00,1.36
7077,-4.75,91.75,3.38,-0.94,-8.81,0.12,0.09,-0.15,0.00,0.00,0.00,1.60
7088,-4.75,91.75,3.31,-0.69,-8.81,1.12,0.11,-0.14,-0.04,0.00,0.00,1.71
7098,-4.75,91.75,3.12,-0.81,-9.31,1.69,0.09,-0.15,-0.01,0.00,0.00,1.75
7109,-4.81,91.75,3.00,-0.75,-9.25,2.25,0.10,-0.15,-0.01,0.00,0.00,1.83
7120,-4.81,91.75,2.88,-0.81,-9.19,2.88,0.08,-0.13,-0.02,0.00,0.00,1.83
7155,-4.94,91.81,2.50,-0.81,-9.62,4.12,0.08,-0.14,-0.02,0.00,0.00,1.58
7166,-5.00,91.81,2.38,-0.88,-9.56,4.25,0.06,-0.15,0.00,0.00,0.00,1.36
7178,-5.00,91.81,2.19,-0.81,-9.50,4.62,0.04,-0.11,-0.04,0.00,0.00,1.29
7189,-5.12,91.81,1.94,-0.75,-9.94,4.69,-0.02,-0.03,0.00,0.00,0.00,1.40
7200,-5.19,91.81,1.81,-0.75,-9.81,4.56,-0.06,-0.05,0.06,0.00,0.00,1.35
7211,-5.19,91.81,1.62,-1.06,-9.75,4.19,-0.10,-0.06,0.06,0.00,0.00,1.38
7222,-5.25,91.81,1.50,-1.31,-9.81,3.88,-0.11,-0.14,0.04,0.00,0.00,1.37
7234,-5.31,91.81,1.38,-1.25,-9.94,3.19,-0.12,-0.20,0.01,0.00,0.00,1.32
7247,-5.31,91.81,1.25,-1.38,-10.19,2.62,-0.05,-0.31,-0.04,0.00,0.00,1.24
7258,-5.31,91.81,1.12,-1.12,-10.19,2.06,0.00,-0.22,0.00,0.00,0.00,1.17
7273,-5.38,91.81,1.00,-1.00,-10.19,1.69,0.11,-0.13,0.00,0.00,0.00,1.15
7286,-5.38,91.81,0.75,-0.75,-10.38,1.00,0.25,-0.08,0.02,0.00,0.00,1.22
7299,-5.38,91.81,0.69,-0.62,-10.38,0.94,0.36,-0.06,0.06,0.00,0.00,1.21
7310,-5.38,91.81,0.56,-1.06,-9.81,1.12,0.35,-0.11,0.03,0.00,0.00,1.17
7346,-5.44,91.81,0.12,-1.25,-9.12,1.12,0.27,-0.17,-0.02,0.00,0.00,1.25
7357,-5.44,91.81,0.06,-1.06,-9.19,1.12,0.25,-0.23,-0.02,0.00,0.00,1.23
7370,-5.44,91.81,-0.06,-0.94,-8.88,0.81,-0.01,-0.36,-0.11,0.00,0.00,1.26
7381,-5.44,91.81,-0.19,-0.44,-8.12,-0.81,0.07,-0.20,-0.12,0.00,0.00,1.28
7394,-5.44,91.81,-0.25,-0.12,-7.88,-1.62,0.20,-0.24,-0.10,0.00,0.00,1.26
7404,-5.38,91.75,-0.25,0.00,-7.50,-2.69,0.15,0.01,0.00,0.00,0.00,1.32
7416,-5.31,91.75,-0.31,-0.12,-6.62,-3.94,0.28,0.00,0.00,0.00,0.00,1.32
7429,-5.31,91.75,-0.31,-0.31,-6.31,-5.00,0.31,0.07,-0.01,0.00,0.00,1.25
7440,-5.25,91.75,-0.31,-0.81,-4.56,-6.88,0.43,-0.13,-0.07,0.00,0.00,1.27
7456,-5.06,91.75,-0.25,-0.81,-3.81,-7.69,0.58,-0.24,-0.14,0.00,0.00,1.31
7469,-5.00,91.81,-0.19,-1.06,-3.25,-8.25,0.51,-0.43,-0.17,0.00,0.00,1.29
7480,-4.94,91.81,-0.12,-0.06,-1.50,-8.06,0.83,-0.31,-0.19,0.00,0.00,1.30
7495,-4.81,91.81,0.00,0.19,-0.88,-7.31,0.85,-0.30,-0.21,0.00,0.00,1.24
7505,-4.75,91.81,0.06,0.44,-0.19,-6.06,0.76,-0.17,-0.16,0.00,0.00,1.27
7555,-4.69,91.81,0.19,0.06,3.31,2.31,0.80,-0.12,-0.12,0.00,0.00,1.32
7565,-4.69,91.81,0.19,-0.25,4.25,3.62,0.63,-0.23,-0.13,0.00,0.00,1.29
7584,-4.62,91.81,0.31,-0.25,5.19,4.69,0.65,-0.29,-0.15,0.00,0.00,1.31
7598,-4.75,91.81,0.31,0.25,7.25,5.69,0.48,-0.31,-0.11,0.00,0.00,1.19
7609,-4.81,91.81,0.38,0.69,8.00,5.88,0.54,-0.22,-0.03,0.00,0.00,1.15
7622,-4.88,91.81,0.38,1.00,9.88,5.38,0.65,-0.14,0.00,0.00,0.00,1.22
7633,-4.81,91.81,0.62,1.00,11.25,4.75,0.53,-0.18,-0.07,0.00,0.00,1.28
7643,-4.81,91.81,0.81,1.06,12.38,4.25,0.66,-0.18,-0.01,0.00,0.00,1.29
7654,-4.75,91.81,1.00,1.19,13.25,3.44,0.65,-0.15,-0.04,0.00,0.00,1.27
7666,-4.69,91.81,1.19,1.44,15.75,2.62,0.57,-0.13,-0.03,0.00,0.00,1.37
7677,-4.62,91.81,1.38,1.44,15.75,2.62,0.77,-0.16,-0.05,0.00,0.00,1.31
7691,-4.56,91.81,1.62,1.44,17.06,2.19,0.69,-0.16,-0.07,0.00,0.00,1.70
7702,-4.50,91.88,1.88,1.81,20.44,1.69,0.63,-0.24,-0.11,0.00,0.00,1.85
7713,-4.38,91.88,2.44,2.06,21.50,1.62,0.57,-0.26,-0.14,0.00,0.00,1.73
7747,-4.25,91.88,3.25,2.69,24.44,1.06,0.58,-0.01,-0.10,0.00,0.00,1.13
7758,-4.19,91.88,3.56,2.62,25.56,0.75,0.58,0.06,-0.04,0.00,0.00,1.10
7768,-4.19,91.88,3.81,2.44,26.50,1.00,0.63,0.09,0.00,0.00,0.00,0.94
7781,-4.19,91.88,4.12,2.12,27.62,0.88,0.67,0.10,-0.01,0.00,0.00,0.90
7791,-4.19,91.88,4.38,1.56,30.06,1.00,0.65,-0.07,-0.01,0.00,0.00,0.74
7802,-4.19,91.88,4.69,1.44,31.06,1.00,0.60,-0.22,-0.02,0.00,0.00,0.73
7812,-4.12,91.88,5.06,1.88,31.94,1.19,0.56,-0.33,-0.07,0.00,0.00,0.75
7823,-4.12,91.88,5.38,1.88,31.94,1.19,0.48,-0.47,-0.11,0.00,0.00,0.76
7833,-4.12,91.88,6.00,2.81,33.56,1.06,0.40,-0.51,-0.15,0.00,0.00,0.83
7844,-4.12,91.88,6.00,3.38,34.50,0.75,0.36,-0.44,-0.07,0.00,0.00,0.79
7853,-4.06,91.88,6.69,3.88,35.50,0.50,0.32,-0.34,-0.08,0.00,0.00,0.84
7862,-4.06,91.88,6.69,4.19,36.19,0.00,0.28,-0.15,-0.03,0.00,0.00,0.84
7871,-4.06,91.88,7.06,4.19,36.19,0.00,0.27,-0.01,0.00,0.00,0.00,0.95
7881,-4.06,91.88,7.44,4.00,37.69,-0.88,0.23,0.08,0.01,0.00,0.00,1.23
7890,-4.00,91.81,7.81,3.69,38.44,-1.12,0.21,0.11,0.00,0.00,0.00,1.52
7922,-3.94,91.81,9.06,3.31,40.00,-2.31,0.01,-0.19,-0.10,0.00,0.00,1.47
7931,-3.94,91.81,9.50,3.44,40.31,-2.75,-0.01,-0.27,-0.17,0.00,0.00,1.46
7941,-3.88,91.81,9.94,3.44,40.31,-2.75,-0.11,-0.30,-0.18,0.00,0.00,1.47
7953,-3.81,91.81,10.38,3.56,41.00,-3.31,-0.12,-0.24,-0.16,0.00,0.00,1.46
7961,-3.81,91.75,10.81,3.88,41.12,-3.62,-0.07,-0.16,-0.18,0.00,0.00,1.46
7973,-3.75,91.75,11.25,4.06,41.25,-4.00,-0.07,-0.16,-0.18,0.00,0.00,1.39
7983,-3.69,91.75,11.69,3.88,41.69,-4.06,-0.13,0.03,-0.12,0.00,0.00,1.09
7992,-3.62,91.75,12.19,3.62,41.69,-3.75,-0.08,0.08,-0.09,0.00,0.00,0.24
8003,-3.56,91.75,12.62,3.44,41.88,-3.44,-0.09,0.03,-0.09,0.00,0.00,0.23
8012,-3.56,91.75,13.06,3.44,41.88,-3.44,-0.09,0.03,-0.09,0.00,0.00,0.13
8021,-3.50,91.75,13.50,3.06,42.00,-3.19,-0.17,-0.08,-0.12,0.00,0.00,0.15
8036,-3.44,91.75,13.94,2.81,42.06,-3.00,-0.17,-0.13,-0.18,0.00,0.00,0.30
8044,-3.44,91.75,14.81,2.88,41.75,-2.31,-0.24,-0.21,-0.15,0.00,0.00,0.29
8054,-3.44,91.75,14.81,3.12,41.44,-1.88,-0.22,-0.32,-0.17,0.00,0.00,0.51
8085,-3.38,91.75,16.50,4.00,41.06,-0.88,-0.35,-0.30,-0.21,0.00,0.00,0.34
8093,-3.38,91.75,16.88,4.00,40.88,-0.56,-0.30,-0.12,-0.15,0.00,0.00,0.38
8102,-3.38,91.75,16.88,4.06,40.62,0.00,-0.35,-0.03,-0.13,0.00,0.00,0.27
8110,-3.38,91.75,17.31,4.06,40.62,0.00,-0.35,-0.03,-0.13,0.00,0.00,0.37
8119,-3.31,91.69,17.69,3.88,40.31,0.56,-0.34,0.05,-0.11,0.00,0.00,0.40
8131,-3.31,91.69,18.06,3.56,40.06,1.19,-0.31,0.07,-0.14,0.00,0.00,1.20
8144,-3.38,91.69,18.44,3.19,39.69,1.69,-0.40,-0.01,-0.19,0.00,0.00,1.49
8154,-3.38,91.69,18.81,3.25,38.88,2.75,-0.44,-0.25,-0.25,0.00,0.00,1.50
8166,-3.38,91.69,19.19,3.25,38.88,2.75,-0.44,-0.25,-0.25,0.00,0.00,1.50
8174,-3.44,91.69,19.50,3.56,38.12,3.56,-0.47,-0.28,-0.29,0.00,0.00,1.53
8186,-3.50,91.69,19.81,3.88,37.75,3.94,-0.48,-0.18,-0.31,0.00,0.00,1.65
8194,-3.62,91.69,20.44,4.06,37.00,4.31,-0.47,-0.12,-0.26,0.00,0.00,1.58
8205,-3.62,91.69,20.44,3.81,36.44,4.69,-0.45,-0.04,-0.22,0.00,0.00,1.63
8213,-3.69,91.69,20.69,3.81,36.44,4.69,-0.51,0.07,-0.15,0.00,0.00,1.45
8247,-4.00,91.75,21.75,2.94,34.19,4.81,-0.61,-0.01,-0.16,0.00,0.00,1.40
8256,-4.06,91.75,22.00,2.94,34.00,4.56,-0.63,-0.18,-0.18,0.00,0.00,0.71
8266,-4.06,91.75,22.00,3.00,33.50,3.94,-0.65,-0.20,-0.19,0.00,0.00,0.64
8275,-4.19,91.75,22.25,2.94,33.19,3.31,-0.57,-0.14,-0.17,0.00,0.00,0.85
8288,-4.25,91.75,22.50,2.88,32.62,2.94,-0.46,-0.09,-0.14,0.00,0.00,0.52
8298,-4.38,91.75,23.00,2.94,32.12,2.81,-0.35,-0.02,-0.13,0.00,0.00,0.67
8310,-4.38,91.75,23.25,2.81,31.81,2.69,-0.21,0.00,-0.10,0.00,0.00,1.42
8319,-4.44,91.75,23.56,2.81,31.38,3.06,-0.14,-0.03,-0.10,0.00,0.00,1.54
8330,-4.44,91.75,23.88,2.75,31.12,3.25,-0.15,-0.09,-0.12,0.00,0.00,1.57
8342,-4.44,91.75,24.12,2.75,30.81,3.75,-0.07,-0.25,-0.14,0.00,0.00,1.55
8356,-4.50,91.75,24.38,3.00,30.31,4.19,-0.04,-0.29,-0.16,0.00,0.00,1.55
8365,-4.50,91.75,24.62,3.31,30.31,4.69,-0.14,-0.25,-0.12,0.00,0.00,1.57
8376,-4.56,91.75,24.88,3.38,30.06,4.81,-0.14,-0.25,-0.12,0.00,0.00,1.56
8386,-4.62,91.75,25.12,3.56,29.75,4.50,-0.20,-0.08,-0.14,0.00,0.00,1.56
8418,-4.75,91.69,26.19,3.19,29.62,2.88,-0.22,0.00,-0.10,0.00,0.00,1.56
8428,-4.75,91.69,26.44,3.00,29.81,2.31,-0.23,-0.03,-0.09,0.00,0.00,1.58
8438,-4.81,91.69,26.69,2.94,29.69,1.56,-0.29,-0.07,-0.14,0.00,0.00,1.56
8448,-4.81,91.69,27.00,2.56,29.38,0.94,-0.23,0.00,-0.08,0.00,0.00,1.60
8459,-4.81,91.75,27.25,2.31,29.06,0.38,-0.21,-0.01,-0.03,0.00,0.00,1.58
8469,-4.81,91.75,27.56,2.19,29.19,-0.31,-0.25,0.02,-0.07,0.00,0.00,1.59
8481,-4.81,91.75,27.81,1.88,28.75,-0.56,-0.23,0.00,-0.07,0.00,0.00,1.57
8491,-4.81,91.75,28.12,1.81,28.81,-1.00,-0.24,-0.14,-0.15,0.00,0.00,1.60
8502,-4.75,91.75,28.38,1.88,28.56,-1.38,-0.28,-0.23,-0.15,0.00,0.00,1.63
8512,-4.75,91.75,28.69,2.12,28.38,-1.56,-0.21,-0.30,-0.17,0.00,0.00,1.71
8523,-4.75,91.75,29.00,2.31,27.69,-1.56,-0.15,-0.31,-0.13,0.00,0.00,1.74
8535,-4.69,91.75,29.25,2.31,27.62,-1.50,-0.20,-0.16,-0.11,0.00,0.00,1.82
8551,-4.69,91.75,29.56,2.44,27.25,-1.31,-0.11,0.02,-0.08,0.00,0.00,1.38
8561,-4.69,91.75,30.12,2.25,26.75,-1.19,-0.19,0.04,-0.05,0.00,0.00,0.66
8597,-4.62,91.75,30.88,1.75,25.69,-1.00,-0.37,-0.19,-0.11,0.00,0.00,2.15
8607,-4.62,91.81,31.12,1.88,24.75,-1.00,-0.31,-0.13,-0.10,0.00,0.00,2.19
8616,-4.62,91.81,31.38,1.88,24.75,-1.00,-0.23,0.00,-0.06,0.00,0.00,2.21
8625,-4.62,91.81,31.62,1.88,24.06,-0.81,-0.23,0.00,-0.06,0.00,0.00,2.19
8636,-4.62,91.81,31.81,1.62,23.69,-0.50,-0.12,-0.03,-0.05,0.00,0.00,2.21
8647,-4.62,91.81,32.06,1.56,23.56,-0.12,0.02,-0.12,-0.05,0.00,0.00,2.22
8662,-4.62,91.81,32.31,1.44,23.38,0.38,0.00,-0.27,-0.10,0.00,0.00,2.20
8671,-4.62,91.81,32.75,1.75,23.06,1.56,-0.07,-0.43,-0.18,0.00,0.00,2.24
8680,-4.62,91.81,32.94,2.12,22.81,1.88,-0.21,-0.55,-0.25,0.00,0.00,2.27
8689,-4.69,91.81,33.19,2.75,22.38,2.12,-0.22,-0.44,-0.21,0.00,0.00,2.26
8698,-4.69,91.81,33.19,3.31,22.25,2.31,-0.18,-0.31,-0.17,0.00,0.00,2.25
8708,-4.69,91.81,33.38,3.19,21.81,2.56,-0.18,-0.21,-0.16,0.00,0.00,2.26
8717,-4.69,91.81,33.56,3.19,21.81,2.56,-0.15,0.26,-0.03,0.00,0.00,2.26
8731,-4.75,91.75,33.75,3.25,21.50,2.88,-0.15,0.26,-0.03,0.00,0.00,2.29
8763,-4.81,91.75,34.50,1.44,20.44,2.62,-0.38,-0.16,-0.13,0.00,0.00,2.26
8772,-4.81,91.75,34.62,1.38,20.00,2.06,-0.52,-0.26,-0.19,0.00,0.00,2.25
8786,-4.81,91.75,34.81,1.38,19.50,1.62,-0.50,-0.28,-0.17,0.00,0.00,2.16
8800,-4.81,91.75,35.00,1.56,18.88,1.19,-0.38,-0.27,-0.15,0.00,0.00,1.65
8813,-4.88,91.75,35.19,1.62,17.88,0.62,-0.40,-0.05,-0.10,0.00,0.00,0.17
8823,-4.88,91.75,35.50,1.38,17.19,0.38,-0.31,0.00,-0.08,0.00,0.00,0.14
8836,-4.88,91.75,35.62,1.38,17.00,0.00,-0.37,0.00,-0.08,0.00,0.00,0.07
8851,-4.94,91.81,35.75,1.25,16.19,-0.12,-0.43,-0.06,-0.08,0.00,0.00,0.22
8861,-4.94,91.81,36.00,0.88,15.44,-0.50,-0.40,-0.05,-0.01,0.00,0.00,0.08
8870,-4.94,91.81,36.00,0.75,14.56,-0.56,-0.45,-0.06,-0.04,0.00,0.00,0.05
8880,-5.00,91.81,36.12,0.75,14.56,-0.56,-0.49,-0.10,-0.10,0.00,0.00,0.13
8890,-5.00,91.81,36.25,0.56,12.94,-0.88,-0.53,-0.09,-0.09,0.00,0.00,0.18
8900,-5.06,91.81,36.31,0.50,12.25,-1.12,-0.62,-0.17,-0.12,0.00,0.00,0.05
8911,-5.12,91.88,36.38,0.69,11.31,-1.44,-0.66,-0.17,-0.09,0.00,0.00,0.08
8943,-5.25,91.94,36.62,0.06,8.38,-1.44,-0.52,0.00,0.01,0.00,0.00,0.04
8954,-5.31,91.94,36.62,-0.31,7.44,-0.88,-0.41,-0.02,0.03,0.00,0.00,0.05
8963,-5.38,91.94,36.69,-0.44,6.38,-0.50,-0.45,0.03,0.04,0.00,0.00,0.19
8972,-5.38,91.94,36.69,-0.56,5.75,-0.12,-0.45,0.00,0.03,0.00,0.00,0.10
8982,-5.44,91.94,36.69,-0.75,4.69,0.06,-0.41,-0.19,-0.01,0.00,0.00,0.10
8991,-5.44,91.94,36.69,-0.62,3.69,0.50,-0.48,-0.29,0.01,0.00,0.00,0.08
9001,-5.44,91.94,36.69,-0.31,2.62,0.62,-0.49,-0.45,0.00,0.00,0.00,0.09
9011,-5.50,91.94,36.69,-0.06,1.50,0.75,-0.46,-0.43,0.01,0.00,0.00,0.05
9023,-5.50,91.94,36.69,0.12,0.88,0.94,-0.54,-0.26,0.09,0.00,0.00,0.12
9032,-5.50,91.94,36.69,0.12,0.00,0.69,-0.41,-0.04,0.13,0.00,0.00,0.05
9042,-5.56,91.94,36.62,0.12,-0.75,0.88,-0.40,-0.02,0.11,0.00,0.00,0.12
9052,-5.56,91.94,36.62,0.00,-1.56,0.75,-0.45,0.00,0.09,0.00,0.00,0.09
9062,-5.56,91.94,36.62,-0.25,-2.50,0.81,-0.46,-0.02,0.09,0.00,0.00,0.07
9071,-5.56,91.94,36.56,-0.25,-2.50,0.81,-0.54,-0.06,0.06,0.00,0.00,0.05
9103,-5.62,91.88,36.31,-0.38,-5.94,0.44,-0.41,-0.06,0.07,0.00,0.00,0.09
9113,-5.69,91.88,36.19,-0.62,-6.69,0.31,-0.42,0.02,0.11,0.00,0.00,0.10
9123,-5.75,91.88,36.06,-0.94,-7.62,0.38,-0.38,0.06,0.10,0.00,0.00,0.09
9132,-5.75,91.88,35.94,-1.38,-8.25,0.50,-0.36,0.04,0.05,0.00,0.00,0.08
9143,-5.75,91.88,35.94,-1.44,-9.31,0.50,-0.40,-0.05,0.04,0.00,0.00,0.07
9152,-5.88,91.88,35.69,-1.44,-10.19,0.50,-0.53,-0.24,-0.03,0.00,0.00,0.07
9162,-5.88,91.88,35.69,-1.25,-11.12,0.25,-0.49,-0.28,-0.05,0.00,0.00,0.10
9172,-5.88,91.88,35.56,-1.12,-11.94,0.38,-0.50,-0.26,-0.03,0.00,0.00,0.13
9181,-5.94,91.88,35.38,-1.12,-11.94,0.38,-0.54,-0.16,0.00,0.00,0.00,0.17
9191,-6.00,91.88,35.19,-0.88,-13.00,0.50,-0.55,-0.12,0.00,0.00,0.00,0.14
9202,-6.06,91.88,35.00,-1.25,-15.31,0.50,-0.52,0.05,0.05,0.00,0.00,0.30
9219,-6.12,91.88,34.81,-1.56,-16.38,0.75,-0.62,0.10,0.08,0.00,0.00,1.44
9231,-6.25,91.88,34.25,-1.94,-17.62,0.75,-0.71,0.02,0.04,0.00,0.00,1.92
9244,-6.31,91.88,34.06,-2.25,-19.12,0.56,-1.05,-0.17,-0.05,0.00,0.00,2.05
9279,-6.31,91.88,33.19,-2.25,-26.31,-1.31,-1.11,-0.15,-0.15,0.00,0.00,2.10
9292,-6.31,91.88,32.88,-2.38,-28.56,-1.06,-1.04,0.04,-0.13,0.00,0.00,2.08
9306,-6.31,91.81,32.56,-3.12,-32.88,0.50,-0.91,0.39,0.02,0.00,0.00,2.07
9316,-6.31,91.81,31.88,-4.06,-35.56,1.62,-1.03,0.22,0.05,0.00,0.00,2.10
9328,-6.38,91.81,31.44,-4.81,-37.94,2.50,-1.15,-0.36,-0.08,0.00,0.00,1.97
9340,-6.44,91.88,31.00,-4.94,-40.31,3.19,-1.10,-0.32,-0.16,0.00,0.00,1.97
9353,-6.44,91.88,30.56,-4.88,-42.62,3.50,-1.27,-0.69,-0.28,0.00,0.00,0.77
9364,-6.50,91.81,30.06,-3.81,-47.69,3.38,-1.18,-0.56,-0.34,0.00,0.00,1.53
9374,-6.56,91.81,29.56,-3.19,-49.81,3.12,-1.17,-0.42,-0.28,0.00,0.00,1.81
9384,-6.62,91.81,29.06,-3.00,-52.12,2.88,-1.13,-0.03,-0.25,0.00,0.00,1.66
9395,-6.62,91.75,28.50,-3.06,-54.12,2.44,-1.03,-0.03,-0.26,0.00,0.00,1.59
9405,-6.75,91.69,27.31,-3.50,-56.12,1.94,-1.02,0.25,-0.19,0.00,0.00,1.63
9416,-6.75,91.69,27.31,-4.38,-58.19,1.50,-1.02,0.52,-0.12,0.00,0.00,1.57
9425,-6.81,91.69,26.12,-5.50,-60.06,1.19,-1.01,0.29,-0.25,0.00,0.00,1.59
9459,-6.81,91.62,24.25,-7.94,-65.75,-1.19,-1.04,0.22,-0.40,0.00,0.00,1.51
9468,-6.81,91.69,23.56,-8.25,-67.50,-2.25,-1.07,-0.26,-0.60,0.00,0.00,1.55
9477,-6.81,91.62,22.88,-8.06,-69.38,-3.31,-1.02,-0.39,-0.62,0.00,0.00,0.70
9486,-6.81,91.62,22.25,-7.50,-71.06,-4.62,-1.05,-0.35,-0.62,0.00,0.00,0.85
9499,-6.75,91.62,21.56,-7.31,-72.88,-5.75,-1.03,-0.37,-0.68,0.00,0.00,1.45
9511,-6.69,91.62,20.88,-6.81,-74.50,-6.81,-0.85,0.00,-0.63,0.00,0.00,1.24
9519,-6.69,91.56,20.19,-6.88,-76.19,-7.81,-0.77,0.31,-0.60,0.00,0.00,1.62
9528,-6.62,91.56,19.50,-7.31,-77.88,-8.25,-0.73,0.37,-0.59,0.00,0.00,1.58
9536,-6.56,91.56,18.81,-7.75,-79.12,-9.00,-0.72,0.43,-0.64,0.00,0.00,1.49
9545,-6.44,91.56,18.06,-8.44,-80.50,-9.19,-0.48,0.44,-0.69,0.00,0.00,1.50
9554,-6.44,91.56,18.06,-9.00,-81.94,-9.19,-0.56,0.22,-0.76,0.00,0.00,0.72
9564,-6.38,91.56,17.38,-9.38,-83.38,-9.31,-0.59,-0.04,-0.83,0.00,0.00,0.37
9572,-6.31,91.56,16.62,-9.38,-83.38,-9.31,-0.59,-0.04,-0.83,0.00,0.00,0.35
9605,-6.12,91.56,14.31,-8.25,-88.25,-8.62,-0.35,-0.44,-1.08,0.00,0.00,0.22
9616,-6.06,91.50,13.50,-7.69,-89.25,-8.06,-0.14,-0.09,-1.04,0.00,0.00,1.02
9624,-6.00,91.50,12.69,-7.69,-89.25,-8.06,-0.19,-0.04,-0.98,0.00,0.00,1.47
9633,-6.00,91.50,11.88,-7.12,-90.12,-7.56,-0.19,-0.04,-0.98,0.00,0.00,1.47
9644,-5.94,91.44,11.00,-6.81,-91.06,-6.81,0.00,0.18,-0.96,0.00,0.00,1.49
9655,-5.88,91.44,10.19,-7.00,-91.94,-6.06,0.01,0.25,-0.95,0.00,0.00,1.51
9665,-5.88,91.44,9.31,-7.44,-92.69,-5.38,0.00,0.21,-0.96,0.00,0.00,0.89
9675,-5.81,91.38,8.38,-7.88,-93.19,-4.44,0.00,0.21,-0.96,0.00,0.00,0.85
9685,-5.81,91.38,7.50,-8.50,-93.75,-3.94,0.15,0.13,-1.01,0.00,0.00,0.77
9696,-5.81,91.38,6.62,-9.06,-94.75,-2.44,0.06,-0.08,-1.12,0.00,0.00,0.90
9707,-5.81,91.44,5.69,-9.12,-95.25,-1.75,0.10,-0.20,-1.13,0.00,0.00,1.10
9718,-5.81,91.44,3.81,-9.00,-95.50,-1.62,0.16,-0.28,-1.13,0.00,0.00,1.66
9730,-5.81,91.44,2.88,-8.81,-95.69,-1.56,0.14,-0.23,-1.17,0.00,0.00,1.27
9742,-5.81,91.44,1.94,-8.44,-96.00,-1.25,0.14,-0.12,-1.12,0.00,0.00,1.27
9778,-5.88,91.44,-0.88,-8.50,-95.56,-2.00,0.25,0.19,-1.06,0.00,0.00,1.55
9789,-5.88,91.44,-2.69,-9.38,-95.00,-3.19,0.37,0.23,-1.00,0.00,0.00,1.56
9802,-5.81,91.44,-3.62,-9.69,-94.75,-3.69,0.36,0.15,-1.05,0.00,0.00,1.76
9813,-5.81,91.44,-4.50,-10.06,-94.06,-4.50,0.33,0.04,-1.04,0.00,0.00,2.01
9822,-5.75,91.50,-5.38,-10.12,-93.75,-5.19,0.44,-0.08,-1.05,0.00,0.00,2.20
9830,-5.75,91.50,-6.25,-9.94,-93.25,-6.00,0.46,-0.17,-1.08,0.00,0.00,2.25
9839,-5.69,91.50,-7.12,-9.75,-92.50,-6.75,0.46,-0.19,-1.10,0.00,0.00,2.28
9846,-5.62,91.50,-7.94,-9.44,-91.56,-7.56,0.47,-0.22,-1.10,0.00,0.00,2.23
9857,-5.62,91.50,-7.94,-8.81,-91.00,-8.25,0.63,-0.21,-1.06,0.00,0.00,1.66
9867,-5.56,91.50,-8.81,-8.44,-90.00,-8.75,0.64,-0.19,-1.04,0.00,0.00,1.69
9877,-5.50,91.50,-9.62,-8.44,-90.00,-8.75,0.61,-0.14,-0.98,0.00,0.00,2.35
9885,-5.44,91.56,-10.38,-8.12,-89.38,-9.12,0.84,-0.03,-0.93,0.00,0.00,2.35
9897,-5.31,91.56,-11.12,-7.62,-88.25,-9.75,0.86,0.01,-0.93,0.00,0.00,2.35
9906,-5.25,91.56,-11.94,-7.50,-85.81,-10.12,0.88,0.04,-0.89,0.00,0.00,2.35
9938,-5.06,91.56,-14.19,-7.56,-82.44,-9.88,1.08,-0.01,-0.83,0.00,0.00,2.27
9947,-4.94,91.56,-14.88,-7.44,-80.94,-9.38,1.10,-0.08,-0.82,0.00,0.00,2.34
9958,-4.88,91.56,-15.62,-7.44,-80.94,-9.38,1.17,-0.14,-0.78,0.00,0.00,2.33
9967,-4.81,91.56,-16.31,-6.81,-78.38,-8.25,1.25,-0.25,-0.76,0.00,0.00,2.34
9974,-4.75,91.56,-17.00,-6.81,-78.38,-8.25,1.25,-0.25,-0.76,0.00,0.00,2.31
9989,-4.69,91.56,-17.75,-6.50,-76.56,-7.44,1.24,-0.20,-0.71,0.00,0.00,1.30
10002,-4.44,91.62,-18.88,-5.88,-73.56,-5.81,1.34,-0.04,-0.64,0.00,0.00,1.24
10014,-4.25,91.75,-19.38,-5.69,-72.06,-4.75,1.31,0.11,-0.53,0.00,0.00,1.13
10026,-4.25,91.75,-20.06,-6.00,-70.38,-3.88,1.33,0.20,-0.47,0.00,0.00,1.12
10037,-4.25,91.75,-20.69,-6.00,-68.50,-3.06,1.37,0.22,-0.42,0.00,0.00,1.05
10052,-4.25,91.75,-21.38,-6.00,-66.69,-2.31,1.38,0.04,-0.41,0.00,0.00,0.86
10060,-4.25,91.81,-22.62,-6.19,-62.56,-1.12,1.39,0.00,-0.40,0.00,0.00,0.27
10071,-4.06,91.88,-23.00,-6.50,-61.00,-0.25,1.38,-0.05,-0.36,0.00,0.00,0.48
10103,-3.44,92.12,-24.06,-5.62,-54.56,1.06,1.28,-0.11,-0.26,0.00,0.00,0.34
10115,-3.25,92.19,-24.38,-5.38,-52.56,1.12,1.24,-0.12,-0.22,0.00,0.00,0.38
10123,-3.12,92.25,-24.69,-5.06,-50.44,1.31,1.19,-0.09,-0.19,0.00,0.00,0.29
10135,-2.94,92.25,-24.94,-4.81,-48.12,1.25,1.16,0.00,-0.08,0.00,0.00,0.30
10143,-2.75,92.31,-25.25,-4.94,-46.00,1.00,1.11,-0.01,-0.08,0.00,0.00,0.20
10154,-2.56,92.38,-25.50,-4.75,-43.75,0.75,1.07,-0.05,-0.10,0.00,0.00,0.14
10163,-2.38,92.44,-25.69,-4.50,-41.38,0.38,1.05,-0.06,-0.05,0.00,0.00,0.10
10173,-2.25,92.44,-25.88,-4.25,-39.12,-0.06,1.04,-0.11,-0.04,0.00,0.00,0.17
10182,-2.06,92.50,-26.06,-4.12,-36.75,-0.50,0.99,-0.20,0.00,0.00,0.00,0.17
10192,-1.88,92.50,-26.25,-3.56,-34.50,-1.06,0.98,-0.24,-0.02,0.00,0.00,0.24
10201,-1.75,92.50,-26.38,-3.25,-32.06,-1.44,0.98,-0.20,-0.03,0.00,0.00,0.34
10211,-1.56,92.56,-26.50,-2.75,-29.75,-2.06,0.97,-0.23,0.00,0.00,0.00,0.61
10221,-1.38,92.56,-26.56,-2.25,-27.31,-2.44,0.97,-0.22,0.03,0.00,0.00,0.76
10232,-1.19,92.56,-26.62,-1.81,-24.81,-2.94,0.96,-0.17,0.04,0.00,0.00,0.83
10269,-0.62,92.56,-26.62,-0.94,-17.69,-3.94,0.93,-0.07,0.10,0.00,0.00,0.91
10280,-0.44,92.50,-26.56,-0.56,-14.81,-4.12,0.90,-0.05,0.12,0.00,0.00,0.97
10290,-0.25,92.50,-26.44,-0.50,-12.50,-4.00,0.94,-0.07,0.12,0.00,0.00,0.88
10301,0.00,92.50,-26.38,0.00,-7.56,-4.12,0.90,-0.04,0.10,0.00,0.00,0.83
10312,0.12,92.44,-26.25,0.31,-5.12,-3.81,0.89,-0.05,0.12,0.00,0.00,0.86
10322,0.50,92.44,-25.94,0.50,-2.62,-3.50,0.88,-0.06,0.12,0.00,0.00,0.87
10333,0.69,92.38,-25.75,0.56,-0.25,-2.94,0.89,-0.05,0.12,0.00,0.00,0.85
10344,0.81,92.38,-25.50,1.06,2.38,-2.50,0.90,-0.02,0.14,0.00,0.00,0.88
10354,1.00,92.31,-25.31,1.19,4.69,-1.81,0.85,0.01,0.10,0.00,0.00,0.83
10366,1.19,92.31,-25.06,1.38,7.12,-1.12,0.82,-0.03,0.11,0.00,0.00,0.82
10376,1.31,92.25,-24.81,1.50,9.69,-0.62,0.81,0.00,0.12,0.00,0.00,0.75
10387,1.44,92.25,-24.56,1.56,11.94,0.31,0.78,0.02,0.08,0.00,0.00,0.48
10396,1.56,92.19,-24.31,1.62,14.56,0.94,0.75,0.00,0.07,0.00,0.00,0.35
10404,1.69,92.19,-24.00,1.62,16.88,1.62,0.71,0.03,0.05,0.00,0.00,0.15
10436,1.88,92.06,-23.19,2.00,24.31,3.50,0.59,-0.03,0.00,0.00,0.00,0.18
10445,1.94,92.06,-22.88,2.19,26.62,4.19,0.58,-0.06,-0.03,0.00,0.00,0.23
10453,1.94,92.00,-22.56,2.25,28.88,4.75,0.51,-0.07,-0.08,0.00,0.00,0.18
10464,1.94,92.00,-22.25,2.62,31.19,5.12,0.50,-0.10,-0.10,0.00,0.00,0.34
10472,1.94,91.94,-21.94,2.88,33.44,5.56,0.46,-0.11,-0.13,0.00,0.00,0.35
10483,1.94,91.94,-21.94,2.88,33.44,5.56,0.41,-0.05,-0.12,0.00,0.00,0.37
10491,1.94,91.94,-21.62,3.50,37.94,5.94,0.36,-0.05,-0.18,0.00,0.00,0.37
10503,1.94,91.88,-21.25,3.81,40.50,5.94,0.36,-0.03,-0.22,0.00,0.00,0.38
10511,1.88,91.81,-20.88,3.94,42.56,5.69,0.29,-0.01,-0.22,0.00,0.00,0.38
10520,1.88,91.81,-20.50,3.94,42.56,5.69,0.23,-0.02,-0.26,0.00,0.00,0.50
10531,1.88,91.75,-20.06,4.00,44.56,5.62,0.23,-0.02,-0.26,0.00,0.00,0.28
10541,1.81,91.75,-19.69,4.38,46.56,5.38,0.24,-0.06,-0.30,0.00,0.00,1.06
10556,1.81,91.69,-19.19,4.62,49.06,5.06,0.15,-0.13,-0.37,0.00,0.00,1.08
10566,1.75,91.62,-18.25,5.31,53.25,4.31,0.13,-0.15,-0.42,0.00,0.00,1.14
10601,1.75,91.44,-16.62,6.19,59.00,3.12,0.06,-0.06,-0.51,0.00,0.00,1.16
10615,1.75,91.44,-16.00,6.44,60.69,2.75,0.05,-0.01,-0.55,0.00,0.00,1.53
10623,1.75,91.31,-14.81,6.75,64.50,2.00,0.04,0.02,-0.53,0.00,0.00,2.32
10631,1.75,91.31,-14.81,6.81,66.31,1.88,0.00,0.05,-0.61,0.00,0.00,2.34
10640,1.75,91.25,-14.19,6.81,66.31,1.88,0.00,0.05,-0.61,0.00,0.00,2.33
10648,1.75,91.25,-13.50,7.06,67.94,1.62,-0.02,0.02,-0.64,0.00,0.00,2.34
10659,1.75,91.19,-12.81,7.00,69.75,1.69,0.01,0.01,-0.70,0.00,0.00,2.30
10668,1.75,91.12,-12.12,7.19,71.44,1.56,-0.01,0.02,-0.71,0.00,0.00,2.32
10675,1.75,91.12,-11.44,6.81,72.56,1.81,-0.04,-0.01,-0.74,0.00,0.00,2.26
10683,1.69,91.06,-10.75,7.25,74.31,2.19,-0.04,-0.01,-0.75,0.00,0.00,2.32
10695,1.69,91.06,-10.75,7.25,74.31,2.19,-0.04,-0.01,-0.75,0.00,0.00,2.34
10703,1.69,91.00,-9.31,7.31,76.88,2.75,-0.07,0.03,-0.83,0.00,0.00,2.36
10711,1.69,91.00,-9.31,7.31,76.88,2.75,-0.09,0.04,-0.88,0.00,0.00,2.36
10722,1.69,90.94,-8.56,7.19,78.19,3.38,-0.11,0.08,-0.90,0.00,0.00,2.35
10753,1.56,90.81,-6.38,7.38,83.06,5.62,-0.24,0.02,-1.01,0.00,0.00,2.21
10764,1.50,90.81,-5.62,7.38,83.06,5.62,-0.28,0.04,-1.01,0.00,0.00,2.28
10773,1.44,90.81,-4.88,7.38,84.81,6.81,-0.31,0.02,-1.03,0.00,0.00,2.27
10780,1.38,90.75,-4.12,7.38,84.81,6.81,-0.31,0.02,-1.03,0.00,0.00,2.20
10789,1.25,90.75,-3.38,7.31,85.88,7.44,-0.38,0.00,-1.10,0.00,0.00,2.13
10798,1.19,90.75,-2.62,7.31,86.50,8.06,-0.42,-0.01,-1.12,0.00,0.00,2.00
10808,1.06,90.75,-1.88,7.56,87.00,8.56,-0.44,0.00,-1.13,0.00,0.00,1.81
10821,0.94,90.75,-1.12,7.69,87.69,8.94,-0.49,0.00,-1.13,0.00,0.00,1.54
10832,0.88,90.62,-0.38,7.88,88.50,9.12,-0.59,0.00,-1.14,0.00,0.00,1.60
10843,0.81,90.56,0.44,7.88,88.81,9.25,-0.64,0.00,-1.16,0.00,0.00,1.37
10855,0.75,90.44,1.19,8.12,89.19,9.44,-0.71,0.01,-1.23,0.00,0.00,1.31
10866,0.62,90.38,2.00,8.31,89.94,9.12,-0.80,0.00,-1.22,0.00,0.00,1.21
10877,0.56,90.25,2.75,8.38,90.00,9.00,-0.83,0.00,-1.25,0.00,0.00,1.30
10888,0.38,90.12,4.31,8.50,90.38,8.56,-0.87,0.03,-1.26,0.00,0.00,1.76
10923,0.19,89.81,6.75,8.69,90.56,7.19,-1.03,0.04,-1.28,0.00,0.00,0.74
10932,0.12,89.75,7.56,8.69,90.25,6.31,-1.05,0.05,-1.30,0.00,0.00,0.80
10943,0.06,89.69,8.38,8.62,90.25,5.81,-1.09,0.05,-1.29,0.00,0.00,0.90
10953,-0.06,89.75,9.06,8.69,90.19,5.06,-1.15,0.06,-1.27,0.00,0.00,1.48
10964,-0.25,89.81,9.75,8.56,89.56,4.44,-1.12,0.05,-1.24,0.00,0.00,1.42
10974,-0.38,89.88,10.44,8.75,89.38,3.81,-1.12,0.07,-1.19,0.00,0.00,1.47
10983,-0.56,89.94,11.19,8.44,88.81,3.38,-1.12,0.07,-1.19,0.00,0.00,1.46
10992,-0.69,90.00,11.88,8.44,88.12,2.75,-1.16,0.10,-1.17,0.00,0.00,1.39
11001,-0.88,90.06,12.56,8.19,87.62,2.31,-1.16,0.10,-1.13,0.00,0.00,0.20
11010,-1.00,90.12,13.25,8.19,87.00,1.94,-1.14,0.10,-1.13,0.00,0.00,0.18
11021,-1.19,90.19,13.94,7.81,86.31,1.75,-1.12,0.09,-1.09,0.00,0.00,0.25
11029,-1.31,90.25,14.62,7.75,85.44,1.50,-1.15,0.07,-1.03,0.00,0.00,0.52
11040,-1.44,90.31,15.31,7.56,84.62,1.38,-1.13,0.04,-1.02,0.00,0.00,0.38
11048,-1.62,90.44,15.94,7.38,83.56,1.38,-1.12,0.03,-0.99,0.00,0.00,0.35
11081,-2.06,90.62,17.88,7.25,80.56,1.81,-1.12,0.00,-0.90,0.00,0.00,1.47
11090,-2.19,90.69,18.50,7.06,79.31,1.88,-1.14,0.00,-0.83,0.00,0.00,1.51
11101,-2.31,90.75,19.12,7.00,78.06,2.31,-1.15,0.00,-0.81,0.00,0.00,1.60
11109,-2.50,90.81,19.69,6.81,77.06,2.50,-1.18,-0.01,-0.82,0.00,0.00,1.58
11122,-2.69,90.88,20.25,6.88,75.31,2.88,-1.17,0.00,-0.78,0.00,0.00,0.76
11131,-2.81,90.94,20.81,6.81,74.00,3.25,-1.17,0.00,-0.73,0.00,0.00,1.24
11141,-3.00,91.00,21.38,6.75,72.31,3.62,-1.21,0.00,-0.66,0.00,0.00,0.78
11149,-3.19,91.06,21.88,6.69,70.88,3.88,-1.22,0.00,-0.65,0.00,0.00,0.61
11159,-3.31,91.12,22.38,6.75,69.50,4.06,-1.26,-0.01,-0.63,0.00,0.00,1.14
11170,-3.50,91.19,22.88,6.69,68.06,4.31,-1.22,0.00,-0.60,0.00,0.00,1.57
11179,-3.69,91.25,23.31,6.69,66.25,4.62,-1.28,0.00,-0.52,0.00,0.00,1.53
11191,-3.69,91.25,23.31,6.75,64.44,4.50,-1.30,0.00,-0.48,0.00,0.00,1.58
11200,-4.12,91.38,24.12,6.44,62.56,4.69,-1.29,0.00,-0.47,0.00,0.00,1.56
11211,-4.38,91.38,24.50,6.56,60.81,4.56,-1.30,0.01,-0.42,0.00,0.00,1.58
11244,-5.06,91.56,25.44,6.31,55.12,3.75,-1.26,0.03,-0.29,0.00,0.00,1.58
11253,-5.31,91.56,25.69,6.12,53.19,3.44,-1.23,0.06,-0.28,0.00,0.00,1.59
11264,-5.50,91.62,25.94,6.00,51.06,2.94,-1.23,0.04,-0.24,0.00,0.00,1.57
11277,-5.75,91.62,26.19,5.81,49.31,2.56,-1.22,0.07,-0.18,0.00,0.00,1.74
11287,-5.94,91.69,26.44,5.50,47.19,2.00,-1.20,0.07,-0.13,0.00,0.00,1.77
11298,-6.19,91.69,26.69,5.38,45.31,1.44,-1.19,0.06,-0.12,0.00,0.00,1.79
11309,-6.38,91.75,26.88,4.81,40.94,0.19,-1.17,0.06,-0.07,0.00,0.00,1.05
11321,-6.56,91.75,27.06,4.62,38.88,-0.38,-1.12,0.06,-0.06,0.00,0.00,0.73
11332,-6.94,91.75,27.44,4.25,36.94,-1.06,-1.13,0.07,-0.01,0.00,0.00,1.86
11341,-7.12,91.75,27.62,4.00,34.62,-1.62,-1.09,0.06,-0.02,0.00,0.00,2.08
11349,-7.25,91.75,27.75,3.88,32.44,-2.19,-1.04,0.03,0.00,0.00,0.00,2.16
11361,-7.25,91.75,27.75,3.44,30.31,-2.56,-1.04,0.03,-0.01,0.00,0.00,2.19
11369,-7.56,91.75,28.06,3.31,28.06,-3.00,-1.02,0.00,0.03,0.00,0.00,2.20
11381,-7.56,91.75,28.06,3.00,25.81,-3.44,-0.97,0.00,0.05,0.00,0.00,2.21
11412,-8.06,91.75,28.38,2.31,18.75,-3.81,-0.89,-0.05,0.06,0.00,0.00,2.24
11420,-8.12,91.75,28.44,2.19,16.31,-3.94,-0.85,-0.04,0.04,0.00,0.00,2.27
11430,-8.25,91.75,28.50,1.75,14.19,-4.06,-0.84,-0.07,0.08,0.00,0.00,2.27
11440,-8.25,91.75,28.50,1.75,14.19,-4.06,-0.80,-0.05,0.07,0.00,0.00,2.27
11448,-8.38,91.75,28.50,1.81,12.00,-3.94,-0.79,-0.05,0.05,0.00,0.00,2.25
11458,-8.44,91.69,28.50,1.81,9.44,-3.62,-0.76,-0.06,0.04,0.00,0.00,2.26
11468,-8.50,91.69,28.44,1.56,7.12,-3.50,-0.75,-0.08,0.06,0.00,0.00,2.27
11479,-8.62,91.69,28.44,1.38,4.56,-3.06,-0.72,-0.08,0.06,0.00,0.00,2.28
11487,-8.69,91.69,28.38,1.12,2.25,-2.94,-0.72,-0.08,0.06,0.00,0.00,2.28
11496,-8.75,91.62,28.31,1.06,-0.06,-2.56,-0.73,-0.07,0.04,0.00,0.00,2.25
11507,-8.88,91.62,28.19,0.94,-2.38,-2.12,-0.70,-0.10,0.03,0.00,0.00,2.28
11518,-8.94,91.62,28.06,0.81,-4.88,-1.94,-0.67,-0.08,0.03,0.00,0.00,2.26
11529,-9.00,91.56,27.88,0.69,-7.38,-1.44,-0.66,-0.06,0.00,0.00,0.00,2.27
11537,-9.06,91.56,27.75,0.44,-9.81,-1.44,-0.66,-0.06,0.00,0.00,0.00,2.24
11570,-9.31,91.50,27.06,-0.06,-19.19,-0.62,-0.62,-0.01,0.00,0.00,0.00,2.08
11583,-9.38,91.44,26.81,-0.25,-21.31,-0.69,-0.63,0.00,0.00,0.00,0.00,1.30
11595,-9.50,91.38,26.25,-0.50,-23.56,-0.81,-0.61,0.00,-0.03,0.00,0.00,0.84
11604,-9.56,91.38,25.94,-0.81,-25.69,-0.88,-0.60,0.02,-0.04,0.00,0.00,1.72
11615,-9.62,91.31,25.62,-1.12,-28.06,-1.00,-0.60,0.02,-0.09,0.00,0.00,1.79
11625,-9.69,91.31,25.25,-1.44,-30.25,-1.31,-0.58,0.04,-0.05,0.00,0.00,1.71
11636,-9.75,91.25,24.88,-1.69,-32.69,-1.62,-0.57,0.03,-0.09,0.00,0.00,1.60
11646,-9.81,91.25,24.50,-1.94,-34.62,-2.06,-0.56,0.02,-0.14,0.00,0.00,1.61
11657,-9.88,91.25,24.12,-2.56,-36.94,-2.62,-0.55,0.02,-0.18,0.00,0.00,1.58
11670,-9.88,91.19,23.69,-2.81,-39.25,-2.94,-0.51,0.04,-0.17,0.00,0.00,1.61
11684,-9.88,91.19,23.25,-3.12,-41.00,-3.38,-0.47,0.01,-0.23,0.00,0.00,1.57
11693,-9.88,91.12,22.44,-3.69,-44.94,-4.44,-0.46,0.04,-0.27,0.00,0.00,1.59
11705,-9.88,91.12,21.94,-3.88,-47.25,-4.69,-0.44,0.03,-0.26,0.00,0.00,1.57
11715,-9.88,91.06,21.50,-4.19,-49.12,-5.25,-0.42,0.01,-0.30,0.00,0.00,1.55
11748,-9.81,91.06,20.00,-4.81,-54.50,-6.19,-0.37,-0.02,-0.42,0.00,0.00,0.68
11758,-9.81,91.00,19.50,-5.25,-56.50,-6.38,-0.32,-0.01,-0.46,0.00,0.00,1.23
11770,-9.75,91.00,18.94,-5.31,-58.38,-6.75,-0.26,-0.04,-0.51,0.00,0.00,0.81
11781,-9.75,91.00,18.44,-5.50,-60.12,-6.75,-0.17,-0.05,-0.52,0.00,0.00,0.79
11790,-9.69,91.00,17.88,-5.56,-61.81,-6.81,-0.17,-0.05,-0.52,0.00,0.00,1.48
11798,-9.69,91.00,17.25,-5.81,-63.69,-6.50,-0.14,-0.05,-0.56,0.00,0.00,1.62
11808,-9.62,91.00,16.69,-5.88,-65.12,-6.44,-0.07,-0.08,-0.62,0.00,0.00,1.59
11821,-9.56,91.00,16.06,-6.00,-66.75,-6.25,-0.06,-0.06,-0.64,0.00,0.00,1.23
11831,-9.56,91.00,15.44,-5.81,-68.06,-6.06,0.00,-0.06,-0.68,0.00,0.00,0.37
11840,-9.50,91.00,14.81,-6.19,-69.56,-5.81,0.00,-0.06,-0.68,0.00,0.00,0.33
11848,-9.44,91.00,14.19,-6.19,-70.94,-5.38,0.07,-0.07,-0.74,0.00,0.00,0.35
11856,-9.44,91.00,13.50,-6.25,-72.56,-4.94,0.07,-0.06,-0.74,0.00,0.00,0.51
11864,-9.38,91.00,12.81,-6.50,-73.88,-4.56,0.11,-0.05,-0.75,0.00,0.00,0.23
11896,-9.25,91.00,10.69,-6.75,-77.56,-3.50,0.19,-0.05,-0.80,0.00,0.00,1.18
11904,-9.25,90.94,10.00,-7.06,-78.56,-3.31,0.20,-0.02,-0.81,0.00,0.00,1.46
11914,-9.25,90.94,10.00,-7.25,-79.62,-2.88,0.22,-0.04,-0.85,0.00,0.00,1.47
11923,-9.25,90.94,9.25,-7.31,-80.62,-2.69,0.26,-0.06,-0.85,0.00,0.00,1.47
11935,-9.19,90.94,8.50,-7.56,-81.56,-2.50,0.28,-0.01,-0.86,0.00,0.00,1.49
11943,-9.12,90.94,6.94,-7.62,-82.25,-2.44,0.30,-0.04,-0.89,0.00,0.00,1.41
11957,-9.12,90.94,6.94,-7.62,-82.25,-2.44,0.33,-0.04,-0.91,0.00,0.00,1.07
11966,-9.06,90.94,5.38,-7.88,-83.75,-2.44,0.37,-0.02,-0.92,0.00,0.00,1.16
11973,-9.06,90.94,4.62,-8.00,-84.38,-2.50,0.38,-0.04,-0.95,0.00,0.00,1.21
11984,-9.06,90.94,4.62,-8.12,-84.94,-2.81,0.40,-0.06,-0.94,0.00,0.00,1.18
11991,-9.00,91.00,3.81,-8.12,-84.94,-2.81,0.45,-0.05,-0.93,0.00,0.00,1.11
11999,-8.94,91.00,3.06,-8.25,-85.44,-3.00,0.45,-0.05,-0.93,0.00,0.00,1.04
12006,-8.94,91.00,2.25,-8.31,-85.75,-3.25,0.47,-0.06,-1.00,0.00,0.00,1.02
12013,-8.88,91.00,1.50,-8.44,-86.06,-3.56,0.48,-0.08,-1.00,0.00,0.00,1.02
12043,-8.69,91.12,-0.88,-8.56,-86.69,-4.62,0.62,-0.10,-0.99,0.00,0.00,1.01
12051,-8.69,91.12,-0.88,-8.56,-86.69,-4.62,0.62,-0.10,-0.99,0.00,0.00,1.02
12060,-8.56,91.12,-1.62,-8.62,-86.81,-4.69,0.64,-0.10,-0.97,0.00,0.00,1.02
12073,-8.50,91.19,-2.38,-8.31,-87.00,-5.12,0.67,-0.12,-0.99,0.00,0.00,1.02
12082,-8.44,91.25,-3.12,-8.31,-86.75,-5.38,0.78,-0.11,-0.98,0.00,0.00,1.03
12090,-8.31,91.25,-3.88,-8.31,-86.69,-5.50,0.78,-0.11,-0.98,0.00,0.00,1.04
12098,-8.19,91.31,-4.62,-8.06,-86.50,-5.81,0.79,-0.13,-0.95,0.00,0.00,1.02
12109,-8.06,91.38,-5.31,-8.00,-86.44,-5.75,0.82,-0.12,-0.98,0.00,0.00,1.07
12121,-8.00,91.44,-6.06,-8.00,-86.12,-5.88,0.89,-0.12,-0.95,0.00,0.00,1.71
12135,-7.88,91.44,-6.75,-7.75,-85.75,-5.81,0.93,-0.15,-0.91,0.00,0.00,2.10
12143,-7.75,91.50,-7.44,-7.56,-85.25,-5.62,0.96,-0.15,-0.91,0.00,0.00,2.17
12154,-7.62,91.56,-8.12,-7.44,-84.75,-5.38,0.96,-0.15,-0.91,0.00,0.00,2.25
12163,-7.44,91.62,-8.81,-7.31,-84.06,-5.25,1.08,-0.13,-0.85,0.00,0.00,2.28
12197,-7.06,91.81,-10.81,-6.81,-82.12,-3.94,1.16,-0.11,-0.75,0.00,0.00,2.35
12204,-6.75,91.94,-12.06,-6.38,-80.38,-2.94,1.17,-0.09,-0.71,0.00,0.00,2.36
12216,-6.75,91.94,-12.06,-6.38,-80.38,-2.94,1.17,-0.09,-0.69,0.00,0.00,2.36
12224,-6.62,92.00,-12.69,-6.31,-78.44,-1.94,1.17,-0.11,-0.67,0.00,0.00,2.35
12237,-6.50,92.06,-13.31,-6.31,-78.44,-1.94,1.19,-0.11,-0.62,0.00,0.00,2.23
12245,-6.31,92.12,-13.94,-6.00,-76.38,-0.88,1.19,-0.10,-0.57,0.00,0.00,2.32
12256,-6.19,92.19,-14.56,-6.00,-76.38,-0.88,1.19,-0.10,-0.57,0.00,0.00,2.27
12265,-6.06,92.25,-15.12,-5.94,-74.00,0.06,1.19,-0.10,-0.52,0.00,0.00,2.31
12277,-5.94,92.31,-15.69,-5.94,-74.00,0.06,1.25,-0.08,-0.49,0.00,0.00,2.34
12285,-5.69,92.38,-16.88,-5.56,-71.19,0.75,1.19,-0.10,-0.47,0.00,0.00,2.33
12297,-5.69,92.38,-16.88,-5.56,-71.19,0.75,1.19,-0.10,-0.47,0.00,0.00,2.34
12305,-5.56,92.44,-17.38,-5.38,-68.50,1.25,1.20,-0.12,-0.39,0.00,0.00,2.33
12319,-5.44,92.50,-17.94,-5.38,-68.50,1.25,1.20,-0.14,-0.38,0.00,0.00,2.23
12330,-5.25,92.56,-19.00,-5.12,-65.19,1.38,1.19,-0.14,-0.34,0.00,0.00,1.38
12379,-4.81,92.69,-20.94,-4.38,-58.94,1.12,1.20,-0.15,-0.22,0.00,0.00,1.08
12390,-4.50,92.75,-21.69,-3.94,-55.06,0.81,1.19,-0.15,-0.18,0.00,0.00,1.07
12400,-4.38,92.75,-22.06,-3.44,-53.38,0.75,1.18,-0.13,-0.13,0.00,0.00,1.10
12410,-4.19,92.75,-22.38,-3.25,-51.38,0.31,1.18,-0.13,-0.14,0.00,0.00,1.05
12420,-4.00,92.81,-22.69,-3.00,-49.56,0.12,1.17,-0.14,-0.10,0.00,0.00,0.73
12428,-3.88,92.81,-22.94,-2.75,-47.50,-0.06,1.16,-0.12,-0.06,0.00,0.00,0.33
12438,-3.88,92.81,-22.94,-2.38,-45.62,-0.19,1.16,-0.14,-0.05,0.00,0.00,0.28
12446,-3.69,92.81,-23.19,-2.12,-43.50,-0.25,1.17,-0.13,-0.03,0.00,0.00,0.38
12456,-3.50,92.81,-23.44,-2.12,-43.50,-0.25,1.17,-0.13,-0.03,0.00,0.00,0.55
12466,-3.31,92.81,-23.62,-1.94,-41.56,-0.62,1.17,-0.10,-0.01,0.00,0.00,0.38
12477,-3.12,92.81,-23.81,-1.69,-39.50,-0.50,1.17,-0.09,0.03,0.00,0.00,0.37
12486,-2.94,92.81,-24.00,-1.12,-35.12,-0.56,1.15,-0.10,0.03,0.00,0.00,0.37
12496,-2.75,92.81,-24.12,-1.12,-35.12,-0.56,1.15,-0.10,0.03,0.00,0.00,0.39
12528,-2.00,92.69,-24.50,-0.19,-26.44,0.06,1.13,-0.03,0.08,0.00,0.00,0.34
12538,-2.00,92.69,-24.50,-0.19,-24.38,0.31,1.10,-0.05,0.08,0.00,0.00,0.33
12546,-1.81,92.69,-24.56,-0.06,-22.19,0.56,1.08,-0.03,0.13,0.00,0.00,0.37
12556,-1.62,92.69,-24.56,-0.06,-22.19,0.56,1.08,-0.03,0.13,0.00,0.00,0.40
12566,-1.44,92.62,-24.62,0.12,-19.75,0.88,1.05,-0.03,0.15,0.00,0.00,0.35
12580,-1.31,92.62,-24.62,0.25,-17.88,1.50,1.04,-0.01,0.14,0.00,0.00,0.35
12588,-1.00,92.56,-24.56,0.50,-13.38,2.19,1.02,0.00,0.14,0.00,0.00,0.32
12600,-1.00,92.56,-24.56,0.50,-13.38,2.19,1.00,-0.01,0.12,0.00,0.00,0.33
12607,-0.69,92.50,-24.44,0.75,-8.75,3.00,0.97,0.00,0.14,0.00,0.00,0.39
12619,-0.69,92.50,-24.44,0.94,-6.19,3.44,0.94,0.00,0.13,0.00,0.00,0.33
12628,-0.56,92.44,-24.31,1.12,-3.88,3.69,0.88,-0.01,0.13,0.00,0.00,0.38
12639,-0.44,92.44,-24.25,1.19,-1.81,3.88,0.84,-0.02,0.11,0.00,0.00,0.35
12647,-0.31,92.38,-24.12,1.44,2.75,4.62,0.85,-0.04,0.13,0.00,0.00,0.35
12655,-0.19,92.38,-24.00,1.44,2.75,4.62,0.85,-0.04,0.13,0.00,0.00,0.33
12687,0.00,92.25,-23.56,1.88,7.50,4.81,0.71,-0.04,0.07,0.00,0.00,0.33
12695,0.06,92.25,-23.38,2.06,9.56,5.00,0.71,-0.04,0.07,0.00,0.00,0.35
12704,0.12,92.19,-23.19,2.38,14.38,4.81,0.67,-0.03,0.05,0.00,0.00,0.32
12712,0.19,92.19,-23.00,2.38,14.38,4.81,0.66,-0.06,0.01,0.00,0.00,0.51
12721,0.19,92.12,-22.81,2.69,16.50,4.81,0.62,-0.02,0.00,0.00,0.00,0.53
12729,0.25,92.12,-22.56,3.12,20.88,4.44,0.60,-0.04,0.00,0.00,0.00,0.42
12738,0.25,92.12,-22.56,3.19,23.25,4.25,0.57,-0.04,0.00,0.00,0.00,0.28
12747,0.31,92.06,-22.25,3.19,23.25,4.25,0.57,-0.04,0.00,0.00,0.00,0.30
12756,0.31,92.06,-22.00,3.50,25.38,4.00,0.55,-0.06,-0.02,0.00,0.00,0.56
12767,0.38,92.00,-21.69,3.44,27.31,3.75,0.51,-0.04,-0.05,0.00,0.00,1.77
12779,0.38,92.00,-21.38,3.69,29.69,3.44,0.50,-0.02,-0.08,0.00,0.00,2.11
12794,0.38,91.94,-21.06,3.94,31.75,3.12,0.45,-0.02,-0.10,0.00,0.00,1.28
12804,0.44,91.88,-20.31,4.25,36.19,2.69,0.46,-0.02,-0.12,0.00,0.00,1.02
12817,0.44,91.81,-19.94,4.56,38.31,2.38,0.46,0.00,-0.14,0.00,0.00,1.03
12852,0.56,91.69,-18.19,5.12,46.19,1.81,0.40,0.00,-0.23,0.00,0.00,1.12
12862,0.56,91.62,-17.69,5.06,48.06,1.94,0.37,0.02,-0.30,0.00,0.00,1.21
12874,0.56,91.62,-17.19,5.12,49.81,1.81,0.37,0.01,-0.31,0.00,0.00,1.31
12885,0.62,91.56,-16.69,5.19,51.56,2.00,0.36,0.02,-0.33,0.00,0.00,1.76
12893,0.62,91.56,-16.12,5.25,53.50,2.06,0.32,0.04,-0.37,0.00,0.00,2.32
12901,0.62,91.50,-15.56,5.38,55.12,2.31,0.29,0.03,-0.39,0.00,0.00,2.33
12909,0.62,91.50,-15.56,5.38,57.06,2.50,0.27,0.05,-0.41,0.00,0.00,2.33
12919,0.69,91.50,-15.00,5.38,57.06,2.50,0.25,0.05,-0.43,0.00,0.00,2.34
12928,0.69,91.44,-14.44,5.44,58.94,2.81,0.21,0.00,-0.46,0.00,0.00,2.35
12939,0.69,91.44,-13.81,5.44,60.31,2.94,0.18,0.02,-0.51,0.00,0.00,2.29
12947,0.69,91.38,-13.25,5.56,61.94,3.25,0.18,0.02,-0.51,0.00,0.00,2.32
12955,0.69,91.38,-12.62,5.50,63.44,3.56,0.16,0.04,-0.52,0.00,0.00,2.29
12963,0.69,91.38,-12.00,5.44,64.94,3.81,0.13,0.02,-0.54,0.00,0.00,2.32
12971,0.62,91.31,-11.38,5.56,66.50,4.06,0.08,0.00,-0.60,0.00,0.00,2.24
13001,0.56,91.25,-9.44,5.94,70.25,4.75,-0.02,0.01,-0.66,0.00,0.00,2.36
13009,0.56,91.25,-9.44,5.94,70.25,4.75,-0.09,0.00,-0.69,0.00,0.00,2.35
13019,0.56,91.25,-8.81,6.00,71.31,4.69,-0.09,0.00,-0.69,0.00,0.00,2.18
13029,0.50,91.19,-8.12,6.12,72.56,4.88,-0.13,0.00,-0.75,0.00,0.00,1.60
13039,0.50,91.19,-7.44,6.25,73.62,4.88,-0.17,0.00,-0.74,0.00,0.00,2.22
13047,0.44,91.19,-6.75,6.44,74.81,4.81,-0.17,0.00,-0.74,0.00,0.00,2.20
13054,0.38,91.12,-6.06,6.62,75.75,4.75,-0.26,-0.04,-0.77,0.00,0.00,2.26
13062,0.31,91.12,-5.38,6.50,76.75,4.56,-0.30,-0.06,-0.83,0.00,0.00,2.27
13071,0.31,91.12,-5.38,6.62,77.50,4.31,-0.31,-0.04,-0.82,0.00,0.00,2.23
13081,0.31,91.12,-4.69,6.62,77.50,4.31,-0.36,0.01,-0.85,0.00,0.00,2.19
13091,0.25,91.12,-4.00,7.00,79.12,3.94,-0.43,-0.02,-0.83,0.00,0.00,2.07
13104,0.19,91.12,-3.25,7.00,79.12,3.94,-0.43,-0.02,-0.83,0.00,0.00,1.90
13115,0.06,91.12,-1.81,7.06,80.44,3.12,-0.48,-0.02,-0.87,0.00,0.00,1.66
13128,0.06,91.12,-1.06,7.25,81.12,2.75,-0.51,0.00,-0.86,0.00,0.00,1.54
13162,-0.06,91.12,1.12,7.56,82.31,1.50,-0.62,-0.01,-0.86,0.00,0.00,1.34
13174,-0.12,91.12,1.88,7.50,82.81,0.81,-0.68,0.00,-0.91,0.00,0.00,1.20
13185,-0.19,91.19,3.38,7.62,83.12,0.50,-0.68,0.02,-0.87,0.00,0.00,1.36
13200,-0.25,91.19,4.12,7.50,83.25,0.19,-0.73,-0.01,-0.89,0.00,0.00,1.34
13215,-0.31,91.25,4.88,7.56,83.00,0.12,-0.79,-0.06,-0.87,0.00,0.00,0.96
13225,-0.44,91.25,6.38,7.75,83.25,-0.19,-0.80,-0.01,-0.86,0.00,0.00,0.72
13238,-0.50,91.25,7.12,7.81,83.19,-0.19,-0.81,-0.03,-0.87,0.00,0.00,0.80
13247,-0.56,91.31,7.88,7.62,82.94,-0.38,-0.86,-0.03,-0.82,0.00,0.00,0.85
13257,-0.62,91.31,8.62,7.50,82.62,-0.38,-0.87,-0.01,-0.84,0.00,0.00,0.90
13265,-0.69,91.31,9.31,7.62,82.25,-0.25,-0.87,0.00,-0.82,0.00,0.00,1.51
13274,-0.75,91.38,10.06,7.50,81.69,-0.25,-0.89,0.00,-0.83,0.00,0.00,1.42
13283,-0.75,91.38,10.06,7.44,81.19,-0.06,-0.94,-0.03,-0.81,0.00,0.00,1.48
13292,-0.88,91.38,10.75,7.69,80.88,0.06,-0.97,-0.05,-0.81,0.00,0.00,1.45
13302,-0.94,91.44,11.44,7.69,80.88,0.06,-0.97,-0.05,-0.81,0.00,0.00,1.42
13334,-1.31,91.56,14.12,7.69,77.69,0.81,-1.06,-0.07,-0.71,0.00,0.00,0.23
13347,-1.31,91.56,14.12,7.69,77.12,0.88,-1.09,-0.07,-0.69,0.00,0.00,0.34
13355,-1.56,91.56,15.38,7.81,75.94,0.94,-1.10,-0.02,-0.66,0.00,0.00,0.45
13366,-1.56,91.56,15.38,7.88,74.81,1.00,-1.16,-0.03,-0.63,0.00,0.00,0.33
13374,-1.81,91.62,16.56,7.88,73.94,1.00,-1.17,0.00,-0.67,0.00,0.00,0.33
13388,-1.81,91.62,16.56,7.75,73.19,1.00,-1.16,-0.03,-0.60,0.00,0.00,0.34
13400,-2.06,91.69,17.69,7.81,71.75,1.00,-1.22,-0.03,-0.60,0.00,0.00,1.45
13409,-2.19,91.69,18.25,7.88,70.69,0.94,-1.24,-0.01,-0.53,0.00,0.00,1.47
13420,-2.31,91.75,18.81,7.75,69.25,0.75,-1.24,-0.01,-0.52,0.00,0.00,1.49
13431,-2.44,91.75,19.31,7.88,67.94,0.62,-1.27,-0.01,-0.52,0.00,0.00,1.62
13445,-2.56,91.75,19.81,7.62,66.44,0.38,-1.28,-0.01,-0.47,0.00,0.00,1.54
13455,-2.75,91.75,20.31,7.50,63.94,-0.19,-1.31,0.01,-0.41,0.00,0.00,0.80
13464,-2.88,91.81,20.75,7.50,63.94,-0.19,-1.33,0.00,-0.39,0.00,0.00,1.50
13474,-3.06,91.81,21.19,7.25,60.94,-0.56,-1.32,0.02,-0.38,0.00,0.00,0.67
13506,-3.81,91.94,22.69,6.88,56.19,-1.81,-1.32,0.03,-0.25,0.00,0.00,1.42
13516,-3.81,91.94,22.69,6.62,54.56,-2.00,-1.32,0.03,-0.23,0.00,0.00,1.52
13525,-4.00,91.94,23.00,6.50,52.62,-2.25,-1.28,0.03,-0.21,0.00,0.00,1.56
13538,-4.19,91.94,23.38,6.31,51.12,-2.38,-1.28,0.02,-0.18,0.00,0.00,1.54
13548,-4.56,91.94,23.94,6.00,49.12,-2.62,-1.25,0.01,-0.17,0.00,0.00,1.55
13560,-4.69,92.00,24.25,5.88,47.38,-2.94,-1.24,0.00,-0.13,0.00,0.00,1.56
13569,-4.88,92.00,24.50,5.69,45.69,-2.94,-1.21,0.01,-0.12,0.00,0.00,1.56
13582,-5.06,92.00,24.75,5.62,43.81,-3.25,-1.21,0.00,-0.12,0.00,0.00,1.53
13595,-5.19,92.00,25.00,5.50,41.75,-3.19,-1.18,0.02,-0.08,0.00,0.00,1.55
13607,-5.38,92.00,25.19,5.25,39.69,-3.31,-1.16,0.02,-0.03,0.00,0.00,1.57
13617,-5.50,92.00,25.44,4.75,35.88,-3.31,-1.13,0.01,-0.07,0.00,0.00,1.58
13630,-5.69,92.00,25.62,4.50,33.81,-3.12,-1.09,0.01,-0.02,0.00,0.00,1.52
13639,-6.00,92.00,25.94,4.38,31.88,-3.06,-1.07,0.00,-0.01,0.00,0.00,1.57
13651,-6.12,91.94,26.06,4.31,29.81,-2.94,-1.06,0.00,0.00,0.00,0.00,1.58
13686,-6.56,91.94,26.38,3.69,23.44,-2.44,-0.97,0.00,0.04,0.00,0.00,1.66
13701,-6.69,91.94,26.44,3.44,19.00,-1.94,-0.95,0.00,0.06,0.00,0.00,1.69
13710,-7.00,91.88,26.50,3.19,17.00,-1.62,-0.93,0.00,0.05,0.00,0.00,1.71
13722,-7.12,91.88,26.50,3.00,14.81,-1.50,-0.92,0.01,0.06,0.00,0.00,1.70
13734,-7.25,91.81,26.50,2.81,12.75,-1.31,-0.90,0.02,0.05,0.00,0.00,1.72
13750,-7.44,91.81,26.44,2.69,10.56,-1.31,-0.88,0.02,0.06,0.00,0.00,1.78
13759,-7.69,91.75,26.31,1.94,6.00,-1.25,-0.85,0.03,0.07,0.00,0.00,1.77
13772,-7.81,91.75,26.19,1.88,3.75,-1.12,-0.81,0.01,0.06,0.00,0.00,1.77
13788,-7.94,91.69,26.06,1.62,1.56,-1.12,-0.82,0.03,0.07,0.00,0.00,1.74
13798,-8.06,91.69,25.94,1.06,-2.69,-1.31,-0.79,0.01,0.07,0.00,0.00,1.69
13809,-8.19,91.69,25.81,1.06,-2.69,-1.31,-0.77,0.03,0.05,0.00,0.00,1.67
13819,-8.31,91.62,25.62,0.50,-6.88,-1.50,-0.75,0.06,0.03,0.00,0.00,1.66
13831,-8.50,91.62,25.25,0.31,-9.06,-1.62,-0.71,0.12,0.04,0.00,0.00,1.63
13841,-8.62,91.56,25.06,0.00,-11.25,-1.75,-0.69,0.10,0.02,0.00,0.00,1.55
13876,-8.81,91.50,24.38,-0.94,-17.62,-2.31,-0.66,0.00,-0.01,0.00,0.00,1.59
13888,-8.94,91.50,24.12,-1.19,-19.81,-2.50,-0.61,0.02,-0.04,0.00,0.00,1.59
13901,-8.94,91.50,23.88,-1.88,-23.56,-2.81,-0.59,0.02,-0.03,0.00,0.00,1.62
13911,-9.06,91.44,23.25,-2.00,-25.88,-3.06,-0.58,0.02,-0.07,0.00,0.00,1.55
13923,-9.12,91.44,22.94,-2.38,-28.06,-3.12,-0.57,0.03,-0.08,0.00,0.00,1.53
13934,-9.12,91.44,22.62,-2.75,-30.25,-3.25,-0.55,0.04,-0.10,0.00,0.00,1.56
13947,-9.19,91.44,22.31,-3.06,-32.19,-3.25,-0.52,0.01,-0.10,0.00,0.00,1.55
13956,-9.19,91.44,21.94,-3.12,-34.00,-3.25,-0.50,0.00,-0.12,0.00,0.00,1.55
13968,-9.19,91.38,21.56,-3.38,-35.94,-3.25,-0.47,-0.01,-0.16,0.00,0.00,1.56
13979,-9.25,91.38,21.19,-3.75,-38.12,-3.06,-0.44,0.00,-0.18,0.00,0.00,1.53
13991,-9.25,91.38,20.75,-4.25,-41.81,-2.94,-0.40,-0.02,-0.23,0.00,0.00,1.54
14001,-9.25,91.38,19.94,-4.38,-43.44,-2.75,-0.37,-0.03,-0.26,0.00,0.00,1.38
14010,-9.25,91.38,19.94,-4.50,-45.75,-2.50,-0.35,-0.06,-0.27,0.00,0.00,0.59
14023,-9.25,91.31,19.50,-4.50,-45.75,-2.50,-0.32,-0.07,-0.30,0.00,0.00,1.10
14055,-9.31,91.31,17.50,-5.06,-52.56,-1.69,-0.25,-0.03,-0.35,0.00,0.00,1.28
14066,-9.31,91.31,16.94,-5.38,-54.19,-1.44,-0.18,-0.04,-0.36,0.00,0.00,1.61
14076,-9.31,91.25,16.38,-5.44,-55.69,-1.38,-0.15,-0.03,-0.41,0.00,0.00,1.60
14091,-9.31,91.25,15.81,-5.75,-57.44,-1.00,-0.14,-0.02,-0.43,0.00,0.00,0.49
14099,-9.38,91.25,14.62,-6.06,-60.19,-0.75,-0.09,-0.07,-0.48,0.00,0.00,0.37
14110,-9.38,91.25,14.62,-6.06,-60.19,-0.75,-0.09,-0.07,-0.48,0.00,0.00,0.34
14118,-9.38,91.25,14.00,-6.19,-61.81,-0.38,-0.03,-0.07,-0.51,0.00,0.00,0.30
14128,-9.38,91.25,13.38,-6.44,-63.31,-0.38,0.00,-0.07,-0.55,0.00,0.00,0.51
14138,-9.44,91.25,12.75,-6.50,-64.75,-0.25,0.04,-0.07,-0.57,0.00,0.00,0.27
14150,-9.44,91.25,12.12,-6.69,-65.88,-0.38,0.05,-0.06,-0.59,0.00,0.00,0.22
14159,-9.44,91.25,11.44,-7.06,-68.31,-0.31,0.08,-0.09,-0.61,0.00,0.00,0.19
14171,-9.44,91.25,10.75,-7.06,-68.31,-0.31,0.08,-0.09,-0.61,0.00,0.00,0.49
14180,-9.44,91.19,9.38,-7.06,-70.50,-0.44,0.13,-0.07,-0.66,0.00,0.00,1.45
14214,-9.44,91.19,7.25,-7.69,-73.31,-0.69,0.25,-0.08,-0.69,0.00,0.00,1.47
14222,-9.44,91.19,6.56,-7.88,-74.38,-0.88,0.28,-0.09,-0.75,0.00,0.00,1.44
14231,-9.44,91.19,5.88,-7.81,-74.81,-1.06,0.30,-0.10,-0.78,0.00,0.00,1.45
14239,-9.44,91.19,5.88,-7.88,-75.69,-1.19,0.36,-0.13,-0.75,0.00,0.00,1.48
14250,-9.44,91.25,5.12,-7.88,-75.69,-1.19,0.39,-0.16,-0.78,0.00,0.00,0.97
14260,-9.38,91.25,4.44,-7.75,-76.44,-1.25,0.39,-0.16,-0.78,0.00,0.00,0.94
14270,-9.38,91.25,3.69,-7.94,-76.88,-1.25,0.43,-0.16,-0.78,0.00,0.00,0.82
14281,-9.31,91.25,3.00,-7.75,-77.69,-1.38,0.50,-0.16,-0.80,0.00,0.00,0.79
14291,-9.31,91.25,2.25,-7.81,-78.50,-1.50,0.54,-0.18,-0.83,0.00,0.00,0.75
14303,-9.25,91.31,1.56,-7.75,-78.69,-1.56,0.59,-0.15,-0.80,0.00,0.00,1.04
14314,-9.12,91.38,0.12,-7.69,-79.38,-1.50,0.64,-0.14,-0.82,0.00,0.00,1.15
14325,-9.12,91.38,-0.62,-7.69,-79.69,-1.44,0.64,-0.15,-0.80,0.00,0.00,1.71
14336,-9.06,91.44,-1.31,-7.69,-79.69,-1.06,0.69,-0.19,-0.83,0.00,0.00,1.36
14347,-9.00,91.44,-2.06,-7.50,-80.00,-1.12,0.77,-0.19,-0.82,0.00,0.00,1.20
14383,-8.75,91.56,-4.12,-7.25,-80.12,-0.44,0.89,-0.21,-0.80,0.00,0.00,1.39
14395,-8.69,91.62,-4.88,-7.00,-79.56,0.12,0.90,-0.19,-0.78,0.00,0.00,1.57
14408,-8.56,91.69,-6.25,-6.88,-79.56,0.31,0.95,-0.18,-0.75,0.00,0.00,1.40
14419,-8.44,91.69,-6.94,-6.62,-79.25,0.75,0.97,-0.18,-0.72,0.00,0.00,1.59
14430,-8.38,91.75,-7.56,-6.50,-78.94,0.81,0.99,-0.18,-0.72,0.00,0.00,1.80
14441,-8.25,91.81,-8.25,-6.50,-78.31,1.00,1.04,-0.15,-0.71,0.00,0.00,2.06
14451,-8.19,91.81,-8.94,-6.56,-78.31,1.31,1.07,-0.16,-0.69,0.00,0.00,2.19
14460,-8.06,91.88,-9.56,-6.44,-77.38,1.50,1.07,-0.16,-0.69,0.00,0.00,2.23
14467,-8.00,91.94,-10.19,-6.31,-76.81,1.62,1.08,-0.18,-0.66,0.00,0.00,2.28
14474,-7.88,92.00,-10.88,-6.25,-76.12,1.81,1.07,-0.18,-0.64,0.00,0.00,2.27
14484,-7.81,92.00,-11.50,-6.06,-75.81,1.94,1.07,-0.19,-0.64,0.00,0.00,2.19
14492,-7.69,92.06,-12.12,-5.94,-74.69,2.19,1.12,-0.18,-0.59,0.00,0.00,1.86
14506,-7.69,92.06,-12.12,-5.94,-74.69,2.19,1.13,-0.18,-0.58,0.00,0.00,1.50
14539,-7.25,92.19,-14.50,-5.44,-71.06,2.06,1.16,-0.14,-0.49,0.00,0.00,2.34
14550,-7.19,92.25,-15.06,-5.31,-70.00,1.81,1.19,-0.15,-0.48,0.00,0.00,2.36
14557,-7.06,92.25,-15.56,-5.25,-69.00,1.81,1.17,-0.16,-0.46,0.00,0.00,2.34
14566,-6.94,92.31,-16.12,-5.12,-67.81,1.81,1.17,-0.18,-0.45,0.00,0.00,2.24
14574,-6.81,92.31,-16.62,-4.94,-66.31,1.56,1.19,-0.18,-0.40,0.00,0.00,2.30
14584,-6.81,92.31,-16.62,-4.75,-65.25,1.38,1.21,-0.18,-0.37,0.00,0.00,2.27
14593,-6.56,92.38,-17.62,-4.50,-64.00,1.25,1.23,-0.17,-0.38,0.00,0.00,2.31
14604,-6.56,92.38,-17.62,-4.19,-62.31,1.19,1.21,-0.16,-0.37,0.00,0.00,2.26
14612,-6.44,92.38,-18.06,-4.19,-62.31,1.19,1.25,-0.16,-0.31,0.00,0.00,2.31
14621,-6.31,92.44,-18.56,-4.06,-61.25,1.06,1.25,-0.16,-0.31,0.00,0.00,2.34
14631,-6.12,92.44,-19.00,-3.75,-59.62,0.88,1.27,-0.12,-0.29,0.00,0.00,2.33
14644,-6.00,92.44,-19.38,-3.75,-58.00,0.69,1.25,-0.13,-0.23,0.00,0.00,2.32
14653,-5.88,92.50,-19.81,-3.31,-55.00,0.75,1.27,-0.13,-0.17,0.00,0.00,2.33
14664,-5.69,92.50,-20.12,-3.31,-55.00,0.75,1.27,-0.13,-0.17,0.00,0.00,2.08
14697,-4.94,92.50,-21.31,-2.62,-48.25,0.62,1.26,-0.10,-0.10,0.00,0.00,1.12
14711,-4.75,92.50,-21.56,-2.50,-46.56,0.62,1.26,-0.09,-0.07,0.00,0.00,1.12
14722,-4.56,92.56,-21.81,-2.19,-44.88,0.75,1.24,-0.07,-0.09,0.00,0.00,1.14
14738,-4.38,92.56,-22.00,-2.00,-42.88,0.81,1.24,-0.04,-0.05,0.00,0.00,1.06
14748,-4.00,92.56,-22.44,-1.94,-39.50,1.00,1.20,-0.05,-0.05,0.00,0.00,1.05
14760,-3.81,92.56,-22.56,-1.88,-37.44,1.25,1.21,-0.07,0.00,0.00,0.00,1.10
14771,-3.62,92.50,-22.75,-1.62,-35.25,1.25,1.18,-0.04,0.02,0.00,0.00,1.12
14782,-3.44,92.50,-22.88,-1.44,-33.38,1.44,1.12,-0.04,0.02,0.00,0.00,1.08
14795,-3.31,92.50,-23.00,-1.44,-31.38,1.44,1.14,-0.03,0.04,0.00,0.00,1.11
14808,-3.12,92.50,-23.12,-1.25,-27.44,1.94,1.12,-0.02,0.07,0.00,0.00,1.65
14817,-2.81,92.50,-23.25,-1.00,-25.50,2.00,1.09,-0.02,0.08,0.00,0.00,1.94
14827,-2.62,92.44,-23.31,-0.94,-23.38,1.88,1.04,-0.01,0.08,0.00,0.00,2.11
14836,-2.44,92.44,-23.38,-1.00,-21.50,2.06,1.03,-0.01,0.07,0.00,0.00,2.14
14871,-2.00,92.38,-23.38,-0.44,-15.00,2.19,0.96,0.00,0.11,0.00,0.00,1.95
14881,-1.88,92.38,-23.38,-0.31,-12.75,2.00,0.93,-0.01,0.11,0.00,0.00,1.86
14897,-1.75,92.31,-23.31,-0.25,-10.75,2.12,0.91,0.00,0.09,0.00,0.00,1.78
14909,-1.44,92.31,-23.19,0.19,-6.56,1.69,0.87,0.00,0.10,0.00,0.00,1.86
14924,-1.31,92.25,-23.06,0.25,-4.62,1.69,0.84,-0.01,0.11,0.00,0.00,1.84
14936,-1.19,92.25,-22.94,0.19,-2.25,1.50,0.78,-0.01,0.08,0.00,0.00,1.97
14950,-1.06,92.25,-22.81,0.62,2.31,1.06,0.77,-0.02,0.08,0.00,0.00,2.10
14959,-0.81,92.19,-22.50,0.75,4.19,0.94,0.75,-0.02,0.07,0.00,0.00,2.13
14971,-0.75,92.19,-22.38,0.75,6.31,0.81,0.70,-0.03,0.10,0.00,0.00,2.08
14980,-0.62,92.12,-22.19,1.00,8.31,0.69,0.69,0.00,0.06,0.00,0.00,2.03
14991,-0.50,92.12,-21.94,1.12,10.50,0.38,0.68,0.00,0.05,0.00,0.00,1.83
15003,-0.44,92.12,-21.75,1.25,12.56,0.19,0.66,0.00,0.05,0.00,0.00,1.34
15016,-0.31,92.12,-21.50,1.38,14.81,0.25,0.63,0.00,0.06,0.00,0.00,1.05
15026,-0.25,92.06,-21.25,1.44,16.81,0.00,0.62,0.00,0.04,0.00,0.00,1.10
15063,0.00,92.00,-20.06,2.12,25.06,-0.31,0.54,0.02,-0.01,0.00,0.00,1.06
15073,0.06,92.00,-19.75,2.25,27.19,-0.31,0.51,0.02,-0.01,0.00,0.00,1.07
15086,0.12,91.94,-19.44,2.44,29.31,-0.50,0.50,0.03,-0.02,0.00,0.00,1.08
15098,0.12,91.94,-19.06,2.31,31.12,-0.44,0.48,0.03,-0.05,0.00,0.00,1.13
15110,0.19,91.94,-18.69,2.31,35.00,-0.38,0.44,0.05,-0.09,0.00,0.00,1.16
15121,0.31,91.88,-17.88,2.38,37.00,-0.38,0.42,0.02,-0.12,0.00,0.00,1.20
15133,0.31,91.88,-17.50,2.38,38.56,-0.12,0.39,-0.03,-0.14,0.00,0.00,1.36
15144,0.38,91.81,-17.06,2.56,40.69,-0.12,0.35,-0.13,-0.20,0.00,0.00,2.26
15156,0.38,91.81,-16.62,2.75,42.50,-0.19,0.33,-0.10,-0.23,0.00,0.00,2.35
15164,0.44,91.81,-16.12,2.94,44.25,0.00,0.29,-0.06,-0.22,0.00,0.00,2.34
15173,0.44,91.81,-15.69,3.06,45.88,0.06,0.26,-0.01,-0.25,0.00,0.00,2.36
15181,0.50,91.75,-15.19,3.38,47.44,0.12,0.23,0.05,-0.27,0.00,0.00,2.33
15192,0.50,91.75,-14.69,3.50,49.19,0.25,0.24,0.05,-0.29,0.00,0.00,2.35
15200,0.56,91.69,-14.12,3.69,50.88,0.44,0.15,-0.04,-0.30,0.00,0.00,2.31
15233,0.62,91.62,-12.50,3.38,55.69,0.25,0.08,0.04,-0.35,0.00,0.00,2.32
15242,0.62,91.62,-11.94,3.50,56.94,0.00,0.02,0.08,-0.43,0.00,0.00,2.21
15251,0.69,91.62,-11.38,3.56,58.38,0.19,0.00,0.06,-0.42,0.00,0.00,2.36
15259,0.69,91.62,-10.75,3.69,59.94,0.00,-0.02,-0.09,-0.46,0.00,0.00,2.37
15266,0.69,91.62,-10.75,3.69,59.94,0.00,-0.08,-0.29,-0.53,0.00,0.00,2.36
15274,0.69,91.56,-10.12,3.94,61.06,-0.06,-0.08,-0.29,-0.53,0.00,0.00,2.37
15282,0.69,91.50,-9.56,4.25,62.38,-0.25,-0.12,-0.28,-0.57,0.00,0.00,2.37
15289,0.75,91.50,-8.88,4.81,63.62,-0.12,-0.13,-0.32,-0.59,0.00,0.00,2.36
15298,0.75,91.50,-8.88,5.19,65.00,-0.38,-0.19,-0.26,-0.62,0.00,0.00,2.11
15307,0.75,91.44,-8.25,5.38,66.19,-0.56,-0.21,0.07,-0.54,0.00,0.00,1.69
15314,0.75,91.38,-7.62,5.38,66.19,-0.56,-0.21,0.07,-0.54,0.00,0.00,2.03
15322,0.81,91.31,-6.94,5.38,67.19,-0.81,-0.25,0.16,-0.56,0.00,0.00,2.21
15330,0.81,91.25,-6.25,5.25,68.12,-0.75,-0.30,0.23,-0.59,0.00,0.00,2.22
15338,0.81,91.25,-6.25,5.31,69.25,-1.00,-0.34,0.23,-0.63,0.00,0.00,2.28
15372,0.88,91.06,-4.12,5.31,72.00,-1.44,-0.49,-0.32,-0.78,0.00,0.00,2.10
15381,0.94,90.94,-2.69,5.50,72.38,-1.50,-0.49,-0.43,-0.79,0.00,0.00,1.97
15395,0.94,90.88,-1.94,5.94,73.06,-1.56,-0.59,-0.24,-0.85,0.00,0.00,1.69
15410,1.00,90.75,-1.19,6.25,73.81,-1.50,-0.61,0.00,-0.83,0.00,0.00,1.52
15423,1.00,90.69,-0.44,6.44,74.38,-1.50,-0.58,0.08,-0.82,0.00,0.00,1.45
15436,1.06,90.56,1.06,6.31,75.69,-1.62,-0.69,0.12,-0.83,0.00,0.00,1.40
15452,1.06,90.50,1.81,6.19,75.81,-1.38,-0.70,0.00,-0.91,0.00,0.00,1.36
15463,1.00,90.44,3.19,6.25,76.50,-1.38,-0.79,-0.01,-0.89,0.00,0.00,1.29
15475,0.94,90.50,3.88,6.38,76.69,-1.31,-0.81,-0.30,-0.92,0.00,0.00,1.26
15487,0.94,90.38,4.62,6.38,76.88,-1.06,-0.85,-0.36,-0.95,0.00,0.00,1.69
15500,1.00,90.31,5.38,6.56,76.88,-1.00,-0.94,-0.27,-0.98,0.00,0.00,1.16
15512,1.00,90.25,6.12,7.12,76.75,-0.81,-0.96,0.14,-0.94,0.00,0.00,1.08
15523,1.00,90.12,6.88,7.12,76.75,-0.62,-1.02,0.25,-0.93,0.00,0.00,0.77
15532,1.00,90.00,8.38,7.19,76.44,-0.56,-1.04,0.12,-0.94,0.00,0.00,0.78
15568,0.81,89.88,10.44,7.38,75.69,-0.44,-1.18,-0.24,-0.99,0.00,0.00,1.12
15576,0.81,89.81,11.12,7.44,75.31,-0.31,-1.21,-0.19,-0.99,0.00,0.00,1.46
15588,0.81,89.75,11.88,7.31,74.88,-0.38,-1.24,-0.03,-0.98,0.00,0.00,1.44
15598,0.81,89.62,12.56,7.38,74.50,-0.31,-1.26,0.03,-0.98,0.00,0.00,1.48
15609,0.62,89.75,13.06,7.31,73.88,-0.38,-1.31,0.16,-0.96,0.00,0.00,1.44
15618,0.62,89.69,13.75,7.25,73.25,-0.38,-1.31,0.16,-0.96,0.00,0.00,1.46
15626,0.62,89.56,14.50,7.25,72.75,-0.44,-1.39,-0.11,-0.99,0.00,0.00,1.46
15636,0.56,89.50,15.19,7.25,71.94,-0.56,-1.45,-0.16,-1.00,0.00,0.00,1.35
15648,0.38,89.62,15.62,7.31,71.31,-0.62,-1.47,-0.27,-0.98,0.00,0.00,0.14
15663,0.38,89.50,16.31,7.56,70.12,-0.62,-1.50,-0.30,-0.97,0.00,0.00,0.15
15672,0.38,89.38,17.62,7.38,68.31,-0.88,-1.50,0.24,-0.87,0.00,0.00,0.32
15682,0.38,89.38,17.62,7.38,68.31,-0.88,-1.55,0.15,-0.89,0.00,0.00,0.29
15690,0.38,89.31,18.31,7.00,66.44,-1.00,-1.54,0.13,-0.89,0.00,0.00,0.54
15700,0.38,89.25,18.94,7.00,66.44,-1.00,-1.66,-0.03,-0.90,0.00,0.00,0.33
15731,0.06,89.19,20.50,6.62,63.00,-1.19,-1.56,-0.01,-0.83,0.00,0.00,0.35
15742,-0.12,89.25,20.88,6.69,61.56,-1.25,-1.61,-0.01,-0.82,0.00,0.00,1.26
15752,-0.44,89.31,21.19,6.56,59.06,-1.44,-1.52,0.14,-0.73,0.00,0.00,1.52
15761,-0.69,89.44,21.50,6.56,57.94,-1.31,-1.48,0.23,-0.71,0.00,0.00,1.60
15770,-0.94,89.50,21.75,6.56,57.94,-1.31,-1.48,0.23,-0.71,0.00,0.00,1.66
15779,-1.19,89.56,22.06,6.44,56.56,-1.19,-1.49,0.13,-0.70,0.00,0.00,1.48
15790,-1.44,89.62,22.38,6.12,54.75,-1.25,-1.49,0.00,-0.69,0.00,0.00,0.62
15801,-1.69,89.75,22.62,5.88,53.56,-1.25,-1.48,-0.04,-0.59,0.00,0.00,1.50
15812,-1.94,89.81,22.88,5.62,51.88,-1.06,-1.46,0.00,-0.58,0.00,0.00,0.66
15822,-2.19,89.88,23.12,5.56,50.38,-1.00,-1.46,0.00,-0.58,0.00,0.00,1.06
15833,-2.44,89.94,23.38,5.44,48.69,-0.75,-1.39,0.17,-0.52,0.00,0.00,0.81
15843,-2.62,90.00,23.56,5.00,45.25,-0.69,-1.37,0.09,-0.47,0.00,0.00,0.68
15854,-2.88,90.06,23.81,4.94,43.62,-0.44,-1.35,0.01,-0.47,0.00,0.00,1.51
15864,-3.38,90.19,24.12,4.69,41.88,-0.31,-1.36,-0.03,-0.41,0.00,0.00,1.54
15896,-4.06,90.31,24.56,4.44,36.56,0.06,-1.26,0.10,-0.36,0.00,0.00,1.58
15906,-4.25,90.38,24.69,4.06,34.75,0.19,-1.23,0.19,-0.30,0.00,0.00,1.55
15915,-4.50,90.44,24.81,3.69,33.12,0.25,-1.23,0.12,-0.28,0.00,0.00,1.57
15924,-4.50,90.44,24.81,3.50,31.19,0.50,-1.18,0.12,-0.25,0.00,0.00,1.54
15934,-4.69,90.44,24.88,3.50,31.19,0.50,-1.21,0.01,-0.22,0.00,0.00,1.57
15944,-4.88,90.50,25.00,2.94,27.19,0.62,-1.18,-0.05,-0.25,0.00,0.00,1.53
15955,-5.12,90.50,25.00,2.75,25.62,0.56,-1.17,-0.04,-0.22,0.00,0.00,1.56
15965,-5.31,90.56,25.06,2.62,23.56,0.75,-1.13,0.05,-0.20,0.00,0.00,1.58
15976,-5.50,90.62,25.12,2.69,21.31,0.75,-1.09,0.13,-0.18,0.00,0.00,1.56
15985,-5.94,90.62,25.06,2.31,19.44,0.69,-1.08,0.15,-0.16,0.00,0.00,1.58
15996,-6.12,90.69,25.06,2.06,17.56,0.69,-1.04,0.15,-0.17,0.00,0.00,1.58
16006,-6.31,90.69,25.00,1.75,15.69,0.62,-1.02,0.08,-0.12,0.00,0.00,1.56
16017,-6.50,90.75,25.00,1.50,13.44,0.69,-1.01,0.02,-0.11,0.00,0.00,1.58
16026,-6.62,90.75,24.94,1.12,11.62,0.44,-0.99,0.06,-0.10,0.00,0.00,1.59
16059,-7.12,90.81,24.62,0.38,5.38,0.44,-0.90,0.11,-0.06,0.00,0.00,1.60
16068,-7.31,90.81,24.50,-0.06,3.38,0.44,-0.85,0.15,-0.07,0.00,0.00,1.59
16080,-7.44,90.88,24.38,-0.25,1.75,0.31,-0.82,0.12,-0.10,0.00,0.00,1.56
16090,-7.56,90.88,24.25,-0.75,-0.56,0.31,-0.82,0.07,-0.07,0.00,0.00,1.54
16104,-7.75,90.88,24.06,-0.94,-2.75,0.31,-0.80,-0.03,-0.11,0.00,0.00,1.59
16115,-7.81,90.94,23.88,-1.12,-6.38,0.19,-0.75,-0.06,-0.07,0.00,0.00,1.63
16129,-7.94,90.94,23.75,-1.12,-6.38,0.19,-0.72,0.01,-0.08,0.00,0.00,1.55
16138,-8.12,90.94,23.31,-1.75,-10.62,0.19,-0.65,0.10,-0.07,0.00,0.00,1.55
16150,-8.25,90.94,23.12,-1.88,-12.62,0.19,-0.65,0.10,-0.09,0.00,0.00,1.59
16159,-8.31,91.00,22.88,-2.25,-14.75,0.25,-0.63,0.06,-0.11,0.00,0.00,1.54
16171,-8.44,91.00,22.62,-2.50,-16.75,0.44,-0.61,0.03,-0.08,0.00,0.00,1.57
16180,-8.50,91.00,22.38,-2.88,-18.75,0.56,-0.62,-0.04,-0.11,0.00,0.00,1.53
16190,-8.56,91.00,22.06,-3.00,-20.62,0.62,-0.61,-0.06,-0.14,0.00,0.00,1.54
16201,-8.62,91.06,21.81,-3.19,-22.44,0.69,-0.58,-0.06,-0.17,0.00,0.00,1.56
16232,-8.81,91.06,20.81,-3.69,-28.62,1.12,-0.47,0.00,-0.15,0.00,0.00,1.55
16243,-8.88,91.06,20.50,-3.88,-30.19,1.12,-0.43,-0.01,-0.18,0.00,0.00,1.55
16255,-8.94,91.06,20.12,-4.19,-32.12,1.50,-0.44,-0.06,-0.22,0.00,0.00,1.13
16271,-9.00,91.06,19.75,-4.62,-35.56,1.56,-0.40,-0.07,-0.22,0.00,0.00,0.87
16280,-9.06,91.06,18.94,-4.81,-37.44,1.62,-0.36,-0.04,-0.22,0.00,0.00,1.14
16289,-9.12,91.06,18.50,-4.69,-39.31,1.81,-0.32,-0.02,-0.27,0.00,0.00,0.69
16299,-9.12,91.06,18.06,-5.12,-41.00,1.81,-0.29,-0.01,-0.29,0.00,0.00,1.42
16308,-9.19,91.06,17.62,-5.25,-42.56,1.88,-0.29,-0.01,-0.30,0.00,0.00,0.98
16318,-9.25,91.06,17.12,-5.44,-44.31,2.00,-0.28,-0.05,-0.29,0.00,0.00,1.12
16327,-9.25,91.06,17.12,-5.69,-45.75,2.00,-0.25,-0.12,-0.32,0.00,0.00,1.55
16335,-9.31,91.06,16.62,-5.69,-45.75,2.00,-0.19,-0.13,-0.35,0.00,0.00,1.60
16345,-9.31,91.06,16.12,-5.75,-47.62,2.00,-0.20,-0.11,-0.37,0.00,0.00,1.63
16358,-9.38,91.12,15.62,-5.88,-49.25,2.00,-0.15,-0.09,-0.37,0.00,0.00,1.51
16389,-9.50,91.06,13.38,-6.50,-54.94,1.62,-0.03,-0.06,-0.43,0.00,0.00,0.28
16401,-9.56,91.06,12.81,-6.69,-56.38,1.56,-0.02,-0.11,-0.45,0.00,0.00,0.39
16409,-9.56,91.06,12.25,-6.75,-57.56,1.50,0.01,-0.15,-0.49,0.00,0.00,0.33
16420,-9.56,91.06,11.62,-6.88,-58.94,1.44,0.03,-0.16,-0.49,0.00,0.00,0.54
16428,-9.62,91.06,11.06,-7.12,-60.06,1.25,0.07,-0.14,-0.50,0.00,0.00,0.30
16437,-9.62,91.06,11.06,-7.12,-60.06,1.25,0.09,-0.15,-0.56,0.00,0.00,0.32
16447,-9.62,91.06,10.44,-7.12,-62.56,1.06,0.14,-0.14,-0.55,0.00,0.00,0.14
16459,-9.62,91.06,9.81,-7.25,-63.62,1.00,0.17,-0.15,-0.58,0.00,0.00,0.20
16468,-9.69,91.06,8.50,-7.25,-64.62,1.00,0.19,-0.13,-0.61,0.00,0.00,0.62
16480,-9.69,91.06,8.50,-7.19,-65.62,0.75,0.24,-0.12,-0.59,0.00,0.00,1.47
16488,-9.69,91.06,7.25,-7.25,-66.56,0.75,0.32,-0.14,-0.62,0.00,0.00,1.49
16500,-9.69,91.06,7.25,-7.50,-67.44,0.81,0.32,-0.15,-0.66,0.00,0.00,1.47
16508,-9.69,91.12,5.94,-7.50,-68.31,0.69,0.35,-0.19,-0.64,0.00,0.00,1.45
16517,-9.69,91.12,5.94,-7.50,-69.31,0.81,0.41,-0.23,-0.66,0.00,0.00,1.47
16549,-9.56,91.19,3.25,-7.44,-71.31,0.75,0.51,-0.10,-0.71,0.00,0.00,0.88
16559,-9.56,91.19,3.25,-7.50,-71.56,0.75,0.56,-0.06,-0.69,0.00,0.00,0.88
16569,-9.56,91.19,2.62,-7.38,-72.12,0.81,0.57,-0.13,-0.68,0.00,0.00,0.78
16579,-9.50,91.19,1.94,-7.38,-72.12,0.81,0.59,-0.30,-0.69,0.00,0.00,0.74
16590,-9.50,91.25,1.25,-7.44,-72.69,0.94,0.60,-0.41,-0.71,0.00,0.00,0.90
16604,-9.44,91.25,-0.06,-7.19,-73.19,0.88,0.67,-0.23,-0.75,0.00,0.00,1.08
16616,-9.38,91.31,-0.75,-7.19,-73.62,1.00,0.70,-0.12,-0.72,0.00,0.00,1.73
