Time,sensPitch,sensRoll,sensYaw,xGyro,yGyro,ZGyro,xAcc,yAcc,zAcc,latitude,longitude,altitude
6040,-86.50,-179.00,1.81,-4.44,6.31,-0.75,0.14,0.06,-0.05,0.00,0.00,0.14
6048,-86.44,-179.00,1.75,-4.50,6.38,-0.62,0.09,0.04,-0.07,0.00,0.00,0.07
6058,-86.44,-179.00,1.75,-4.50,6.38,-0.62,0.04,0.06,-0.04,0.00,0.00,0.09
6067,-86.38,-179.00,1.69,-4.38,6.25,-0.75,-0.05,0.03,-0.04,0.00,0.00,0.12
6080,-86.31,-179.00,1.69,-4.38,6.25,-0.88,-0.10,0.04,-0.03,0.00,0.00,0.13
6088,-86.19,-179.06,1.56,-4.50,5.88,-1.00,-0.15,0.06,-0.04,0.00,0.00,0.10
6098,-86.19,-179.06,1.56,-4.50,5.88,-1.00,-0.18,0.07,-0.05,0.00,0.00,0.07
6106,-86.19,-179.06,1.56,-4.38,5.56,-0.94,-0.25,0.06,-0.04,0.00,0.00,0.07
6120,-86.12,-179.06,1.50,-4.25,4.94,-0.75,-0.29,0.04,-0.03,0.00,0.00,0.12
6129,-86.06,-179.06,1.44,-4.31,3.88,-0.88,-0.31,0.05,-0.06,0.00,0.00,0.09
6142,-86.06,-179.06,1.44,-4.44,3.06,-0.75,-0.34,0.03,-0.05,0.00,0.00,0.12
6150,-86.00,-179.06,1.38,-4.31,2.62,-0.69,-0.35,0.05,-0.05,0.00,0.00,0.09
6160,-86.00,-179.06,1.38,-4.44,1.88,-0.75,-0.38,0.05,-0.03,0.00,0.00,0.14
6913,-86.88,-179.00,-0.12,1.06,-3.12,0.06,0.58,-0.07,-0.01,0.00,0.00,6.23
6924,-86.88,-179.00,-0.12,0.94,-2.62,0.38,0.59,-0.08,-0.04,0.00,0.00,6.26
6934,-86.88,-179.00,-0.12,1.12,-1.62,0.19,0.60,-0.06,-0.03,0.00,0.00,6.21
6946,-86.94,-179.00,-0.06,1.50,-0.25,0.25,0.59,-0.07,-0.04,0.00,0.00,6.28
6955,-86.94,-179.00,-0.06,1.62,0.25,0.00,0.60,-0.08,0.00,0.00,0.00,0.05
6964,-86.94,-179.00,-0.06,1.62,0.25,0.00,0.58,-0.05,-0.03,0.00,0.00,0.05
6974,-86.88,-179.00,-0.06,1.62,1.06,0.06,0.55,-0.06,-0.04,0.00,0.00,0.04
6985,-86.88,-179.00,0.00,1.94,1.75,0.06,0.51,-0.03,-0.03,0.00,0.00,0.08
6995,-86.88,-179.00,0.00,2.06,2.88,-0.06,0.48,-0.06,-0.04,0.00,0.00,0.05
7005,-86.81,-179.00,0.00,2.06,2.88,-0.06,0.47,-0.04,-0.04,0.00,0.00,0.04
7014,-86.81,-179.06,0.06,2.19,3.50,-0.12,0.47,-0.04,-0.04,0.00,0.00,0.05
7025,-86.75,-179.06,0.06,2.44,4.19,0.06,0.34,-0.04,-0.05,0.00,0.00,0.05
7035,-86.75,-179.06,0.12,2.69,4.75,0.00,0.29,-0.02,-0.05,0.00,0.00,0.05
7049,-86.69,-179.06,0.12,2.69,5.19,-0.12,0.22,-0.03,-0.07,0.00,0.00,0.13
7084,-86.50,-179.06,0.25,3.00,5.38,-0.12,0.07,-0.01,-0.08,0.00,0.00,0.10
7096,-86.44,-179.06,0.25,2.88,5.44,-0.12,-0.03,-0.01,-0.07,0.00,0.00,0.12
7104,-86.38,-179.06,0.31,3.06,5.31,-0.12,-0.03,-0.01,-0.07,0.00,0.00,0.17
7112,-86.31,-179.06,0.31,3.06,5.19,0.00,-0.10,0.00,-0.05,0.00,0.00,0.10
7121,-86.25,-179.06,0.38,3.12,4.94,-0.12,-0.12,0.00,-0.06,0.00,0.00,0.04
7131,-86.25,-179.06,0.38,3.12,4.62,0.12,-0.19,0.00,-0.08,0.00,0.00,0.05
7142,-86.19,-179.06,0.44,3.19,4.12,0.06,-0.22,0.00,-0.08,0.00,0.00,0.04
7151,-86.19,-179.06,0.44,3.50,3.69,0.00,-0.21,0.00,-0.09,0.00,0.00,0.08
7159,-86.12,-179.06,0.50,3.31,3.12,0.19,-0.26,0.00,-0.04,0.00,0.00,0.13
7167,-86.12,-179.06,0.50,3.19,2.56,0.19,-0.31,0.02,-0.07,0.00,0.00,0.08
7177,-86.12,-179.06,0.50,3.25,1.75,0.12,-0.31,0.03,-0.05,0.00,0.00,0.05
7186,-86.06,-179.06,0.56,3.31,1.06,0.31,-0.33,0.03,-0.06,0.00,0.00,0.10
7196,-86.06,-179.06,0.56,3.31,1.06,0.31,-0.32,0.02,-0.06,0.00,0.00,0.10
7205,-86.06,-179.06,0.62,3.31,0.38,0.38,-0.32,0.02,-0.06,0.00,0.00,0.13
7236,-86.12,-179.06,0.75,3.44,-2.50,0.50,-0.25,0.02,-0.06,0.00,0.00,0.08
7246,-86.12,-179.06,0.75,3.44,-2.50,0.50,-0.19,0.03,-0.05,0.00,0.00,0.08
7255,-86.19,-179.06,0.81,3.56,-3.00,0.56,-0.19,0.03,-0.05,0.00,0.00,0.10
7264,-86.19,-179.06,0.88,3.38,-3.50,0.50,-0.17,0.03,-0.04,0.00,0.00,0.09
7276,-86.25,-179.06,0.88,3.50,-4.00,0.44,-0.15,0.03,-0.05,0.00,0.00,0.12
7287,-86.25,-179.06,0.94,3.56,-4.50,0.50,-0.04,0.04,-0.05,0.00,0.00,0.07
7297,-86.31,-179.06,0.94,3.62,-4.88,0.56,0.00,0.03,-0.07,0.00,0.00,0.05
7308,-86.38,-179.06,1.00,3.56,-5.31,0.62,0.00,0.03,-0.07,0.00,0.00,0.08
7317,-86.44,-179.06,1.00,3.62,-5.38,0.75,0.08,0.04,-0.04,0.00,0.00,0.13
7327,-86.50,-179.06,1.06,3.62,-5.94,0.69,0.18,0.04,-0.08,0.00,0.00,0.04
7337,-86.50,-179.06,1.06,3.75,-5.81,0.62,0.21,0.05,-0.04,0.00,0.00,0.10
7347,-86.56,-179.06,1.12,3.75,-5.88,0.81,0.26,0.05,-0.03,0.00,0.00,0.04
7356,-86.62,-179.06,1.12,3.81,-5.50,0.62,0.26,0.05,-0.03,0.00,0.00,0.05
7365,-86.69,-179.06,1.19,3.88,-5.38,0.81,0.35,0.03,-0.02,0.00,0.00,0.05
7412,-86.88,-179.06,1.38,4.31,-3.88,0.56,0.52,0.04,-0.02,0.00,0.00,0.05
7423,-86.94,-179.06,1.44,4.19,-3.25,0.56,0.54,0.06,-0.04,0.00,0.00,0.05
7433,-86.94,-179.06,1.50,4.50,-2.75,0.50,0.54,0.05,-0.06,0.00,0.00,0.08
7442,-86.94,-179.06,1.50,4.38,-1.81,0.44,0.56,0.04,-0.05,0.00,0.00,0.10
7454,-87.00,-179.06,1.56,4.62,-1.25,0.38,0.56,0.05,-0.07,0.00,0.00,0.05
7462,-87.00,-179.06,1.62,4.69,-0.81,0.38,0.55,0.03,-0.05,0.00,0.00,0.12
7473,-87.00,-179.06,1.69,4.69,-0.06,0.38,0.54,0.07,-0.03,0.00,0.00,0.12
7482,-87.00,-179.06,1.75,4.88,0.62,0.19,0.53,0.06,-0.09,0.00,0.00,0.15
7492,-86.94,-179.06,1.75,4.88,1.25,0.38,0.50,0.05,-0.07,0.00,0.00,0.08
7501,-86.94,-179.06,1.81,4.88,1.81,0.38,0.49,0.06,-0.06,0.00,0.00,0.12
7512,-86.94,-179.06,1.81,5.12,2.75,0.25,0.46,0.07,-0.02,0.00,0.00,0.08
7520,-86.88,-179.06,1.94,5.12,2.75,0.25,0.39,0.07,-0.06,0.00,0.00,0.10
7532,-86.88,-179.06,1.94,5.31,3.25,0.12,0.37,0.08,-0.07,0.00,0.00,0.14
7540,-86.81,-179.06,2.06,5.25,3.81,0.12,0.32,0.07,-0.05,0.00,0.00,0.10
7574,-86.69,-179.12,2.19,5.31,4.44,0.19,0.15,0.09,-0.08,0.00,0.00,0.14
7583,-86.69,-179.12,2.25,5.38,4.56,0.19,0.11,0.10,-0.08,0.00,0.00,0.10
7594,-86.62,-179.12,2.31,5.44,4.56,0.19,0.07,0.07,-0.08,0.00,0.00,0.14
7602,-86.56,-179.12,2.38,5.38,4.19,0.12,-0.01,0.09,-0.08,0.00,0.00,0.13
7610,-86.56,-179.12,2.44,5.38,4.06,0.25,-0.03,0.09,-0.09,0.00,0.00,0.15
7619,-86.56,-179.12,2.44,5.38,4.06,0.25,-0.08,0.09,-0.09,0.00,0.00,0.08
7630,-86.50,-179.12,2.50,5.38,4.06,0.25,-0.09,0.10,-0.08,0.00,0.00,0.18
7640,-86.50,-179.12,2.50,5.56,3.19,0.19,-0.18,0.10,-0.10,0.00,0.00,0.12
7650,-86.44,-179.12,2.56,5.44,2.62,0.25,-0.21,0.09,-0.10,0.00,0.00,0.12
7659,-86.44,-179.12,2.62,5.44,2.62,0.25,-0.22,0.10,-0.10,0.00,0.00,0.10
7667,-86.38,-179.12,2.69,5.50,2.00,0.31,-0.22,0.10,-0.10,0.00,0.00,0.14
7678,-86.38,-179.12,2.75,5.31,1.25,0.25,-0.25,0.11,-0.08,0.00,0.00,0.13
7689,-86.38,-179.12,2.81,5.19,0.81,0.19,-0.25,0.12,-0.10,0.00,0.00,0.04
7701,-86.38,-179.12,2.88,5.19,0.19,0.38,-0.26,0.12,-0.06,0.00,0.00,0.17
7732,-86.44,-179.12,3.06,5.00,-2.50,0.38,-0.23,0.12,-0.15,0.00,0.00,0.12
7742,-86.44,-179.12,3.06,4.94,-2.94,0.50,-0.21,0.11,-0.10,0.00,0.00,0.10
7751,-86.44,-179.12,3.12,4.94,-3.50,0.38,-0.21,0.13,-0.09,0.00,0.00,0.13
7760,-86.50,-179.12,3.19,4.94,-3.50,0.38,-0.21,0.13,-0.09,0.00,0.00,0.12
7768,-86.50,-179.12,3.25,4.88,-4.00,0.50,-0.17,0.10,-0.10,0.00,0.00,0.12
7781,-86.56,-179.19,3.25,4.75,-4.69,0.50,-0.12,0.12,-0.12,0.00,0.00,0.12
7791,-86.62,-179.19,3.31,4.75,-5.44,0.56,-0.03,0.11,-0.12,0.00,0.00,0.12
7804,-86.69,-179.19,3.38,4.62,-5.75,0.62,0.00,0.11,-0.10,0.00,0.00,0.04
7813,-86.75,-179.19,3.50,4.69,-5.75,0.56,0.04,0.12,-0.08,0.00,0.00,0.08
7825,-86.75,-179.19,3.50,4.62,-5.69,0.50,0.08,0.11,-0.09,0.00,0.00,0.05
7834,-86.88,-179.19,3.56,4.62,-5.94,0.56,0.17,0.10,-0.11,0.00,0.00,0.09
7845,-86.94,-179.19,3.62,4.50,-6.00,0.56,0.21,0.10,-0.11,0.00,0.00,0.10
7853,-87.00,-179.19,3.69,4.69,-5.88,0.44,0.24,0.11,-0.11,0.00,0.00,0.17
7867,-87.00,-179.19,3.69,4.50,-5.62,0.56,0.28,0.09,-0.12,0.00,0.00,0.13
7902,-87.19,-179.19,3.88,4.69,-4.69,0.44,0.42,0.11,-0.09,0.00,0.00,0.14
7911,-87.25,-179.19,3.88,4.56,-4.12,0.31,0.45,0.11,-0.09,0.00,0.00,0.08
7920,-87.25,-179.19,3.94,4.69,-3.75,0.31,0.50,0.10,-0.12,0.00,0.00,0.07
7932,-87.31,-179.19,4.00,4.69,-3.06,0.19,0.50,0.10,-0.07,0.00,0.00,0.08
7942,-87.31,-179.19,4.06,4.56,-2.00,0.25,0.55,0.10,-0.10,0.00,0.00,0.13
7954,-87.31,-179.19,4.06,4.56,-2.00,0.25,0.55,0.10,-0.08,0.00,0.00,0.08
7963,-87.38,-179.19,4.12,4.62,-0.81,0.38,0.55,0.11,-0.07,0.00,0.00,0.12
7975,-87.38,-179.19,4.19,4.62,-0.81,0.38,0.55,0.11,-0.07,0.00,0.00,0.10
7984,-87.38,-179.19,4.31,4.75,0.50,0.19,0.54,0.10,-0.13,0.00,0.00,0.05
7996,-87.38,-179.19,4.31,4.75,1.12,0.12,0.51,0.09,-0.11,0.00,0.00,0.07
8004,-87.31,-179.19,4.38,4.75,1.69,0.06,0.49,0.08,-0.11,0.00,0.00,0.13
8015,-87.31,-179.19,4.38,4.75,1.69,0.06,0.47,0.09,-0.08,0.00,0.00,0.12
8024,-87.31,-179.19,4.44,4.88,2.56,0.12,0.39,0.09,-0.13,0.00,0.00,0.10
8034,-87.31,-179.19,4.50,4.75,3.06,0.19,0.37,0.12,-0.12,0.00,0.00,0.14
8066,-87.19,-179.19,4.69,4.69,3.81,0.00,0.25,0.10,-0.09,0.00,0.00,0.14
8075,-87.12,-179.19,4.75,4.62,4.06,0.12,0.19,0.09,-0.12,0.00,0.00,0.14
8087,-87.12,-179.19,4.75,4.69,4.12,0.25,0.14,0.11,-0.14,0.00,0.00,0.15
8095,-87.06,-179.25,4.81,4.56,4.06,-0.06,0.09,0.08,-0.13,0.00,0.00,0.18
8108,-87.00,-179.25,4.88,4.56,4.19,0.06,0.03,0.10,-0.14,0.00,0.00,0.14
8116,-86.94,-179.25,4.88,4.44,4.19,0.06,0.00,0.11,-0.14,0.00,0.00,0.12
8126,-86.94,-179.25,4.94,4.31,3.62,0.06,-0.04,0.10,-0.15,0.00,0.00,0.12
8134,-86.94,-179.25,4.94,4.25,3.44,0.06,-0.06,0.10,-0.16,0.00,0.00,0.13
8143,-86.88,-179.25,5.00,4.12,2.94,0.12,-0.14,0.09,-0.12,0.00,0.00,0.13
8154,-86.88,-179.25,5.06,4.12,2.94,0.12,-0.14,0.10,-0.15,0.00,0.00,0.13
8164,-86.88,-179.25,5.06,4.12,2.50,0.06,-0.14,0.10,-0.15,0.00,0.00,0.08
8172,-86.81,-179.25,5.12,3.94,2.19,0.12,-0.17,0.09,-0.14,0.00,0.00,0.07
8187,-86.81,-179.25,5.19,3.88,1.88,0.19,-0.23,0.09,-0.17,0.00,0.00,0.17
8195,-86.81,-179.25,5.25,3.81,0.56,0.06,-0.24,0.10,-0.14,0.00,0.00,0.09
8230,-86.81,-179.25,5.38,3.56,-0.88,0.31,-0.24,0.10,-0.14,0.00,0.00,0.12
8239,-86.81,-179.25,5.38,3.31,-1.62,0.12,-0.22,0.09,-0.16,0.00,0.00,0.08
8251,-86.81,-179.25,5.44,3.12,-2.12,0.38,-0.23,0.10,-0.12,0.00,0.00,0.12
8260,-86.88,-179.25,5.44,3.06,-2.75,0.38,-0.21,0.07,-0.14,0.00,0.00,0.08
8272,-86.88,-179.25,5.50,3.06,-3.31,0.25,-0.16,0.07,-0.14,0.00,0.00,0.12
8284,-86.94,-179.25,5.50,2.94,-3.75,0.25,-0.12,0.08,-0.16,0.00,0.00,0.13
8299,-87.00,-179.25,5.56,2.88,-4.00,0.19,-0.07,0.09,-0.15,0.00,0.00,0.07
8312,-87.06,-179.25,5.56,2.44,-4.69,0.25,0.00,0.09,-0.17,0.00,0.00,0.10
8323,-87.12,-179.25,5.62,2.56,-5.06,0.31,0.04,0.10,-0.16,0.00,0.00,0.10
8335,-87.12,-179.25,5.62,2.38,-5.00,0.31,0.07,0.09,-0.14,0.00,0.00,0.13
8346,-87.19,-179.25,5.69,2.38,-4.94,0.19,0.18,0.07,-0.14,0.00,0.00,0.08
8356,-87.25,-179.25,5.69,2.19,-5.12,0.25,0.22,0.09,-0.12,0.00,0.00,0.13
8365,-87.31,-179.25,5.69,2.19,-5.12,0.25,0.26,0.07,-0.14,0.00,0.00,0.14
8374,-87.31,-179.25,5.75,2.06,-5.06,0.38,0.26,0.07,-0.14,0.00,0.00,0.14
8406,-87.44,-179.25,5.81,2.00,-3.69,0.19,0.42,0.05,-0.13,0.00,0.00,0.18
8415,-87.50,-179.25,5.81,2.00,-3.69,0.19,0.42,0.05,-0.13,0.00,0.00,0.27
8426,-87.50,-179.25,5.81,1.88,-3.38,0.12,0.46,0.08,-0.13,0.00,0.00,0.23
8437,-87.56,-179.25,5.88,1.81,-2.44,0.25,0.50,0.07,-0.16,0.00,0.00,0.27
8451,-87.56,-179.25,5.88,1.81,-1.81,0.25,0.52,0.09,-0.15,0.00,0.00,0.32
8459,-87.62,-179.25,5.94,1.69,-1.06,-0.06,0.52,0.07,-0.13,0.00,0.00,0.38
8469,-87.62,-179.25,5.94,1.56,-0.44,0.25,0.54,0.07,-0.14,0.00,0.00,0.39
8478,-87.62,-179.25,5.94,1.69,0.12,0.00,0.52,0.08,-0.13,0.00,0.00,0.37
8492,-87.62,-179.25,5.94,1.44,0.81,0.00,0.51,0.07,-0.13,0.00,0.00,0.32
8506,-87.56,-179.25,6.00,1.81,1.50,0.06,0.51,0.09,-0.15,0.00,0.00,0.37
8515,-87.56,-179.25,6.00,1.56,1.88,0.06,0.47,0.08,-0.14,0.00,0.00,0.35
8527,-87.56,-179.25,6.00,1.44,2.25,0.00,0.47,0.10,-0.11,0.00,0.00,0.32
8538,-87.50,-179.25,6.00,1.44,3.25,-0.06,0.38,0.08,-0.16,0.00,0.00,0.24
8550,-87.50,-179.25,6.06,1.19,3.62,-0.19,0.34,0.09,-0.15,0.00,0.00,0.25
8583,-87.31,-179.25,6.06,1.06,4.62,-0.12,0.19,0.08,-0.16,0.00,0.00,0.18
8592,-87.31,-179.25,6.12,1.19,4.31,-0.06,0.16,0.10,-0.16,0.00,0.00,0.12
8602,-87.25,-179.25,6.12,1.06,4.44,-0.19,0.13,0.09,-0.15,0.00,0.00,0.14
8613,-87.19,-179.25,6.12,0.94,4.50,0.00,0.09,0.08,-0.17,0.00,0.00,0.14
8621,-87.19,-179.25,6.12,0.75,4.38,-0.19,0.00,0.10,-0.16,0.00,0.00,0.18
8632,-87.12,-179.25,6.12,0.56,4.12,-0.19,0.00,0.10,-0.17,0.00,0.00,0.14
8640,-87.06,-179.31,6.12,0.62,4.00,-0.12,-0.02,0.10,-0.17,0.00,0.00,0.14
8649,-87.06,-179.31,6.12,0.50,3.88,-0.06,-0.10,0.09,-0.16,0.00,0.00,0.12
8658,-87.06,-179.31,6.12,0.38,3.25,-0.19,-0.14,0.09,-0.16,0.00,0.00,0.07
8667,-87.00,-179.31,6.12,0.38,3.25,-0.19,-0.14,0.09,-0.16,0.00,0.00,0.22
8675,-87.00,-179.31,6.12,0.31,2.88,0.06,-0.15,0.11,-0.16,0.00,0.00,0.15
8686,-87.00,-179.31,6.12,0.31,2.62,-0.19,-0.17,0.10,-0.14,0.00,0.00,0.13
8697,-86.94,-179.31,6.12,0.00,2.06,-0.12,-0.23,0.09,-0.16,0.00,0.00,0.10
8708,-86.94,-179.31,6.12,0.00,1.69,-0.12,-0.21,0.11,-0.16,0.00,0.00,0.14
8741,-86.94,-179.31,6.12,-0.56,-0.75,0.06,-0.23,0.10,-0.18,0.00,0.00,0.12
8749,-86.94,-179.25,6.12,-0.69,-1.38,0.06,-0.20,0.11,-0.16,0.00,0.00,0.10
8759,-86.94,-179.25,6.12,-1.00,-1.75,0.06,-0.18,0.12,-0.17,0.00,0.00,0.08
8767,-86.94,-179.25,6.12,-1.00,-1.75,0.06,-0.18,0.12,-0.17,0.00,0.00,0.15
8775,-87.00,-179.25,6.12,-0.94,-2.12,0.12,-0.15,0.11,-0.15,0.00,0.00,0.10
8789,-87.00,-179.25,6.06,-0.88,-2.62,0.00,-0.14,0.13,-0.17,0.00,0.00,0.12
8799,-87.06,-179.25,6.06,-1.19,-3.44,0.00,-0.07,0.10,-0.17,0.00,0.00,0.12
8813,-87.06,-179.25,6.06,-1.38,-3.69,0.00,0.00,0.14,-0.16,0.00,0.00,0.10
8822,-87.12,-179.25,6.06,-1.56,-3.94,-0.12,0.01,0.13,-0.12,0.00,0.00,0.15
8834,-87.19,-179.25,6.00,-1.56,-3.88,0.06,0.05,0.12,-0.12,0.00,0.00,0.09
8844,-87.19,-179.25,6.00,-1.75,-4.25,-0.12,0.08,0.11,-0.16,0.00,0.00,0.12
8855,-87.25,-179.25,6.00,-1.81,-4.25,0.00,0.16,0.12,-0.15,0.00,0.00,0.15
8863,-87.31,-179.25,6.00,-1.94,-4.38,0.12,0.19,0.12,-0.14,0.00,0.00,0.10
8872,-87.31,-179.25,5.94,-1.94,-4.19,0.12,0.21,0.11,-0.14,0.00,0.00,0.13
8903,-87.44,-179.25,5.88,-2.25,-3.31,0.00,0.37,0.12,-0.13,0.00,0.00,0.10
8912,-87.50,-179.25,5.88,-2.25,-3.06,0.00,0.39,0.12,-0.17,0.00,0.00,0.05
8921,-87.50,-179.25,5.88,-2.06,-3.00,-0.06,0.21,0.06,-0.16,0.00,0.00,0.10
8931,-87.50,-179.25,5.88,-2.06,-3.00,-0.06,0.23,0.10,-0.23,0.00,0.00,0.10
8941,-87.50,-179.25,5.81,-2.19,-2.75,-0.19,0.08,0.04,-0.25,0.00,0.00,0.12
8950,-87.50,-179.25,5.81,-2.19,-2.50,-0.12,0.02,0.07,-0.24,0.00,0.00,0.12
8961,-87.56,-179.25,5.75,-2.19,-2.75,-0.06,0.06,0.06,-0.26,0.00,0.00,0.10
8973,-87.56,-179.25,5.75,-2.19,-2.75,-0.06,0.06,0.06,-0.26,0.00,0.00,0.07
8981,-87.56,-179.25,5.69,-1.81,-3.00,-0.12,0.03,0.07,-0.26,0.00,0.00,0.05
8994,-87.56,-179.25,5.69,-1.69,-3.31,-0.19,0.10,0.08,-0.21,0.00,0.00,0.09
9003,-87.62,-179.25,5.62,-1.62,-3.12,-0.19,0.38,0.07,-0.19,0.00,0.00,0.12
9013,-87.62,-179.25,5.62,-1.56,-2.94,-0.19,0.35,0.07,-0.17,0.00,0.00,0.14
9022,-87.62,-179.25,5.62,-1.38,-2.69,-0.06,0.48,0.06,-0.18,0.00,0.00,0.12
9056,-87.69,-179.25,5.56,-0.88,-0.94,0.00,0.52,0.08,-0.17,0.00,0.00,0.13
9065,-87.69,-179.25,5.56,-0.81,-0.19,0.12,0.64,0.08,-0.15,0.00,0.00,0.07
9076,-87.69,-179.25,5.56,-0.75,0.50,0.12,0.64,0.09,-0.17,0.00,0.00,0.09
9085,-87.69,-179.19,5.56,-0.75,1.19,0.06,0.53,0.09,-0.14,0.00,0.00,0.14
9095,-87.62,-179.19,5.56,-0.56,1.62,0.12,0.65,0.10,-0.16,0.00,0.00,0.14
9103,-87.62,-179.19,5.56,-0.50,2.38,0.00,0.59,0.07,-0.18,0.00,0.00,0.09
9113,-87.62,-179.19,5.56,-0.25,3.00,-0.25,0.47,0.09,-0.13,0.00,0.00,0.15
9123,-87.56,-179.19,5.56,-0.25,3.00,-0.25,0.50,0.07,-0.15,0.00,0.00,0.14
9132,-87.50,-179.19,5.56,-0.06,4.44,-0.44,0.49,0.04,-0.18,0.00,0.00,0.08
9144,-87.50,-179.19,5.50,-0.06,4.44,-0.44,0.34,0.02,-0.20,0.00,0.00,0.09
9153,-87.38,-179.19,5.50,0.31,5.12,-0.50,0.35,0.03,-0.15,0.00,0.00,0.18
9165,-87.38,-179.19,5.50,0.38,5.44,-0.38,0.46,0.00,-0.17,0.00,0.00,0.10
9174,-87.25,-179.19,5.56,0.88,5.75,-0.19,0.33,-0.04,-0.16,0.00,0.00,0.09
9183,-87.25,-179.19,5.56,1.06,5.94,-0.12,0.31,-0.04,-0.15,0.00,0.00,0.12
9214,-87.00,-179.19,5.62,2.12,7.12,0.12,0.25,-0.10,-0.13,0.00,0.00,0.12
9225,-87.00,-179.19,5.62,2.12,7.12,0.12,0.29,-0.13,-0.13,0.00,0.00,0.08
9233,-86.81,-179.19,5.69,2.81,7.44,0.06,0.24,-0.16,-0.13,0.00,0.00,0.09
9243,-86.81,-179.19,5.69,3.12,7.38,-0.06,0.08,-0.15,-0.15,0.00,0.00,0.09
9253,-86.75,-179.25,5.69,3.56,7.50,-0.12,0.05,-0.17,-0.16,0.00,0.00,0.09
9263,-86.69,-179.25,5.75,4.12,7.44,-0.19,0.00,-0.15,-0.16,0.00,0.00,0.10
9272,-86.62,-179.25,5.81,4.12,7.44,-0.19,0.00,-0.15,-0.16,0.00,0.00,0.07
9280,-86.56,-179.25,5.81,4.44,6.88,-0.31,-0.14,-0.16,-0.15,0.00,0.00,0.07
9292,-86.50,-179.25,5.88,5.00,6.44,-0.31,-0.34,-0.17,-0.19,0.00,0.00,0.09
9305,-86.44,-179.25,5.94,5.44,5.69,-0.12,-0.51,-0.17,-0.23,0.00,0.00,0.13
9314,-86.38,-179.25,6.00,6.31,3.88,-0.06,-0.55,-0.15,-0.23,0.00,0.00,0.12
9326,-86.38,-179.25,6.06,6.31,3.88,-0.06,-0.55,-0.10,-0.22,0.00,0.00,0.12
9335,-86.31,-179.25,6.19,7.12,1.81,0.19,-0.59,-0.14,-0.23,0.00,0.00,0.12
9347,-86.31,-179.25,6.19,7.50,0.56,0.50,-0.64,-0.17,-0.25,0.00,0.00,0.14
9378,-86.31,-179.31,6.56,8.56,-3.25,0.88,-0.57,-0.13,-0.22,0.00,0.00,0.90
9387,-86.38,-179.31,6.62,8.94,-4.12,0.94,-0.47,-0.12,-0.22,0.00,0.00,1.28
9395,-86.38,-179.31,6.75,9.44,-5.25,0.75,-0.30,-0.15,-0.20,0.00,0.00,1.42
9404,-86.38,-179.31,6.75,9.81,-5.69,0.94,-0.22,-0.13,-0.18,0.00,0.00,1.47
9416,-86.44,-179.31,6.81,9.81,-5.69,0.94,-0.14,-0.16,-0.18,0.00,0.00,1.49
9424,-86.50,-179.31,6.94,10.56,-6.88,0.94,-0.01,-0.19,-0.18,0.00,0.00,1.49
9433,-86.56,-179.31,7.06,10.56,-6.88,0.94,-0.01,-0.19,-0.18,0.00,0.00,1.47
9443,-86.62,-179.31,7.12,11.00,-7.25,0.88,0.23,-0.17,-0.16,0.00,0.00,1.48
9456,-86.69,-179.31,7.25,11.19,-7.19,0.75,0.31,-0.21,-0.18,0.00,0.00,1.49
9464,-86.75,-179.25,7.38,12.12,-6.69,0.94,0.37,-0.21,-0.17,0.00,0.00,1.48
9475,-86.81,-179.25,7.50,12.12,-6.69,0.94,0.37,-0.21,-0.17,0.00,0.00,1.49
9483,-86.88,-179.25,7.56,12.62,-6.56,1.19,0.43,-0.20,-0.12,0.00,0.00,1.49
9493,-86.94,-179.25,7.69,13.00,-6.00,1.12,0.48,-0.23,-0.19,0.00,0.00,1.48
9504,-87.00,-179.25,7.81,13.44,-5.50,1.12,0.41,-0.24,-0.17,0.00,0.00,1.41
9536,-87.12,-179.25,8.25,15.31,-3.75,1.38,0.44,-0.29,-0.21,0.00,0.00,1.36
9545,-87.12,-179.31,8.44,15.94,-3.25,1.25,0.47,-0.27,-0.19,0.00,0.00,1.31
9556,-87.19,-179.31,8.62,15.94,-3.25,1.25,0.54,-0.27,-0.17,0.00,0.00,1.15
9566,-87.19,-179.31,8.81,17.00,-1.94,1.19,0.51,-0.27,-0.19,0.00,0.00,1.10
9575,-87.19,-179.31,8.94,17.00,-1.94,1.19,0.47,-0.26,-0.18,0.00,0.00,1.04
9583,-87.19,-179.38,9.12,17.38,-1.62,1.25,0.47,-0.26,-0.18,0.00,0.00,1.03
9594,-87.19,-179.38,9.31,17.50,-1.25,1.19,0.45,-0.26,-0.20,0.00,0.00,0.97
9608,-87.19,-179.38,9.56,18.12,-0.69,1.12,0.17,-0.24,-0.25,0.00,0.00,0.74
9617,-87.12,-179.44,9.94,18.94,0.00,1.12,0.19,-0.26,-0.25,0.00,0.00,0.68
9628,-87.12,-179.44,9.94,18.94,0.00,1.12,0.00,-0.27,-0.27,0.00,0.00,0.65
9636,-87.12,-179.44,10.12,19.75,-0.38,1.25,-0.01,-0.25,-0.29,0.00,0.00,0.68
9646,-87.12,-179.44,10.31,20.19,-0.50,1.25,0.02,-0.25,-0.31,0.00,0.00,0.65
9655,-87.12,-179.44,10.50,20.19,-0.50,1.25,-0.01,-0.25,-0.32,0.00,0.00,0.56
9689,-87.06,-179.44,11.12,21.94,-1.69,1.81,-0.06,-0.27,-0.32,0.00,0.00,1.03
9697,-87.06,-179.44,11.62,22.31,-2.12,1.75,-0.15,-0.23,-0.31,0.00,0.00,1.00
9709,-87.06,-179.44,11.62,22.81,-2.44,1.69,0.07,-0.21,-0.29,0.00,0.00,1.02
9717,-87.06,-179.50,12.06,23.12,-2.62,1.56,0.11,-0.20,-0.30,0.00,0.00,1.02
9726,-87.06,-179.50,12.06,23.12,-2.62,1.56,0.11,-0.20,-0.30,0.00,0.00,1.03
9734,-87.06,-179.50,12.31,23.44,-2.75,1.69,0.05,-0.16,-0.27,0.00,0.00,1.04
9743,-87.12,-179.50,12.56,23.81,-2.88,1.75,0.10,-0.17,-0.25,0.00,0.00,1.01
9753,-87.12,-179.50,12.81,24.00,-3.06,1.50,0.19,-0.14,-0.26,0.00,0.00,1.03
9764,-87.12,-179.50,13.00,24.50,-2.94,1.69,0.12,-0.12,-0.26,0.00,0.00,1.00
9772,-87.12,-179.50,13.25,24.75,-3.00,1.75,0.11,-0.14,-0.27,0.00,0.00,1.02
9784,-87.12,-179.50,13.50,24.94,-2.94,1.94,0.18,-0.14,-0.29,0.00,0.00,1.03
9794,-87.19,-179.50,13.75,25.38,-2.94,2.00,0.06,-0.14,-0.27,0.00,0.00,1.02
9805,-87.19,-179.50,14.00,25.56,-2.81,2.00,0.08,-0.14,-0.32,0.00,0.00,1.02
9816,-87.19,-179.50,14.25,25.81,-3.06,2.00,0.09,-0.14,-0.30,0.00,0.00,1.04
9848,-87.19,-179.50,15.06,27.00,-4.00,2.12,-0.04,-0.21,-0.35,0.00,0.00,1.03
9857,-87.25,-179.50,15.31,27.31,-4.06,2.06,-0.06,-0.24,-0.35,0.00,0.00,1.02
9870,-87.25,-179.56,15.56,27.31,-4.06,2.06,0.09,-0.26,-0.35,0.00,0.00,1.01
9878,-87.25,-179.56,15.88,28.31,-4.56,2.06,0.10,-0.24,-0.33,0.00,0.00,1.00
9890,-87.25,-179.56,16.12,28.31,-4.56,2.06,0.10,-0.24,-0.33,0.00,0.00,1.02
9898,-87.31,-179.56,16.75,29.06,-4.75,1.88,0.16,-0.24,-0.36,0.00,0.00,1.03
9911,-87.31,-179.56,16.75,29.38,-4.75,1.94,0.12,-0.23,-0.37,0.00,0.00,1.02
9919,-87.38,-179.62,17.38,30.00,-4.69,1.88,0.07,-0.21,-0.36,0.00,0.00,1.03
9931,-87.38,-179.62,17.38,30.31,-4.94,2.00,0.08,-0.19,-0.38,0.00,0.00,1.07
9939,-87.38,-179.62,17.94,30.62,-4.88,1.94,0.12,-0.25,-0.39,0.00,0.00,1.04
9953,-87.38,-179.62,17.94,30.88,-4.94,2.12,0.08,-0.22,-0.39,0.00,0.00,1.02
9961,-87.44,-179.62,18.56,31.25,-5.12,2.00,0.17,-0.21,-0.41,0.00,0.00,1.04
9973,-87.44,-179.69,18.88,31.81,-5.12,2.06,0.21,-0.24,-0.39,0.00,0.00,1.04
10007,-87.50,-179.69,19.88,33.00,-4.75,2.12,0.21,-0.20,-0.37,0.00,0.00,1.05
10019,-87.50,-179.69,20.25,33.38,-4.62,2.00,0.18,-0.17,-0.41,0.00,0.00,1.03
10027,-87.50,-179.69,20.56,33.94,-4.44,1.94,0.18,-0.17,-0.41,0.00,0.00,1.05
10035,-87.50,-179.69,20.88,34.31,-4.56,2.00,0.18,-0.15,-0.40,0.00,0.00,1.05
10043,-87.56,-179.75,21.25,34.56,-4.38,1.75,0.07,-0.12,-0.40,0.00,0.00,1.05
10053,-87.56,-179.75,21.56,34.88,-4.38,1.81,0.05,-0.11,-0.44,0.00,0.00,1.05
10061,-87.56,-179.75,21.94,35.19,-4.69,1.75,0.19,-0.11,-0.41,0.00,0.00,1.08
10074,-87.56,-179.75,22.31,35.44,-4.38,1.75,0.19,-0.07,-0.39,0.00,0.00,1.05
10082,-87.62,-179.75,22.62,35.81,-4.50,1.62,0.22,-0.05,-0.37,0.00,0.00,1.08
10094,-87.62,-179.75,22.62,36.00,-4.19,1.81,0.33,-0.06,-0.42,0.00,0.00,1.04
10103,-87.62,-179.75,23.31,36.19,-4.00,1.81,0.36,-0.04,-0.41,0.00,0.00,1.05
10114,-87.62,-179.75,23.69,36.50,-3.81,2.12,0.36,-0.04,-0.42,0.00,0.00,1.07
10122,-87.62,-179.75,24.06,36.75,-3.56,2.06,0.39,-0.02,-0.38,0.00,0.00,1.09
10133,-87.62,-179.75,24.06,37.06,-3.25,2.19,0.40,0.00,-0.41,0.00,0.00,1.06
10165,-87.56,-179.69,25.44,37.69,-2.31,2.12,0.36,0.03,-0.38,0.00,0.00,1.05
10176,-87.56,-179.69,25.81,37.81,-1.88,2.00,0.30,0.05,-0.37,0.00,0.00,1.09
10184,-87.56,-179.69,26.19,38.00,-1.56,2.00,0.40,0.06,-0.36,0.00,0.00,1.09
10193,-87.50,-179.69,26.56,38.19,-0.94,1.88,0.39,0.05,-0.36,0.00,0.00,1.10
10201,-87.50,-179.69,26.94,38.25,-0.69,1.88,0.37,0.05,-0.35,0.00,0.00,1.07
10211,-87.50,-179.69,26.94,38.19,-0.31,1.88,0.39,0.08,-0.33,0.00,0.00,1.08
10220,-87.50,-179.69,27.25,38.44,-0.12,1.94,0.35,0.07,-0.35,0.00,0.00,1.08
10229,-87.44,-179.69,27.62,38.44,-0.12,1.94,0.35,0.07,-0.35,0.00,0.00,1.09
10240,-87.44,-179.69,28.00,38.38,0.06,2.19,0.25,0.09,-0.36,0.00,0.00,1.08
10250,-87.38,-179.62,28.38,38.50,0.69,2.06,0.11,0.13,-0.38,0.00,0.00,1.12
10264,-87.38,-179.62,28.75,38.50,0.56,2.12,0.06,0.15,-0.37,0.00,0.00,1.08
10272,-87.25,-179.62,29.44,38.56,0.38,2.38,0.04,0.15,-0.37,0.00,0.00,1.06
10280,-87.25,-179.62,29.44,38.56,0.38,2.38,0.00,0.15,-0.39,0.00,0.00,1.11
10313,-87.19,-179.56,30.50,38.00,-0.31,1.94,-0.08,0.21,-0.36,0.00,0.00,1.09
10322,-87.19,-179.56,30.88,37.75,-0.81,1.81,-0.11,0.23,-0.33,0.00,0.00,1.09
10334,-87.12,-179.50,31.19,37.75,-0.81,1.81,-0.05,0.24,-0.31,0.00,0.00,1.10
10342,-87.12,-179.50,31.56,37.19,-1.50,1.62,-0.04,0.27,-0.31,0.00,0.00,1.13
10355,-87.12,-179.50,31.88,37.00,-1.81,1.62,-0.03,0.30,-0.31,0.00,0.00,1.10
10363,-87.12,-179.44,32.56,36.56,-2.06,1.56,0.00,0.30,-0.26,0.00,0.00,1.14
10374,-87.12,-179.44,32.56,36.31,-2.06,1.56,0.06,0.33,-0.24,0.00,0.00,1.32
10382,-87.06,-179.44,32.94,35.81,-2.19,1.75,0.13,0.32,-0.23,0.00,0.00,1.81
10392,-87.06,-179.44,33.25,35.81,-2.19,1.75,0.13,0.32,-0.23,0.00,0.00,1.64
10403,-87.06,-179.44,33.56,35.50,-2.12,1.62,0.24,0.33,-0.23,0.00,0.00,1.62
10413,-87.06,-179.38,33.88,34.56,-2.38,1.69,0.21,0.36,-0.20,0.00,0.00,1.64
10424,-87.12,-179.38,34.19,34.19,-2.19,1.69,0.24,0.35,-0.19,0.00,0.00,1.47
10434,-87.12,-179.38,34.50,33.75,-2.12,1.62,0.21,0.36,-0.15,0.00,0.00,1.62
10466,-87.06,-179.25,35.69,32.38,-1.81,1.38,0.18,0.33,-0.18,0.00,0.00,1.74
10477,-87.06,-179.25,36.00,32.06,-1.62,1.12,0.25,0.36,-0.17,0.00,0.00,1.62
10486,-87.06,-179.25,36.31,31.62,-1.19,1.12,0.26,0.30,-0.20,0.00,0.00,1.68
10498,-87.06,-179.19,36.56,31.00,-1.31,1.25,0.29,0.31,-0.19,0.00,0.00,1.73
10508,-87.06,-179.19,36.88,30.50,-1.06,1.31,0.28,0.28,-0.17,0.00,0.00,1.65
10520,-87.06,-179.19,37.12,30.06,-1.12,1.38,0.23,0.27,-0.19,0.00,0.00,1.58
10529,-87.06,-179.19,37.38,29.75,-0.94,1.50,0.13,0.27,-0.17,0.00,0.00,1.63
10539,-87.00,-179.12,37.69,29.38,-0.88,1.44,0.06,0.26,-0.18,0.00,0.00,1.66
10548,-87.00,-179.12,37.94,28.88,-0.81,1.62,0.04,0.25,-0.22,0.00,0.00,1.63
10558,-87.00,-179.12,38.19,28.56,-1.06,1.50,0.00,0.24,-0.23,0.00,0.00,1.61
10568,-87.00,-179.12,38.44,28.25,-1.38,1.50,0.09,0.23,-0.19,0.00,0.00,1.58
10578,-87.00,-179.12,38.69,27.69,-1.38,1.25,0.13,0.22,-0.19,0.00,0.00,1.76
10587,-87.00,-179.06,38.94,27.31,-1.50,1.25,0.11,0.22,-0.17,0.00,0.00,1.66
10598,-87.00,-179.06,39.25,27.00,-1.75,1.31,0.11,0.22,-0.18,0.00,0.00,1.35
10630,-87.00,-179.06,39.94,25.88,-1.81,1.25,0.06,0.18,-0.19,0.00,0.00,1.73
10639,-87.00,-179.06,40.19,25.50,-1.62,1.12,0.09,0.19,-0.20,0.00,0.00,1.66
10652,-87.00,-179.06,40.44,25.44,-1.69,1.12,0.10,0.18,-0.19,0.00,0.00,1.54
10665,-87.00,-179.06,40.69,24.88,-1.81,1.38,0.16,0.16,-0.17,0.00,0.00,1.44
10680,-87.00,-179.00,40.88,24.44,-1.75,1.44,0.26,0.16,-0.16,0.00,0.00,1.27
10694,-87.00,-179.00,41.38,24.12,-1.69,1.38,0.27,0.16,-0.13,0.00,0.00,1.15
10706,-87.00,-179.00,41.56,23.81,-1.69,1.44,0.25,0.15,-0.16,0.00,0.00,1.07
10719,-87.00,-179.00,41.81,23.12,-1.06,1.56,0.16,0.16,-0.17,0.00,0.00,1.05
10728,-87.00,-178.94,42.25,23.00,-0.94,1.44,0.17,0.16,-0.16,0.00,0.00,0.94
10740,-87.00,-178.94,42.44,22.56,-0.94,1.38,0.20,0.16,-0.18,0.00,0.00,0.91
10749,-87.00,-178.94,42.62,22.25,-0.88,1.31,0.16,0.18,-0.15,0.00,0.00,0.83
10761,-87.00,-178.94,42.81,21.94,-0.88,1.44,0.12,0.20,-0.18,0.00,0.00,0.73
10771,-87.00,-178.94,43.06,21.56,-1.06,1.38,0.11,0.17,-0.18,0.00,0.00,0.69
10805,-87.00,-178.88,43.62,20.50,-1.44,1.94,-0.18,0.14,-0.22,0.00,0.00,0.57
10817,-87.00,-178.88,43.81,20.12,-2.00,1.88,-0.20,0.14,-0.22,0.00,0.00,0.59
10827,-87.00,-178.88,43.94,19.38,-2.75,1.69,-0.14,0.17,-0.20,0.00,0.00,0.56
10838,-87.00,-178.81,44.12,18.94,-3.25,1.19,-0.12,0.16,-0.23,0.00,0.00,0.52
10848,-87.00,-178.81,44.31,18.62,-3.56,1.25,-0.15,0.14,-0.22,0.00,0.00,0.54
10858,-87.00,-178.81,44.50,18.19,-3.88,0.81,-0.02,0.12,-0.22,0.00,0.00,0.45
10868,-87.06,-178.81,44.81,17.75,-4.00,0.75,0.05,0.11,-0.18,0.00,0.00,0.45
10881,-87.06,-178.81,44.81,17.50,-4.38,0.81,0.19,0.08,-0.15,0.00,0.00,0.51
10890,-87.12,-178.81,45.12,17.38,-4.00,0.94,0.35,0.04,-0.20,0.00,0.00,0.54
10902,-87.12,-178.81,45.31,17.06,-4.12,1.00,0.39,0.05,-0.17,0.00,0.00,0.45
10915,-87.19,-178.81,45.50,16.75,-3.94,1.38,0.38,0.07,-0.19,0.00,0.00,0.42
10931,-87.19,-178.81,45.62,16.81,-3.81,1.56,0.26,0.05,-0.20,0.00,0.00,0.38
10944,-87.25,-178.75,45.94,16.12,-3.38,1.69,0.19,0.06,-0.20,0.00,0.00,0.27
10953,-87.25,-178.75,46.06,16.06,-3.12,1.62,0.15,0.06,-0.21,0.00,0.00,0.12
10986,-87.25,-178.75,46.50,15.25,-2.56,1.38,0.33,0.01,-0.21,0.00,0.00,1.14
10994,-87.31,-178.69,46.62,15.00,-2.19,1.19,0.38,-0.01,-0.19,0.00,0.00,1.34
11002,-87.31,-178.69,46.75,14.81,-1.81,1.25,0.33,-0.04,-0.22,0.00,0.00,1.40
11009,-87.25,-178.69,46.94,14.69,-1.75,1.31,0.26,-0.05,-0.23,0.00,0.00,1.42
11017,-87.25,-178.69,47.06,14.50,-1.44,1.44,0.27,-0.04,-0.24,0.00,0.00,1.41
11026,-87.25,-178.69,47.06,14.44,-1.31,1.69,0.34,-0.04,-0.21,0.00,0.00,1.42
11034,-87.25,-178.69,47.19,14.44,-1.31,1.69,0.34,-0.04,-0.21,0.00,0.00,1.41
11041,-87.25,-178.69,47.31,14.25,-0.94,1.75,0.17,-0.05,-0.23,0.00,0.00,1.43
11049,-87.25,-178.69,47.44,14.06,-0.75,1.81,0.22,-0.03,-0.21,0.00,0.00,1.41
11059,-87.25,-178.69,47.44,14.00,-0.88,1.88,0.21,-0.05,-0.23,0.00,0.00,1.42
11067,-87.25,-178.69,47.56,13.69,-0.69,1.81,0.03,-0.06,-0.26,0.00,0.00,1.41
11077,-87.25,-178.62,47.69,13.69,-0.69,1.81,-0.05,-0.03,-0.21,0.00,0.00,1.40
11084,-87.19,-178.62,47.81,13.44,-0.88,1.81,-0.05,-0.03,-0.21,0.00,0.00,1.41
11116,-87.25,-178.62,48.12,12.88,-1.50,1.38,-0.01,-0.03,-0.26,0.00,0.00,1.41
11126,-87.25,-178.62,48.25,12.56,-1.69,1.12,0.04,-0.02,-0.25,0.00,0.00,1.40
11134,-87.25,-178.62,48.38,12.12,-1.94,1.19,0.04,-0.02,-0.25,0.00,0.00,1.38
11146,-87.25,-178.62,48.50,11.94,-2.25,1.06,0.05,-0.03,-0.23,0.00,0.00,1.39
11156,-87.25,-178.62,48.62,11.81,-2.38,1.06,0.09,-0.03,-0.23,0.00,0.00,1.39
11166,-87.25,-178.56,48.69,11.44,-2.56,1.12,0.09,-0.01,-0.24,0.00,0.00,1.38
11179,-87.25,-178.56,48.81,11.31,-2.69,0.94,0.07,-0.01,-0.21,0.00,0.00,1.39
11186,-87.25,-178.56,48.94,10.88,-2.69,0.94,0.09,-0.02,-0.23,0.00,0.00,1.39
11196,-87.25,-178.56,49.00,10.62,-2.44,0.94,0.15,0.00,-0.23,0.00,0.00,1.39
11204,-87.31,-178.56,49.12,10.38,-2.62,0.94,0.18,0.00,-0.21,0.00,0.00,1.40
11212,-87.31,-178.56,49.19,10.12,-2.50,0.69,0.26,0.00,-0.19,0.00,0.00,1.38
11219,-87.31,-178.56,49.31,9.81,-2.25,0.62,0.38,0.02,-0.19,0.00,0.00,1.39
11230,-87.31,-178.56,49.31,9.50,-2.00,0.62,0.41,0.00,-0.18,0.00,0.00,1.39
11260,-87.31,-178.56,49.62,8.56,-0.69,0.75,0.46,0.04,-0.14,0.00,0.00,1.35
11271,-87.31,-178.56,49.62,8.12,-0.31,1.00,0.40,0.05,-0.16,0.00,0.00,1.38
11279,-87.31,-178.56,49.75,8.00,0.12,1.12,0.42,0.04,-0.14,0.00,0.00,1.35
11290,-87.31,-178.56,49.81,8.00,0.12,1.12,0.42,0.04,-0.14,0.00,0.00,1.35
11298,-87.25,-178.56,49.88,7.62,0.38,1.12,0.36,0.02,-0.18,0.00,0.00,1.36
11307,-87.25,-178.50,49.94,7.38,0.69,1.19,0.25,0.03,-0.18,0.00,0.00,1.35
11319,-87.25,-178.50,50.00,7.00,1.00,1.25,0.20,0.03,-0.22,0.00,0.00,1.37
11329,-87.19,-178.50,50.00,6.38,1.12,1.06,0.04,0.03,-0.18,0.00,0.00,1.36
11336,-87.19,-178.50,50.06,6.19,1.25,1.12,0.04,0.03,-0.18,0.00,0.00,1.37
11344,-87.19,-178.50,50.12,5.69,1.31,1.00,0.01,0.02,-0.18,0.00,0.00,1.36
11351,-87.19,-178.50,50.19,5.56,0.94,1.00,0.00,0.00,-0.21,0.00,0.00,1.38
11359,-87.19,-178.50,50.19,5.06,0.94,0.88,0.00,0.00,-0.20,0.00,0.00,1.39
11369,-87.12,-178.50,50.19,5.06,0.94,0.88,-0.04,-0.03,-0.22,0.00,0.00,1.38
11379,-87.12,-178.44,50.25,4.81,0.94,0.75,-0.07,-0.03,-0.23,0.00,0.00,1.38
11410,-87.12,-178.44,50.38,3.62,-0.12,0.56,0.05,-0.05,-0.19,0.00,0.00,1.40
11421,-87.06,-178.50,50.44,3.62,-0.12,0.56,0.21,-0.07,-0.21,0.00,0.00,1.39
11430,-87.06,-178.50,50.44,3.06,-0.50,0.50,0.20,-0.09,-0.18,0.00,0.00,1.40
11437,-87.06,-178.50,50.50,3.06,-0.50,0.50,0.20,-0.09,-0.18,0.00,0.00,1.40
11445,-87.06,-178.50,50.50,2.94,-0.25,0.75,0.26,-0.11,-0.16,0.00,0.00,1.41
11452,-87.06,-178.50,50.56,2.75,-0.06,0.56,0.26,-0.10,-0.17,0.00,0.00,1.41
11460,-87.06,-178.50,50.56,2.50,0.06,0.62,0.20,-0.12,-0.18,0.00,0.00,1.40
11470,-87.06,-178.50,50.56,2.50,0.06,0.62,0.09,-0.11,-0.20,0.00,0.00,1.41
11480,-87.06,-178.50,50.62,2.19,0.06,0.56,0.05,-0.12,-0.19,0.00,0.00,1.40
11487,-87.06,-178.50,50.62,2.25,0.19,0.44,0.05,-0.12,-0.19,0.00,0.00,1.41
11494,-87.06,-178.50,50.62,2.06,0.12,0.31,-0.03,-0.12,-0.22,0.00,0.00,1.41
11502,-87.06,-178.50,50.69,1.88,0.25,0.00,-0.13,-0.09,-0.21,0.00,0.00,1.40
11511,-87.06,-178.50,50.69,1.50,-0.06,-0.06,-0.10,-0.08,-0.26,0.00,0.00,1.41
11520,-87.06,-178.50,50.69,1.50,-0.06,-0.06,-0.09,-0.05,-0.21,0.00,0.00,1.42
11552,-87.06,-178.50,50.75,0.88,-1.31,-0.50,0.00,0.02,-0.18,0.00,0.00,1.41
11561,-87.06,-178.50,50.75,0.06,-2.25,-0.44,0.01,0.00,-0.20,0.00,0.00,1.40
11572,-87.06,-178.50,50.75,0.06,-2.25,-0.44,0.08,0.01,-0.19,0.00,0.00,1.41
11581,-87.06,-178.50,50.75,-0.12,-2.25,-0.50,0.23,0.03,-0.13,0.00,0.00,1.41
11590,-87.06,-178.50,50.75,-0.50,-2.06,-0.44,0.23,0.03,-0.13,0.00,0.00,1.42
11598,-87.12,-178.50,50.75,-0.88,-2.06,-0.25,0.25,0.02,-0.15,0.00,0.00,1.40
11608,-87.12,-178.50,50.69,-1.19,-1.94,-0.19,0.31,0.04,-0.15,0.00,0.00,1.40
11619,-87.12,-178.50,50.69,-1.50,-1.75,-0.38,0.40,0.04,-0.15,0.00,0.00,1.41
11631,-87.12,-178.50,50.69,-1.94,-1.50,-0.31,0.31,0.04,-0.14,0.00,0.00,1.41
11639,-87.12,-178.50,50.62,-2.19,-0.94,-0.44,0.36,0.06,-0.11,0.00,0.00,1.39
11646,-87.12,-178.50,50.62,-2.56,-0.50,-0.50,0.39,0.03,-0.12,0.00,0.00,1.38
11654,-87.12,-178.50,50.62,-2.75,0.00,-0.69,0.33,0.05,-0.13,0.00,0.00,1.39
11664,-87.12,-178.50,50.62,-3.25,0.25,-0.75,0.40,0.04,-0.14,0.00,0.00,1.39
11695,-87.12,-178.50,50.44,-4.25,1.19,-0.31,0.27,0.06,-0.12,0.00,0.00,1.36
11705,-87.12,-178.50,50.44,-4.75,1.12,-0.25,0.14,0.08,-0.16,0.00,0.00,1.36
11713,-87.06,-178.50,50.31,-5.12,1.31,-0.19,0.06,0.08,-0.17,0.00,0.00,1.38
11726,-87.06,-178.50,50.31,-5.62,1.31,-0.38,0.02,0.13,-0.15,0.00,0.00,1.36
11734,-87.06,-178.50,50.19,-6.19,1.25,-0.38,0.03,0.16,-0.16,0.00,0.00,1.36
11745,-87.06,-178.50,50.19,-6.19,1.25,-0.38,0.30,0.22,-0.07,0.00,0.00,1.36
11753,-87.06,-178.50,50.12,-7.56,1.12,-0.50,0.42,0.26,0.00,0.00,0.00,1.36
11764,-87.00,-178.44,50.06,-7.56,1.12,-0.50,0.56,0.33,-0.05,0.00,0.00,1.37
11773,-87.00,-178.44,50.00,-9.12,1.88,-0.38,0.74,0.35,0.02,0.00,0.00,1.38
11783,-87.00,-178.44,49.88,-9.12,1.88,-0.38,0.73,0.44,0.08,0.00,0.00,1.39
11791,-86.94,-178.44,49.75,-9.94,3.00,-0.06,0.73,0.44,0.08,0.00,0.00,1.39
11798,-86.94,-178.44,49.69,-10.94,3.81,0.00,0.71,0.56,0.12,0.00,0.00,1.39
11807,-86.88,-178.44,49.56,-11.81,4.75,0.12,0.78,0.52,0.05,0.00,0.00,1.39
11814,-86.81,-178.44,49.44,-12.81,5.62,0.12,0.43,0.51,0.04,0.00,0.00,1.39
11844,-86.69,-178.38,49.06,-16.12,8.00,-0.25,0.44,0.43,0.05,0.00,0.00,1.40
11851,-86.62,-178.31,48.81,-16.12,8.00,-0.25,0.44,0.43,0.05,0.00,0.00,1.40
11860,-86.50,-178.25,48.62,-17.12,8.69,-0.25,0.24,0.45,0.03,0.00,0.00,1.41
11869,-86.44,-178.19,48.38,-18.12,9.12,-0.50,0.40,0.44,0.02,0.00,0.00,1.40
11880,-86.31,-178.12,48.12,-19.12,9.44,-0.44,0.31,0.50,0.01,0.00,0.00,1.41
11887,-86.25,-178.12,47.88,-20.19,9.69,-0.56,0.08,0.49,0.03,0.00,0.00,1.42
11897,-86.12,-178.12,47.69,-21.38,9.81,-0.44,0.01,0.47,-0.01,0.00,0.00,1.41
11905,-86.06,-178.06,47.44,-22.44,9.62,-0.44,0.02,0.51,0.00,0.00,0.00,1.42
11919,-86.06,-178.06,47.44,-23.62,9.50,-0.44,-0.17,0.49,-0.01,0.00,0.00,1.42
11930,-85.94,-178.06,46.94,-24.50,9.25,-0.50,-0.22,0.45,-0.02,0.00,0.00,1.54
11939,-85.81,-178.06,46.69,-25.56,8.94,-0.50,-0.17,0.47,0.01,0.00,0.00,1.53
11950,-85.75,-178.06,46.38,-26.50,8.25,-0.75,-0.37,0.47,-0.03,0.00,0.00,1.46
11961,-85.69,-178.00,46.12,-27.81,7.88,-1.00,-0.46,0.50,-0.01,0.00,0.00,1.40
12007,-85.50,-178.00,44.94,-32.06,4.88,-2.25,-0.41,0.47,-0.06,0.00,0.00,1.51
12016,-85.50,-178.00,44.56,-34.06,3.25,-2.56,-0.61,0.50,-0.06,0.00,0.00,1.50
12027,-85.44,-177.94,44.19,-35.31,2.25,-2.62,-0.43,0.46,-0.10,0.00,0.00,1.53
12036,-85.44,-177.88,43.81,-36.19,0.94,-2.75,-0.46,0.45,-0.11,0.00,0.00,1.55
12048,-85.38,-177.88,43.44,-36.19,0.94,-2.75,-0.51,0.50,-0.08,0.00,0.00,1.51
12056,-85.38,-177.81,43.00,-38.31,-1.12,-2.69,-0.41,0.46,-0.11,0.00,0.00,1.46
12070,-85.38,-177.81,42.62,-39.25,-1.69,-2.81,-0.33,0.45,-0.14,0.00,0.00,1.51
12078,-85.44,-177.75,41.75,-40.44,-2.75,-2.69,-0.39,0.43,-0.12,0.00,0.00,1.59
12092,-85.44,-177.69,41.31,-41.12,-3.44,-3.00,-0.31,0.44,-0.12,0.00,0.00,1.48
12101,-85.44,-177.69,40.88,-42.38,-4.00,-2.94,-0.16,0.44,-0.12,0.00,0.00,1.52
12112,-85.50,-177.62,40.44,-43.50,-4.62,-3.31,-0.22,0.39,-0.13,0.00,0.00,1.65
12125,-85.50,-177.62,40.00,-44.25,-5.00,-3.31,-0.22,0.38,-0.18,0.00,0.00,1.41
12139,-85.56,-177.62,39.56,-45.06,-5.69,-3.44,0.02,0.39,-0.18,0.00,0.00,1.68
12174,-85.88,-177.69,37.75,-48.75,-6.12,-3.56,0.31,0.40,-0.21,0.00,0.00,1.80
12187,-85.94,-177.69,37.31,-49.50,-5.88,-3.44,0.33,0.42,-0.19,0.00,0.00,1.82
12196,-86.00,-177.69,36.81,-50.44,-5.88,-3.31,0.46,0.39,-0.19,0.00,0.00,1.84
12205,-86.06,-177.69,36.31,-51.38,-5.44,-3.19,0.59,0.39,-0.23,0.00,0.00,1.78
12217,-86.12,-177.69,35.81,-52.06,-4.94,-3.19,0.65,0.39,-0.28,0.00,0.00,1.34
12228,-86.19,-177.69,35.31,-53.69,-3.69,-2.94,0.74,0.38,-0.28,0.00,0.00,1.25
12240,-86.19,-177.69,34.81,-54.50,-3.06,-3.00,0.72,0.40,-0.26,0.00,0.00,1.17
12248,-86.31,-177.69,33.75,-55.25,-2.12,-2.94,0.78,0.35,-0.28,0.00,0.00,1.05
12257,-86.31,-177.69,33.75,-56.00,-1.06,-2.94,0.89,0.37,-0.30,0.00,0.00,1.11
12267,-86.31,-177.69,33.19,-56.00,-1.06,-2.94,0.85,0.36,-0.28,0.00,0.00,1.13
12277,-86.31,-177.69,32.62,-56.62,-0.06,-3.06,0.77,0.36,-0.30,0.00,0.00,1.10
12287,-86.31,-177.69,32.06,-57.38,0.81,-3.06,0.88,0.34,-0.31,0.00,0.00,1.10
12296,-86.25,-177.62,31.50,-58.00,1.81,-2.94,0.88,0.34,-0.31,0.00,0.00,1.07
12328,-86.12,-177.56,29.69,-60.69,5.94,-2.94,0.73,0.32,-0.35,0.00,0.00,1.10
12338,-86.06,-177.50,29.06,-60.69,5.94,-2.94,0.60,0.31,-0.34,0.00,0.00,1.12
12349,-86.00,-177.50,28.44,-61.25,7.06,-2.94,0.60,0.31,-0.34,0.00,0.00,1.08
12358,-85.94,-177.44,27.81,-61.69,7.88,-3.06,0.66,0.26,-0.34,0.00,0.00,1.07
12370,-85.81,-177.44,27.12,-62.44,8.69,-3.12,0.43,0.31,-0.36,0.00,0.00,1.07
12379,-85.75,-177.44,26.50,-63.44,9.94,-3.50,0.40,0.27,-0.37,0.00,0.00,1.10
12389,-85.62,-177.38,25.88,-64.12,10.25,-3.56,0.42,0.27,-0.35,0.00,0.00,1.09
12397,-85.56,-177.38,25.19,-64.12,10.25,-3.56,0.29,0.27,-0.38,0.00,0.00,1.09
12408,-85.50,-177.38,24.56,-64.62,10.62,-3.88,0.29,0.27,-0.38,0.00,0.00,1.09
12418,-85.44,-177.38,23.94,-65.06,11.12,-3.94,0.19,0.24,-0.43,0.00,0.00,1.06
12431,-85.38,-177.38,23.31,-65.81,11.19,-4.31,0.12,0.25,-0.40,0.00,0.00,1.08
12439,-85.25,-177.38,22.00,-66.69,11.31,-4.69,-0.04,0.24,-0.42,0.00,0.00,1.05
12449,-85.25,-177.38,22.00,-66.69,11.31,-4.69,-0.01,0.25,-0.45,0.00,0.00,1.06
12482,-85.00,-177.38,19.38,-68.69,10.38,-5.31,-0.17,0.23,-0.47,0.00,0.00,1.04
12490,-84.94,-177.38,18.69,-69.12,9.69,-5.44,-0.22,0.22,-0.44,0.00,0.00,1.04
12498,-84.94,-177.38,18.69,-69.12,9.69,-5.44,-0.31,0.23,-0.47,0.00,0.00,1.04
12506,-84.88,-177.38,18.00,-69.75,9.25,-5.62,-0.31,0.23,-0.47,0.00,0.00,1.05
12515,-84.81,-177.38,17.31,-70.06,8.75,-5.75,-0.34,0.23,-0.45,0.00,0.00,1.05
12524,-84.75,-177.38,16.62,-70.50,8.06,-5.88,-0.30,0.20,-0.49,0.00,0.00,1.05
12532,-84.69,-177.38,15.94,-71.06,7.44,-6.06,-0.40,0.15,-0.49,0.00,0.00,1.04
12541,-84.62,-177.38,15.19,-71.44,6.50,-6.12,-0.37,0.16,-0.46,0.00,0.00,1.05
12549,-84.62,-177.38,15.19,-71.88,5.62,-6.38,-0.29,0.13,-0.48,0.00,0.00,1.06
12559,-84.56,-177.38,14.50,-71.88,5.62,-6.38,-0.29,0.13,-0.48,0.00,0.00,1.02
12568,-84.56,-177.38,13.81,-72.12,5.00,-6.38,-0.35,0.15,-0.47,0.00,0.00,1.03
12579,-84.50,-177.38,13.12,-72.62,4.12,-6.31,-0.21,0.12,-0.48,0.00,0.00,1.06
12589,-84.50,-177.31,12.38,-72.88,3.50,-6.38,-0.18,0.13,-0.46,0.00,0.00,0.64
12623,-84.44,-177.31,9.50,-74.00,1.25,-6.31,-0.09,0.06,-0.48,0.00,0.00,1.29
12631,-84.44,-177.31,8.81,-74.38,0.75,-6.25,-0.07,0.06,-0.46,0.00,0.00,1.35
12644,-84.44,-177.31,8.81,-74.25,0.25,-6.12,0.03,0.02,-0.46,0.00,0.00,1.50
12651,-84.50,-177.31,7.31,-74.50,-0.06,-6.00,0.10,0.04,-0.43,0.00,0.00,1.52
12663,-84.50,-177.31,7.31,-74.50,-0.06,-6.00,0.10,0.04,-0.43,0.00,0.00,1.19
12672,-84.50,-177.31,5.88,-74.81,-0.12,-5.81,0.15,0.00,-0.45,0.00,0.00,0.13
12684,-84.50,-177.31,5.88,-74.88,-0.56,-5.69,0.30,-0.02,-0.42,0.00,0.00,0.07
12692,-84.50,-177.31,4.44,-75.00,0.00,-5.62,0.30,-0.05,-0.40,0.00,0.00,0.05
12702,-84.50,-177.31,4.44,-74.94,0.38,-5.56,0.31,-0.05,-0.42,0.00,0.00,0.10
12711,-84.56,-177.31,3.69,-74.94,0.38,-5.56,0.42,-0.05,-0.39,0.00,0.00,0.07
12721,-84.56,-177.31,2.94,-74.94,0.38,-5.56,0.46,-0.08,-0.42,0.00,0.00,0.07
12733,-84.56,-177.31,2.19,-74.88,1.31,-5.25,0.48,-0.10,-0.37,0.00,0.00,0.04
12743,-84.56,-177.25,0.75,-74.88,1.94,-5.12,0.58,-0.10,-0.36,0.00,0.00,0.05
12754,-84.56,-177.25,0.75,-74.88,1.94,-5.12,0.58,-0.12,-0.36,0.00,0.00,0.05
12787,-84.50,-177.25,-2.19,-74.12,4.56,-5.06,0.66,-0.16,-0.32,0.00,0.00,0.05
12801,-84.44,-177.25,-2.88,-73.94,5.12,-4.94,0.62,-0.17,-0.33,0.00,0.00,0.05
12814,-84.38,-177.25,-3.62,-73.81,6.12,-5.06,0.66,-0.17,-0.32,0.00,0.00,0.05
12829,-84.31,-177.25,-5.06,-73.25,7.62,-5.19,0.63,-0.19,-0.34,0.00,0.00,3.37
12843,-84.25,-177.25,-5.75,-72.88,8.38,-5.19,0.63,-0.23,-0.28,0.00,0.00,0.01
12857,-84.19,-177.25,-6.50,-72.56,9.00,-5.38,0.56,-0.23,-0.28,0.00,0.00,0.05
12865,-84.06,-177.25,-7.88,-72.00,10.44,-5.69,0.52,-0.25,-0.26,0.00,0.00,0.05
12877,-83.94,-177.25,-8.56,-71.50,11.00,-5.75,0.49,-0.26,-0.28,0.00,0.00,0.40
12885,-83.88,-177.25,-9.25,-71.19,11.56,-5.75,0.40,-0.29,-0.27,0.00,0.00,0.32
12896,-83.81,-177.25,-9.94,-70.94,11.81,-6.00,0.35,-0.30,-0.25,0.00,0.00,0.32
12904,-83.69,-177.25,-10.62,-70.50,12.19,-5.81,0.34,-0.29,-0.23,0.00,0.00,0.27
12917,-83.69,-177.25,-10.62,-70.00,12.69,-6.00,0.27,-0.34,-0.23,0.00,0.00,0.34
12925,-83.50,-177.25,-12.00,-69.81,12.62,-6.12,0.19,-0.33,-0.24,0.00,0.00,0.28
12959,-83.25,-177.31,-14.00,-68.38,12.88,-6.44,0.02,-0.37,-0.18,0.00,0.00,0.20
12968,-83.19,-177.31,-14.62,-67.75,12.94,-6.44,0.01,-0.40,-0.18,0.00,0.00,0.29
12978,-83.06,-157.25,-15.31,-67.31,12.75,-6.56,0.00,-0.42,-0.16,0.00,0.00,0.29
12986,-83.00,-157.69,-15.94,-66.94,12.44,-6.56,-0.07,-0.44,-0.17,0.00,0.00,0.29
12995,-82.88,-158.00,-16.56,-66.44,12.06,-6.50,-0.14,-0.47,-0.13,0.00,0.00,0.24
13003,-82.88,-158.00,-16.56,-66.00,11.44,-6.50,-0.11,-0.46,-0.13,0.00,0.00,0.25
13012,-82.81,-158.38,-17.25,-66.00,11.44,-6.50,-0.11,-0.46,-0.13,0.00,0.00,0.25
13023,-82.75,-158.69,-17.88,-65.50,11.06,-6.50,-0.16,-0.47,-0.10,0.00,0.00,0.24
13033,-82.69,-159.00,-18.50,-65.00,10.31,-6.38,-0.22,-0.52,-0.10,0.00,0.00,0.22
13044,-82.62,-159.25,-19.06,-64.38,10.06,-6.25,-0.26,-0.54,-0.07,0.00,0.00,0.23
13052,-82.56,-159.56,-19.69,-63.88,9.44,-6.12,-0.26,-0.54,-0.07,0.00,0.00,0.22
13062,-82.50,-159.88,-20.31,-63.44,8.75,-6.19,-0.26,-0.50,-0.07,0.00,0.00,0.18
13072,-82.50,-160.12,-20.88,-62.69,8.06,-6.00,-0.27,-0.55,-0.06,0.00,0.00,0.27
13108,-82.38,-160.81,-22.62,-61.06,6.00,-5.56,-0.24,-0.57,0.00,0.00,0.00,0.23
13116,-82.38,-161.25,-23.75,-59.94,4.56,-5.19,-0.27,-0.62,0.00,0.00,0.00,0.17
13128,-82.38,-161.50,-24.31,-59.19,3.81,-4.94,-0.25,-0.62,-0.03,0.00,0.00,0.18
13136,-82.38,-161.69,-24.81,-58.56,3.38,-4.94,-0.23,-0.59,0.01,0.00,0.00,0.20
13147,-82.38,-161.69,-24.81,-57.88,2.75,-4.81,-0.21,-0.63,0.01,0.00,0.00,0.20
13155,-82.38,-161.94,-25.38,-57.19,2.38,-4.50,-0.21,-0.65,0.05,0.00,0.00,0.15
13166,-82.38,-162.12,-25.88,-57.19,2.38,-4.50,-0.15,-0.65,0.06,0.00,0.00,0.14
13176,-82.38,-162.38,-26.38,-55.81,1.56,-4.25,-0.12,-0.65,0.06,0.00,0.00,0.10
13186,-82.44,-162.62,-26.88,-55.06,1.00,-3.94,-0.08,-0.66,0.06,0.00,0.00,0.12
13197,-82.44,-162.88,-27.38,-54.31,0.69,-3.81,-0.04,-0.66,0.06,0.00,0.00,2.63
13207,-82.50,-163.06,-27.88,-54.31,0.69,-3.81,-0.03,-0.67,0.09,0.00,0.00,2.68
13216,-82.56,-163.56,-28.81,-52.81,0.12,-3.62,0.00,-0.67,0.11,0.00,0.00,2.72
13249,-82.69,-164.50,-30.12,-50.31,-0.12,-3.12,0.09,-0.69,0.12,0.00,0.00,2.75
13258,-82.75,-164.88,-30.50,-49.50,-0.19,-2.94,0.14,-0.71,0.15,0.00,0.00,2.75
13271,-82.75,-165.25,-30.94,-48.50,0.06,-2.94,0.19,-0.70,0.14,0.00,0.00,2.74
13280,-82.81,-165.62,-31.31,-47.81,0.12,-2.75,0.20,-0.69,0.15,0.00,0.00,2.79
13294,-82.88,-166.00,-31.75,-46.94,0.38,-2.69,0.23,-0.69,0.18,0.00,0.00,2.78
13303,-82.94,-166.31,-32.12,-46.06,0.44,-2.69,0.04,-0.52,0.37,0.00,0.00,2.79
13314,-82.94,-167.12,-32.44,-44.88,0.62,-2.81,0.59,-1.13,0.03,0.00,0.00,2.78
13326,-82.94,-167.00,-32.88,-43.12,0.69,-3.62,0.49,-1.90,0.03,0.00,0.00,2.82
13339,-82.94,-167.00,-33.25,-40.88,1.19,-4.69,0.48,-2.08,-0.06,0.00,0.00,2.83
13348,-82.94,-167.25,-33.94,-34.44,2.50,-5.94,0.94,-2.27,-0.13,0.00,0.00,2.82
13360,-82.94,-167.25,-33.94,-30.94,3.94,-6.00,1.51,-1.95,-0.07,0.00,0.00,2.85
13369,-82.88,-167.75,-34.50,-28.12,5.81,-5.38,1.94,-1.38,0.15,0.00,0.00,2.85
13378,-82.81,-167.88,-34.75,-26.38,7.50,-3.75,1.21,-0.62,0.48,0.00,0.00,2.86
13387,-82.81,-167.88,-34.75,-25.44,8.06,-0.69,0.77,0.00,0.65,0.00,0.00,2.88
13419,-82.50,-165.88,-36.06,-26.44,4.44,9.06,-0.04,-1.01,0.27,0.00,0.00,0.20
13428,-82.44,-165.25,-36.44,-25.31,5.50,6.31,-0.46,-0.98,0.40,0.00,0.00,0.18
13438,-82.44,-165.25,-36.44,-23.44,6.62,1.50,-1.25,-2.14,-0.21,0.00,0.00,0.25
13450,-82.38,-165.06,-36.69,-20.88,5.94,-3.00,-0.27,-0.73,0.34,0.00,0.00,2.67
13460,-82.31,-165.44,-37.06,-18.69,4.50,-5.00,-2.35,-1.77,0.13,0.00,0.00,2.81
13471,-82.31,-165.62,-37.19,-16.31,1.44,-4.81,-1.12,-1.92,0.09,0.00,0.00,2.85
13481,-82.31,-165.81,-37.31,-13.25,-0.81,-4.38,0.75,-1.82,0.09,0.00,0.00,2.88
13492,-82.38,-165.94,-37.38,-10.00,-1.94,-4.19,-0.23,-2.39,0.04,0.00,0.00,2.87
13501,-82.38,-166.12,-37.38,-6.44,-2.06,-3.50,0.01,-2.35,0.14,0.00,0.00,2.90
13513,-82.44,-166.12,-37.44,-3.44,-2.19,-1.38,-0.18,-1.46,0.41,0.00,0.00,2.87
13526,-82.44,-165.94,-37.44,-1.50,-3.62,1.88,-0.78,-1.53,0.35,0.00,0.00,2.82
13542,-82.50,-165.56,-37.50,0.75,-5.12,3.94,-0.13,-1.70,0.17,0.00,0.00,2.74
13554,-82.56,-165.00,-37.50,3.88,-4.50,1.88,-0.47,-1.17,0.32,0.00,0.00,2.52
13590,-82.69,-165.19,-37.25,6.56,-3.56,-1.44,0.07,-0.60,0.54,0.00,0.00,0.14
13599,-82.69,-165.25,-37.12,7.44,-2.44,-0.12,1.49,-0.57,0.57,0.00,0.00,0.19
13612,-82.75,-165.25,-37.06,7.44,-2.44,-0.12,1.06,-0.92,0.46,0.00,0.00,0.37
13623,-82.75,-165.38,-36.88,9.44,-0.31,0.69,-0.15,-1.07,0.37,0.00,0.00,2.04
13638,-82.75,-165.31,-36.81,10.44,-0.69,1.38,0.86,-1.22,0.31,0.00,0.00,2.78
13649,-82.75,-165.19,-36.69,12.00,0.00,3.12,0.17,-0.66,0.52,0.00,0.00,2.84
13660,-82.75,-165.06,-36.56,13.19,0.44,3.44,0.17,-0.66,0.52,0.00,0.00,2.88
13670,-82.69,-165.06,-36.44,14.19,1.75,1.69,0.44,-0.73,0.45,0.00,0.00,2.84
13684,-82.69,-165.12,-36.31,15.06,2.31,1.62,-0.37,-1.04,0.37,0.00,0.00,2.87
13694,-82.62,-165.31,-36.00,16.25,1.75,1.00,0.37,-1.16,0.28,0.00,0.00,2.85
13707,-82.62,-165.50,-35.81,17.50,1.94,-0.31,0.46,-1.12,0.29,0.00,0.00,2.83
13719,-82.62,-165.81,-35.56,18.94,2.56,-1.00,-0.10,-0.84,0.42,0.00,0.00,2.85
13729,-82.56,-166.12,-35.38,19.75,2.38,-1.25,0.54,-0.67,0.43,0.00,0.00,2.83
13764,-82.44,-167.06,-34.44,22.94,3.19,1.81,0.49,-1.00,0.32,0.00,0.00,2.76
13773,-82.44,-167.19,-34.19,24.06,3.31,2.62,-0.30,-0.81,0.37,0.00,0.00,2.75
13787,-82.38,-167.25,-33.94,24.88,3.00,2.94,-0.29,-0.89,0.35,0.00,0.00,2.79
13799,-82.38,-167.31,-33.69,25.69,2.44,3.06,0.25,-0.91,0.31,0.00,0.00,2.77
13811,-82.31,-167.38,-33.44,26.75,2.50,3.25,0.26,-0.70,0.38,0.00,0.00,2.77
13821,-82.31,-167.50,-33.12,27.88,1.44,1.75,-0.34,-0.87,0.28,0.00,0.00,2.78
13832,-82.31,-167.69,-32.88,28.88,0.88,1.75,-0.07,-1.01,0.22,0.00,0.00,2.79
13841,-82.25,-168.00,-32.25,30.00,0.50,1.31,-0.54,-0.90,0.26,0.00,0.00,2.78
13852,-82.25,-168.00,-32.25,31.06,-0.06,0.88,-0.10,-0.65,0.34,0.00,0.00,2.76
13861,-82.25,-168.25,-31.88,31.81,-0.94,0.81,0.35,-0.70,0.36,0.00,0.00,2.75
13870,-82.25,-168.50,-31.56,31.81,-0.94,0.81,0.04,-0.77,0.32,0.00,0.00,2.73
13881,-82.31,-168.69,-31.19,32.56,-1.00,1.50,-0.39,-0.65,0.30,0.00,0.00,2.75
13891,-82.31,-168.81,-30.88,33.88,-2.19,3.12,0.16,-0.66,0.27,0.00,0.00,2.73
13924,-82.50,-170.31,-29.25,36.31,-4.00,4.81,-0.39,-0.60,0.25,0.00,0.00,2.70
13935,-82.50,-170.25,-28.88,37.00,-4.25,4.88,-0.19,-0.58,0.25,0.00,0.00,2.54
13947,-82.56,-170.19,-28.50,37.75,-4.69,4.69,-0.40,-0.61,0.24,0.00,0.00,0.13
13956,-82.62,-170.19,-28.12,38.31,-5.56,4.31,-0.27,-0.57,0.24,0.00,0.00,0.05
13968,-82.69,-170.19,-27.75,39.06,-5.81,3.94,-0.26,-0.63,0.18,0.00,0.00,0.12
13977,-82.75,-170.81,-27.25,39.88,-6.31,3.31,-0.46,-0.65,0.18,0.00,0.00,0.05
13991,-82.88,-171.44,-26.75,40.69,-6.81,2.94,-0.19,-0.61,0.17,0.00,0.00,0.17
14001,-82.94,-171.94,-26.25,41.50,-7.06,3.06,-0.20,-0.43,0.15,0.00,0.00,0.17
14013,-83.00,-172.31,-25.75,42.12,-7.19,3.19,-0.20,-0.43,0.15,0.00,0.00,0.20
14021,-83.12,-172.44,-25.31,43.38,-7.62,3.88,0.46,-0.51,0.15,0.00,0.00,0.19
14033,-83.19,-179.06,-24.94,43.38,-7.62,3.88,0.36,-0.37,0.14,0.00,0.00,0.22
14042,-83.25,-179.06,-24.50,44.88,-7.50,5.06,0.09,-0.42,0.13,0.00,0.00,0.13
14053,-83.31,-179.06,-24.00,45.50,-7.75,5.00,0.45,-0.46,0.09,0.00,0.00,0.20
14085,-83.56,-179.12,-22.19,47.50,-7.38,4.88,0.18,-0.42,0.06,0.00,0.00,0.27
14094,-83.62,-179.12,-21.69,47.94,-7.56,4.25,0.29,-0.43,0.03,0.00,0.00,0.27
14103,-83.62,-179.12,-21.69,48.75,-7.00,3.81,0.03,-0.34,0.04,0.00,0.00,0.27
14112,-83.69,-179.19,-21.12,48.75,-7.00,3.81,0.03,-0.34,0.04,0.00,0.00,0.24
14120,-83.75,-179.25,-20.62,49.50,-7.00,3.56,0.05,-0.26,0.05,0.00,0.00,0.24
14131,-83.81,-179.25,-20.12,50.12,-6.44,3.12,0.54,-0.25,0.02,0.00,0.00,0.27
14141,-83.88,-179.31,-19.56,50.81,-5.94,2.88,0.39,-0.23,0.02,0.00,0.00,0.28
14152,-83.94,-179.31,-19.06,51.19,-5.75,3.12,0.45,-0.24,0.00,0.00,0.00,0.28
14160,-84.00,-179.31,-18.50,51.94,-5.44,3.69,0.45,-0.24,0.00,0.00,0.00,0.27
14170,-84.06,-179.38,-18.00,52.62,-5.00,3.88,0.37,-0.16,0.01,0.00,0.00,0.24
14181,-84.06,-179.38,-17.50,53.06,-4.62,4.25,0.36,-0.11,0.00,0.00,0.00,0.24
14195,-84.12,-179.38,-16.94,53.50,-4.19,4.75,0.50,-0.09,-0.03,0.00,0.00,0.27
14203,-84.12,-179.38,-16.38,54.44,-3.75,4.88,0.16,-0.15,-0.03,0.00,0.00,0.22
14214,-84.19,-179.38,-15.88,54.44,-3.75,4.88,0.35,-0.10,-0.04,0.00,0.00,0.25
14244,-84.31,-179.44,-13.62,56.44,-3.44,3.88,0.24,-0.05,-0.10,0.00,0.00,0.32
14253,-84.31,-179.44,-13.62,57.12,-3.06,3.50,0.35,-0.03,-0.10,0.00,0.00,0.39
14262,-84.31,-179.44,-13.06,57.12,-3.06,3.50,0.35,-0.03,-0.10,0.00,0.00,0.32
14270,-84.31,-179.50,-12.50,57.69,-3.19,3.75,0.11,0.02,-0.10,0.00,0.00,0.34
14278,-84.38,-179.50,-11.88,58.00,-3.19,3.50,-0.01,0.04,-0.12,0.00,0.00,0.53
14286,-84.38,-179.50,-11.31,58.25,-3.06,3.81,0.36,0.02,-0.21,0.00,0.00,0.62
14296,-84.38,-179.56,-10.75,58.69,-3.06,4.19,0.13,0.06,-0.14,0.00,0.00,0.34
14305,-84.44,-179.56,-10.12,58.81,-3.19,4.81,-0.06,0.13,-0.18,0.00,0.00,0.29
14317,-84.44,-179.56,-10.12,58.81,-3.19,4.81,0.18,0.08,-0.20,0.00,0.00,0.47
14325,-84.50,-179.56,-9.00,59.38,-3.56,5.25,0.00,0.09,-0.22,0.00,0.00,0.55
14339,-84.50,-179.56,-9.00,59.81,-3.69,5.69,-0.20,0.13,-0.24,0.00,0.00,0.53
14347,-84.50,-179.56,-7.81,60.12,-4.12,5.69,-0.08,0.17,-0.21,0.00,0.00,0.52
14360,-84.56,-179.56,-7.25,60.38,-4.75,5.69,-0.07,0.15,-0.24,0.00,0.00,0.39
14398,-84.69,-179.50,-5.50,60.81,-5.75,5.25,-0.08,0.19,-0.28,0.00,0.00,0.05
14406,-84.75,-179.50,-4.31,61.31,-6.75,5.00,-0.13,0.22,-0.29,0.00,0.00,0.04
14420,-84.75,-179.50,-4.31,61.44,-7.31,5.12,0.00,0.23,-0.31,0.00,0.00,0.05
14431,-84.88,-179.50,-3.12,61.69,-7.44,5.25,-0.09,0.25,-0.29,0.00,0.00,0.05
14441,-84.94,-179.50,-2.56,61.69,-8.00,5.44,0.00,0.23,-0.30,0.00,0.00,0.07
14452,-85.00,-179.44,-1.94,61.56,-8.75,5.81,0.15,0.24,-0.33,0.00,0.00,0.14
14461,-85.06,-179.44,-1.38,61.88,-8.81,6.00,0.01,0.27,-0.32,0.00,0.00,0.12
14471,-85.12,-179.44,-0.81,61.81,-9.31,6.12,-0.16,0.27,-0.31,0.00,0.00,0.09
14479,-85.19,-179.38,-0.25,61.81,-9.81,6.44,0.07,0.23,-0.38,0.00,0.00,0.13
14490,-85.25,-179.38,0.31,62.00,-10.00,6.31,-0.01,0.25,-0.35,0.00,0.00,0.09
14498,-85.31,-179.31,0.94,61.81,-10.38,6.25,-0.18,0.31,-0.35,0.00,0.00,0.10
14507,-85.38,-179.31,1.50,61.88,-10.50,5.88,-0.10,0.29,-0.34,0.00,0.00,0.09
14516,-85.38,-179.31,1.50,61.88,-10.50,5.88,0.13,0.60,-0.27,0.00,0.00,0.05
14550,-85.75,-179.25,3.81,60.31,-11.25,5.31,0.46,1.08,-0.08,0.00,0.00,0.09
14558,-85.81,-179.25,4.38,59.56,-11.00,5.50,-0.11,1.04,-0.11,0.00,0.00,0.13
14571,-85.81,-179.25,4.38,58.69,-11.06,5.44,0.18,0.77,-0.20,0.00,0.00,0.04
14581,-86.00,-179.19,5.50,58.06,-11.12,5.25,0.18,1.04,-0.12,0.00,0.00,1.25
14591,-86.12,-179.19,6.00,57.06,-10.75,4.94,0.18,0.97,-0.11,0.00,0.00,1.57
14599,-86.19,-179.12,6.50,56.50,-10.50,4.50,0.21,0.56,-0.23,0.00,0.00,1.50
14610,-86.19,-179.06,6.94,56.00,-10.69,4.00,0.40,0.42,-0.25,0.00,0.00,1.50
14618,-86.31,-179.06,7.50,55.56,-10.06,3.50,0.46,0.42,-0.26,0.00,0.00,1.48
14628,-86.31,-179.06,7.50,55.25,-9.81,3.56,0.42,0.24,-0.30,0.00,0.00,1.31
14637,-86.38,-179.06,8.06,54.94,-9.75,3.62,0.63,0.39,-0.31,0.00,0.00,1.26
14648,-86.44,-179.06,8.56,54.69,-9.38,3.62,0.52,0.62,-0.25,0.00,0.00,0.94
14658,-86.56,-179.06,9.12,54.19,-8.88,4.00,0.36,0.45,-0.27,0.00,0.00,0.71
14667,-86.62,-179.00,9.62,54.19,-8.88,4.00,0.52,0.49,-0.23,0.00,0.00,0.67
14675,-86.62,-179.00,10.06,53.75,-8.38,4.31,0.52,0.49,-0.23,0.00,0.00,0.69
14708,-86.75,-178.88,11.50,51.00,-6.88,3.88,0.22,1.18,0.07,0.00,0.00,1.05
14716,-86.81,-178.88,12.00,51.00,-6.88,3.88,0.22,1.18,0.07,0.00,0.00,1.04
14726,-86.88,-178.88,12.50,49.75,-6.75,3.25,0.03,1.27,0.15,0.00,0.00,1.02
14736,-86.94,-178.88,12.94,48.25,-6.50,2.50,0.11,1.25,0.19,0.00,0.00,1.03
14747,-87.00,-178.88,13.38,46.75,-6.62,1.88,-0.05,1.40,0.28,0.00,0.00,1.04
14757,-87.00,-178.88,13.88,45.19,-6.56,1.44,0.01,1.41,0.28,0.00,0.00,1.04
14769,-87.06,-178.88,14.25,43.38,-6.69,1.31,0.01,1.41,0.28,0.00,0.00,1.04
14780,-87.12,-178.88,14.69,39.62,-6.62,1.81,0.32,1.27,0.27,0.00,0.00,1.03
14788,-87.25,-178.88,15.44,37.88,-6.75,2.44,0.36,0.95,0.21,0.00,0.00,1.04
14800,-87.25,-178.88,15.44,36.12,-6.81,3.19,0.04,1.39,0.33,0.00,0.00,1.04
14808,-87.31,-178.81,16.06,34.38,-6.81,3.75,0.33,1.37,0.38,0.00,0.00,1.05
14818,-87.31,-178.81,16.06,34.38,-6.81,3.75,0.33,1.37,0.38,0.00,0.00,1.05
14826,-87.31,-178.56,16.12,32.25,-6.75,4.19,0.27,0.99,0.21,0.00,0.00,1.05
14858,-87.25,-178.12,16.56,26.81,-5.69,2.50,0.25,0.57,0.08,0.00,0.00,1.02
14866,-87.25,-178.12,16.81,26.81,-5.69,2.50,0.25,0.57,0.08,0.00,0.00,1.05
14875,-87.31,-178.12,17.00,25.56,-5.50,1.75,0.26,0.71,0.07,0.00,0.00,1.03
14886,-87.31,-178.12,17.25,24.25,-5.00,1.06,0.30,0.33,-0.08,0.00,0.00,1.03
14899,-87.31,-178.12,17.50,23.38,-4.75,0.81,0.43,0.50,-0.05,0.00,0.00,1.05
14908,-87.38,-178.12,17.69,22.62,-4.25,0.81,0.47,0.36,-0.16,0.00,0.00,1.04
14919,-87.38,-178.12,17.94,21.75,-3.50,1.25,0.47,0.36,-0.16,0.00,0.00,1.05
14928,-87.38,-178.12,18.12,21.12,-2.81,1.69,0.66,0.24,-0.16,0.00,0.00,1.06
14940,-87.38,-178.06,18.31,20.44,-2.44,2.12,0.42,0.13,-0.20,0.00,0.00,1.07
14949,-87.38,-178.06,18.50,19.38,-1.50,2.62,0.32,0.18,-0.18,0.00,0.00,1.03
14959,-87.38,-178.06,18.62,19.38,-1.50,2.62,0.39,0.11,-0.20,0.00,0.00,1.06
14967,-87.38,-178.00,18.81,18.81,-1.00,2.50,0.39,0.11,-0.20,0.00,0.00,1.05
14980,-87.31,-178.00,18.94,18.44,-0.44,1.94,0.34,0.19,-0.16,0.00,0.00,1.06
14991,-87.31,-178.00,19.12,17.19,0.19,1.12,0.14,0.23,-0.12,0.00,0.00,1.09
15024,-87.25,-177.94,19.69,15.00,0.62,0.12,0.23,0.36,0.00,0.00,0.00,1.06
15035,-87.19,-177.88,19.75,13.88,0.75,0.12,0.21,0.32,-0.01,0.00,0.00,1.06
15044,-87.19,-177.88,19.88,12.81,0.81,0.31,0.11,0.44,0.00,0.00,0.00,1.06
15056,-87.12,-177.81,19.94,11.81,0.75,0.56,0.09,0.42,0.00,0.00,0.00,1.06
15064,-87.12,-177.81,20.06,10.81,0.50,1.12,0.09,0.27,-0.05,0.00,0.00,1.05
15076,-87.06,-177.75,20.12,10.00,0.56,1.31,-0.03,0.30,-0.02,0.00,0.00,1.05
15084,-87.06,-177.75,20.12,9.25,0.44,1.56,-0.05,0.33,-0.01,0.00,0.00,1.07
15095,-87.06,-177.69,20.19,8.31,0.19,1.44,0.08,0.30,-0.03,0.00,0.00,1.08
15103,-87.00,-177.69,20.25,7.38,0.19,1.50,0.08,0.14,-0.07,0.00,0.00,1.04
15113,-87.00,-177.69,20.31,6.69,-0.06,1.31,0.24,0.10,-0.13,0.00,0.00,1.04
15121,-87.00,-177.69,20.31,6.06,0.00,1.12,0.42,0.08,-0.16,0.00,0.00,1.09
15131,-87.00,-177.69,20.38,6.06,0.00,1.12,0.46,0.05,-0.19,0.00,0.00,1.04
15140,-87.00,-177.62,20.38,4.88,0.75,1.38,0.33,0.02,-0.21,0.00,0.00,1.07
15153,-86.94,-177.62,20.44,4.88,0.75,1.38,0.25,0.04,-0.19,0.00,0.00,1.05
15183,-86.88,-177.62,20.56,3.00,2.56,0.25,0.31,0.01,-0.17,0.00,0.00,1.06
15194,-86.88,-177.62,20.56,2.62,3.00,-0.38,0.40,0.05,-0.18,0.00,0.00,1.06
15202,-86.81,-177.62,20.56,2.31,3.25,-0.81,0.38,0.04,-0.18,0.00,0.00,1.06
15216,-86.81,-177.62,20.56,1.50,3.62,-1.06,0.27,0.00,-0.15,0.00,0.00,1.07
15228,-86.81,-177.62,20.62,1.31,3.88,-1.12,0.32,0.04,-0.18,0.00,0.00,1.08
15237,-86.75,-177.62,20.62,0.88,4.25,-1.25,0.26,0.05,-0.16,0.00,0.00,1.06
15246,-86.75,-177.62,20.62,0.44,4.62,-1.12,0.18,0.02,-0.16,0.00,0.00,1.05
15254,-86.69,-177.69,20.69,-0.31,4.56,-0.81,0.22,0.02,-0.18,0.00,0.00,1.07
15263,-86.69,-177.69,20.62,-0.75,4.88,-0.50,0.19,0.05,-0.14,0.00,0.00,1.06
15272,-86.69,-177.69,20.62,-0.75,4.88,-0.50,0.12,0.00,-0.14,0.00,0.00,1.07
15280,-86.62,-177.62,20.62,-1.44,4.81,-0.31,0.12,0.00,-0.14,0.00,0.00,1.08
15290,-86.56,-177.62,20.62,-1.94,4.75,0.00,0.11,-0.03,-0.15,0.00,0.00,1.06
15301,-86.56,-177.62,20.56,-2.25,4.50,-0.12,0.08,0.02,-0.17,0.00,0.00,1.09
15332,-86.44,-177.69,20.50,-3.88,4.12,-1.06,-0.10,0.03,-0.14,0.00,0.00,1.07
15342,-86.44,-177.69,20.44,-4.25,4.19,-1.44,-0.10,0.03,-0.15,0.00,0.00,1.06
15351,-86.44,-177.69,20.44,-4.56,4.25,-1.75,0.00,-0.01,-0.14,0.00,0.00,1.05
15362,-86.38,-177.69,20.38,-5.25,3.94,-2.25,0.01,-0.01,-0.15,0.00,0.00,1.06
15370,-86.38,-177.75,20.38,-5.81,3.69,-2.25,0.01,-0.01,-0.15,0.00,0.00,1.10
15383,-86.38,-177.75,20.31,-6.38,3.62,-2.31,-0.02,0.01,-0.12,0.00,0.00,1.04
15394,-86.31,-177.75,20.25,-7.56,2.81,-1.81,0.07,0.00,-0.13,0.00,0.00,1.07
15403,-86.31,-177.75,20.19,-7.88,2.69,-1.81,0.00,0.04,-0.08,0.00,0.00,1.08
15416,-86.31,-177.81,20.12,-8.44,2.69,-1.44,0.05,0.05,-0.11,0.00,0.00,1.06
15424,-86.31,-177.81,20.00,-8.94,2.25,-1.38,0.04,-0.01,-0.12,0.00,0.00,1.06
15435,-86.31,-177.81,20.00,-9.56,2.12,-1.38,-0.02,-0.02,-0.08,0.00,0.00,1.07
15443,-86.25,-177.81,19.81,-9.94,1.88,-1.50,-0.02,0.01,-0.10,0.00,0.00,1.05
15453,-86.25,-177.81,19.81,-10.31,1.81,-1.88,0.01,0.00,-0.10,0.00,0.00,1.08
15463,-86.25,-177.81,19.75,-10.31,1.81,-1.88,-0.01,-0.01,-0.09,0.00,0.00,1.05
15495,-86.25,-177.88,19.44,-12.31,1.38,-2.94,0.19,0.00,-0.08,0.00,0.00,1.05
15503,-86.25,-177.94,19.38,-12.69,1.69,-3.00,0.19,0.00,-0.07,0.00,0.00,1.05
15513,-86.25,-177.94,19.25,-12.69,1.69,-3.00,0.28,0.03,-0.05,0.00,0.00,1.06
15521,-86.25,-177.94,19.12,-13.19,1.69,-2.94,0.28,0.03,-0.05,0.00,0.00,1.04
15529,-86.25,-178.00,19.00,-13.62,1.88,-2.81,0.30,0.05,-0.04,0.00,0.00,1.05
15541,-86.25,-178.00,18.88,-14.06,2.19,-2.50,0.22,0.01,-0.03,0.00,0.00,1.04
15551,-86.25,-178.00,18.75,-14.50,2.38,-2.12,0.23,0.01,-0.08,0.00,0.00,1.02
15565,-86.25,-178.00,18.62,-14.88,2.56,-2.19,0.16,0.04,-0.09,0.00,0.00,1.02
15573,-86.19,-178.06,18.50,-15.44,2.69,-2.25,0.20,0.00,-0.05,0.00,0.00,1.04
15582,-86.19,-178.06,18.38,-15.81,2.88,-2.12,0.20,0.00,-0.05,0.00,0.00,1.03
15593,-86.19,-178.06,18.19,-16.31,2.81,-2.12,0.34,0.04,-0.02,0.00,0.00,1.03
15603,-86.19,-178.06,18.06,-16.56,3.44,-2.38,0.36,0.00,-0.03,0.00,0.00,1.04
15616,-86.12,-178.06,17.94,-17.12,3.50,-2.56,0.37,0.02,-0.01,0.00,0.00,1.04
15647,-86.06,-178.12,17.25,-18.62,5.19,-3.19,0.34,0.03,-0.01,0.00,0.00,1.03
15658,-86.00,-178.19,17.12,-18.94,5.44,-3.00,0.44,0.04,0.01,0.00,0.00,1.03
15666,-86.00,-178.19,16.94,-19.25,5.81,-2.62,0.41,0.05,0.00,0.00,0.00,1.03
15677,-86.00,-178.19,16.94,-19.25,5.81,-2.62,0.39,0.06,0.03,0.00,0.00,1.03
15685,-85.94,-178.19,16.75,-20.00,6.56,-2.38,0.36,0.01,0.00,0.00,0.00,1.04
15698,-85.88,-178.19,16.56,-20.38,6.75,-2.12,0.21,0.04,-0.01,0.00,0.00,1.05
15706,-85.75,-178.25,16.19,-20.69,7.06,-2.19,0.09,0.05,-0.02,0.00,0.00,1.04
15717,-85.75,-178.25,16.19,-21.19,7.38,-2.44,0.02,0.03,-0.01,0.00,0.00,1.02
15725,-85.75,-178.25,16.00,-21.19,7.38,-2.44,-0.05,0.04,0.00,0.00,0.00,1.04
15733,-85.69,-178.25,15.81,-21.25,7.25,-2.31,-0.05,0.04,0.00,0.00,0.00,1.02
15744,-85.62,-178.25,15.56,-21.69,7.06,-2.62,-0.05,0.08,0.01,0.00,0.00,1.02
15755,-85.56,-178.25,15.38,-21.94,6.69,-2.75,0.09,0.09,0.05,0.00,0.00,1.04
15765,-85.50,-178.25,15.19,-22.31,6.81,-3.12,0.25,0.18,0.08,0.00,0.00,1.03
15800,-85.31,-178.38,14.31,-23.50,8.12,-4.19,0.55,0.24,0.17,0.00,0.00,1.00
15808,-85.25,-178.38,14.12,-24.00,8.50,-4.06,0.71,0.32,0.20,0.00,0.00,1.02
15820,-85.25,-178.38,14.12,-24.31,9.19,-4.00,0.72,0.29,0.20,0.00,0.00,1.03
15828,-85.06,-178.44,13.69,-24.88,10.06,-3.75,0.65,0.29,0.21,0.00,0.00,1.04
15839,-85.06,-178.44,13.69,-25.50,10.50,-3.31,0.58,0.31,0.21,0.00,0.00,1.00
15847,-84.88,-178.44,13.19,-25.94,11.12,-2.88,0.62,0.39,0.21,0.00,0.00,1.01
15858,-84.88,-178.44,13.19,-26.62,11.75,-2.38,0.46,0.36,0.24,0.00,0.00,1.02
15867,-84.81,-178.38,12.88,-27.00,12.44,-2.19,0.26,0.33,0.21,0.00,0.00,1.03
15875,-84.69,-178.38,12.62,-27.00,12.44,-2.19,0.26,0.33,0.21,0.00,0.00,0.96
15883,-84.62,-178.38,12.31,-27.44,12.62,-1.94,0.17,0.29,0.19,0.00,0.00,0.71
15895,-84.50,-178.38,12.06,-28.00,13.06,-2.12,-0.06,0.27,0.17,0.00,0.00,0.58
15906,-84.38,-178.38,11.75,-28.69,12.94,-2.31,-0.28,0.27,0.15,0.00,0.00,0.60
15918,-84.25,-178.38,11.44,-29.12,12.38,-2.69,-0.57,0.15,0.11,0.00,0.00,0.68
15926,-84.19,-178.38,11.19,-29.31,11.88,-3.12,-0.77,0.16,0.13,0.00,0.00,0.70
15959,-83.94,-178.38,10.31,-31.06,7.44,-3.56,-0.96,0.17,0.10,0.00,0.00,0.59
15968,-83.81,-178.38,9.69,-31.50,5.81,-3.44,-0.95,0.14,0.10,0.00,0.00,0.57
15977,-83.81,-178.38,9.69,-31.50,5.81,-3.44,-0.97,0.13,0.07,0.00,0.00,0.61
15985,-83.75,-178.38,9.38,-31.75,4.25,-3.44,-0.97,0.13,0.07,0.00,0.00,0.68
15996,-83.75,-178.38,9.06,-32.00,2.56,-3.25,-0.98,0.12,0.08,0.00,0.00,0.25
16010,-83.75,-178.38,8.75,-32.50,0.88,-3.12,-0.98,0.06,0.03,0.00,0.00,0.15
16018,-83.81,-178.38,8.12,-33.12,-2.75,-2.75,-0.96,0.08,0.05,0.00,0.00,0.23
