Time,sensPitch,sensRoll,sensYaw,xGyro,yGyro,ZGyro,xAcc,yAcc,zAcc,latitude,longitude,altitude
6028,-87.50,177.50,-7.00,3.56,2.31,0.25,-0.42,-0.10,-0.07,0.00,0.00,0.20
6037,-87.50,177.50,-6.94,3.75,1.50,0.19,-0.41,-0.10,-0.06,0.00,0.00,0.19
6046,-87.50,177.50,-6.94,3.75,0.56,0.31,-0.41,-0.11,-0.05,0.00,0.00,0.35
6055,-87.50,177.50,-6.88,3.81,-0.06,0.12,-0.42,-0.11,-0.04,0.00,0.00,0.45
6068,-87.50,177.50,-6.81,3.88,-0.62,0.00,-0.38,-0.11,-0.07,0.00,0.00,0.68
6078,-87.50,177.50,-6.81,3.75,-1.50,0.00,-0.35,-0.11,-0.03,0.00,0.00,0.85
6090,-87.50,177.50,-6.75,3.94,-2.06,-0.12,-0.34,-0.09,-0.01,0.00,0.00,1.15
6098,-87.50,177.50,-6.75,4.12,-2.56,-0.19,-0.31,-0.09,-0.02,0.00,0.00,1.30
6110,-87.50,2.44,-6.69,4.12,-3.25,-0.12,-0.20,-0.10,-0.03,0.00,0.00,1.47
6121,-87.50,2.44,-6.62,4.19,-3.81,-0.19,-0.17,-0.08,-0.05,0.00,0.00,1.54
6131,-87.50,2.44,-6.62,4.25,-4.19,-0.12,-0.06,-0.08,-0.04,0.00,0.00,1.58
6139,-87.50,2.44,-6.56,4.31,-4.56,-0.12,-0.06,-0.08,-0.04,0.00,0.00,1.57
6149,-87.50,2.44,-6.50,4.50,-4.75,-0.12,0.01,-0.08,-0.01,0.00,0.00,1.62
6929,-87.50,2.38,-2.00,6.25,4.56,0.25,0.05,0.05,-0.02,0.00,0.00,1.41
6940,-87.50,2.38,-1.94,6.19,4.50,0.31,0.00,0.04,-0.02,0.00,0.00,1.40
6948,-87.50,2.38,-1.88,6.19,4.50,0.31,-0.04,0.06,0.00,0.00,0.00,1.39
6957,-87.56,2.38,-1.81,6.25,4.38,0.31,-0.04,0.06,0.00,0.00,0.00,1.37
6968,-87.56,2.38,-1.75,6.19,4.12,0.38,-0.16,0.05,-0.02,0.00,0.00,1.42
6978,-87.56,2.38,-1.69,6.25,3.94,0.31,-0.19,0.05,-0.03,0.00,0.00,1.46
6988,-87.56,2.38,-1.62,6.12,3.56,0.38,-0.25,0.06,-0.02,0.00,0.00,1.49
6996,-87.56,2.38,-1.56,5.94,3.00,0.38,-0.25,0.06,-0.02,0.00,0.00,1.51
7005,-87.56,2.38,-1.50,6.00,2.56,0.44,-0.30,0.05,-0.02,0.00,0.00,1.53
7013,-87.56,2.38,-1.44,5.88,2.12,0.31,-0.32,0.05,-0.03,0.00,0.00,1.56
7023,-87.56,2.38,-1.38,5.88,1.50,0.19,-0.37,0.05,-0.07,0.00,0.00,1.57
7030,-87.56,2.38,-1.31,5.69,0.94,0.25,-0.37,0.06,-0.03,0.00,0.00,1.56
7039,-87.56,2.38,-1.31,5.69,0.19,0.19,-0.40,0.04,-0.04,0.00,0.00,1.57
7047,-87.56,2.38,-1.25,5.69,0.19,0.19,-0.40,0.04,-0.04,0.00,0.00,1.56
7080,-87.56,2.38,-1.06,5.38,-2.38,0.06,-0.37,0.05,-0.05,0.00,0.00,1.55
7089,-87.56,2.38,-1.06,5.38,-3.38,0.06,-0.36,0.05,-0.05,0.00,0.00,1.55
7098,-87.56,2.38,-1.00,5.38,-3.38,0.06,-0.36,0.05,-0.05,0.00,0.00,1.56
7107,-87.56,2.38,-0.94,5.25,-3.81,0.06,-0.32,0.03,-0.07,0.00,0.00,1.54
7117,-87.56,2.38,-0.88,5.06,-4.44,0.00,-0.26,0.03,-0.04,0.00,0.00,1.50
7128,-87.56,2.38,-0.88,4.94,-5.00,-0.06,-0.24,0.03,-0.06,0.00,0.00,1.45
7140,-87.50,2.38,-0.81,4.94,-5.69,-0.06,-0.16,0.05,-0.08,0.00,0.00,1.36
7149,-87.50,2.38,-0.75,4.94,-6.00,-0.06,-0.16,0.05,-0.08,0.00,0.00,1.32
7158,-87.50,2.38,-0.69,4.75,-6.19,-0.19,-0.09,0.04,-0.05,0.00,0.00,1.24
7169,-87.50,2.38,-0.69,4.81,-6.62,-0.12,-0.03,0.02,-0.07,0.00,0.00,1.17
7180,-87.50,2.38,-0.62,4.69,-6.88,-0.19,0.04,0.03,-0.10,0.00,0.00,1.18
7192,-87.44,2.38,-0.56,4.56,-7.06,-0.19,0.15,0.03,-0.07,0.00,0.00,1.16
7200,-87.44,2.38,-0.56,4.62,-7.19,-0.31,0.18,0.02,-0.08,0.00,0.00,1.21
7211,-87.44,2.38,-0.50,4.50,-7.25,-0.31,0.18,0.02,-0.08,0.00,0.00,1.19
7221,-87.38,2.38,-0.44,4.38,-6.88,-0.06,0.27,0.01,-0.07,0.00,0.00,1.15
7254,-87.31,2.38,-0.31,4.12,-5.88,-0.19,0.43,0.03,-0.07,0.00,0.00,1.11
7263,-87.25,2.38,-0.25,4.06,-5.19,-0.12,0.46,0.01,-0.09,0.00,0.00,1.09
7277,-87.25,2.38,-0.25,4.06,-4.69,-0.25,0.50,0.01,-0.08,0.00,0.00,1.07
7286,-87.25,2.38,-0.19,3.94,-4.31,-0.12,0.52,0.04,-0.11,0.00,0.00,1.02
7295,-87.19,2.38,-0.19,3.88,-3.62,0.00,0.54,0.02,-0.05,0.00,0.00,1.01
7306,-87.19,2.38,-0.12,3.69,-2.88,-0.06,0.55,0.01,-0.08,0.00,0.00,1.01
7314,-87.19,2.38,-0.12,3.75,-2.38,0.00,0.58,0.03,-0.10,0.00,0.00,0.99
7326,-87.19,2.38,-0.06,3.62,-1.56,0.06,0.57,0.02,-0.11,0.00,0.00,1.02
7335,-87.19,2.38,0.00,3.69,-0.94,0.12,0.55,0.03,-0.10,0.00,0.00,1.01
7345,-87.19,2.38,0.00,3.50,-0.12,0.19,0.53,0.01,-0.06,0.00,0.00,1.02
7354,-87.19,2.38,0.06,3.56,0.62,0.12,0.50,0.01,-0.10,0.00,0.00,1.02
7363,-87.19,2.38,0.06,3.44,1.38,0.31,0.46,0.00,-0.11,0.00,0.00,0.98
7374,-87.19,2.38,0.06,3.44,1.81,0.25,0.44,0.01,-0.12,0.00,0.00,0.99
7383,-87.19,2.38,0.12,3.25,2.50,0.25,0.41,0.00,-0.12,0.00,0.00,1.00
7435,-87.25,2.38,0.25,2.81,4.38,0.38,0.14,0.01,-0.12,0.00,0.00,0.89
7443,-87.31,2.38,0.31,2.75,4.44,0.38,0.09,0.00,-0.12,0.00,0.00,0.90
7454,-87.31,2.38,0.31,2.75,4.44,0.38,0.04,0.00,-0.14,0.00,0.00,0.86
7462,-87.31,2.38,0.38,2.62,4.31,0.38,-0.05,0.00,-0.13,0.00,0.00,0.82
7472,-87.38,2.38,0.38,2.50,4.38,0.38,-0.08,0.00,-0.17,0.00,0.00,0.82
7483,-87.38,2.38,0.38,2.50,4.38,0.38,-0.12,-0.01,-0.14,0.00,0.00,0.80
7493,-87.38,2.38,0.44,2.25,3.88,0.44,-0.15,0.00,-0.13,0.00,0.00,0.76
7501,-87.38,2.38,0.44,2.25,3.88,0.44,-0.21,0.00,-0.16,0.00,0.00,0.78
7510,-87.44,2.38,0.50,2.31,3.50,0.38,-0.21,0.00,-0.16,0.00,0.00,0.80
7523,-87.44,2.38,0.50,2.25,3.19,0.31,-0.24,0.01,-0.15,0.00,0.00,0.74
7533,-87.44,2.38,0.50,1.88,2.75,0.25,-0.30,0.00,-0.16,0.00,0.00,0.77
7543,-87.44,2.38,0.56,1.88,2.44,0.31,-0.32,-0.02,-0.15,0.00,0.00,0.74
7552,-87.44,2.38,0.56,1.81,1.81,0.12,-0.32,-0.02,-0.15,0.00,0.00,0.76
7562,-87.44,2.38,0.56,1.75,1.12,0.12,-0.31,-0.02,-0.13,0.00,0.00,0.74
7573,-87.44,2.38,0.56,1.75,0.69,0.00,-0.33,0.00,-0.17,0.00,0.00,0.77
7607,-87.44,2.38,0.62,1.25,-1.94,-0.12,-0.29,0.00,-0.15,0.00,0.00,0.79
7615,-87.44,2.38,0.62,1.00,-2.62,-0.12,-0.27,0.00,-0.17,0.00,0.00,0.78
7627,-87.44,2.38,0.62,0.94,-3.25,-0.12,-0.21,0.00,-0.17,0.00,0.00,0.81
7636,-87.38,2.38,0.62,0.81,-3.44,-0.06,-0.18,0.00,-0.17,0.00,0.00,0.80
7649,-87.38,2.38,0.69,0.69,-3.81,-0.38,-0.16,-0.01,-0.14,0.00,0.00,0.81
7657,-87.38,2.38,0.69,0.69,-4.38,-0.25,-0.12,-0.01,-0.14,0.00,0.00,0.84
7669,-87.38,2.38,0.69,0.56,-4.62,-0.38,-0.04,-0.01,-0.15,0.00,0.00,0.86
7678,-87.31,2.38,0.69,0.38,-5.06,-0.31,0.00,-0.01,-0.16,0.00,0.00,0.87
7689,-87.31,2.38,0.69,0.19,-5.00,-0.38,0.02,0.00,-0.16,0.00,0.00,0.83
7697,-87.31,2.38,0.62,0.06,-5.12,-0.50,0.11,0.00,-0.10,0.00,0.00,0.87
7707,-87.25,2.38,0.62,0.00,-5.31,-0.38,0.17,-0.03,-0.15,0.00,0.00,0.84
7715,-87.25,2.38,0.62,-0.06,-5.19,-0.38,0.23,-0.01,-0.14,0.00,0.00,0.87
7724,-87.25,2.38,0.62,0.00,-4.94,-0.50,0.25,-0.02,-0.16,0.00,0.00,0.82
7734,-87.25,2.38,0.62,-0.12,-4.75,-0.31,0.33,0.01,-0.15,0.00,0.00,0.84
7765,-87.12,2.38,0.62,-0.50,-3.44,-0.25,0.43,0.01,-0.15,0.00,0.00,0.82
7775,-87.12,2.38,0.62,-0.56,-3.31,-0.25,0.49,0.02,-0.15,0.00,0.00,0.84
7785,-87.12,2.38,0.62,-0.69,-2.75,-0.25,0.50,0.00,-0.12,0.00,0.00,0.85
7796,-87.12,2.38,0.62,-0.81,-2.12,-0.38,0.51,0.01,-0.13,0.00,0.00,0.82
7805,-87.06,2.38,0.62,-0.94,-1.62,-0.19,0.54,0.00,-0.13,0.00,0.00,0.84
7815,-87.06,2.38,0.62,-0.94,-1.62,-0.19,0.54,0.00,-0.13,0.00,0.00,0.85
7825,-87.06,2.38,0.62,-1.00,-0.12,-0.12,0.56,0.01,-0.16,0.00,0.00,0.87
7834,-87.06,2.38,0.62,-1.00,-0.12,-0.12,0.54,-0.01,-0.13,0.00,0.00,0.89
7845,-87.06,2.38,0.56,-1.06,0.44,-0.19,0.52,0.00,-0.12,0.00,0.00,0.89
7855,-87.06,2.38,0.56,-1.25,1.25,-0.06,0.52,0.00,-0.12,0.00,0.00,0.92
7864,-87.12,2.38,0.56,-1.19,1.75,-0.19,0.51,0.01,-0.11,0.00,0.00,0.93
7877,-87.12,2.38,0.56,-1.31,2.56,0.06,0.45,0.01,-0.13,0.00,0.00,0.93
7886,-87.12,2.38,0.56,-1.38,3.69,0.12,0.43,0.00,-0.12,0.00,0.00,0.90
7897,-87.12,2.38,0.50,-1.50,4.25,0.12,0.38,0.01,-0.12,0.00,0.00,0.94
7928,-87.25,2.38,0.50,-1.81,5.56,0.06,0.25,0.00,-0.12,0.00,0.00,0.90
7938,-87.25,2.38,0.44,-2.06,5.75,0.19,0.17,0.01,-0.14,0.00,0.00,0.89
7946,-87.25,2.38,0.44,-2.00,5.94,0.19,0.11,0.01,-0.11,0.00,0.00,0.85
7957,-87.31,2.38,0.44,-2.00,5.94,0.19,0.11,0.01,-0.11,0.00,0.00,0.87
7965,-87.31,2.38,0.44,-2.00,5.88,0.12,0.09,0.02,-0.12,0.00,0.00,0.84
7979,-87.38,2.38,0.38,-2.31,6.19,0.19,-0.03,0.00,-0.16,0.00,0.00,0.86
7987,-87.38,2.38,0.38,-2.50,6.12,0.00,-0.07,0.00,-0.14,0.00,0.00,0.88
8000,-87.38,2.38,0.38,-2.50,6.00,0.06,-0.11,0.00,-0.13,0.00,0.00,0.93
8008,-87.44,2.38,0.31,-2.56,5.69,0.12,-0.15,0.00,-0.12,0.00,0.00,0.95
8018,-87.44,2.38,0.31,-2.69,5.25,0.12,-0.21,0.02,-0.14,0.00,0.00,0.96
8027,-87.44,2.38,0.31,-2.69,4.81,0.06,-0.22,0.00,-0.13,0.00,0.00,1.01
8037,-87.44,2.38,0.25,-2.81,4.38,-0.12,-0.26,0.00,-0.14,0.00,0.00,1.05
8047,-87.50,2.38,0.25,-3.00,4.00,-0.06,-0.29,0.01,-0.14,0.00,0.00,1.02
8058,-87.50,2.38,0.19,-3.00,4.00,-0.06,-0.33,0.01,-0.13,0.00,0.00,1.07
8067,-87.50,2.38,0.19,-3.19,2.62,-0.25,-0.33,0.05,-0.10,0.00,0.00,1.06
8101,-87.50,2.38,0.06,-3.50,0.94,-0.25,-0.34,0.03,-0.09,0.00,0.00,1.09
8110,-87.50,2.38,0.00,-3.75,-0.12,-0.38,-0.33,0.02,-0.10,0.00,0.00,1.13
8121,-87.50,2.38,0.00,-3.75,-0.12,-0.38,-0.30,0.01,-0.10,0.00,0.00,1.11
8130,-87.50,2.38,-0.06,-3.81,-0.88,-0.38,-0.26,0.01,-0.12,0.00,0.00,1.13
8141,-87.50,2.38,-0.06,-3.81,-1.12,-0.44,-0.23,0.03,-0.12,0.00,0.00,1.16
8150,-87.50,2.38,-0.12,-3.94,-1.81,-0.31,-0.23,0.02,-0.10,0.00,0.00,1.17
8161,-87.50,2.38,-0.12,-4.19,-2.62,-0.38,-0.16,0.02,-0.08,0.00,0.00,1.16
8169,-87.50,2.38,-0.19,-4.19,-2.62,-0.38,-0.12,0.02,-0.09,0.00,0.00,1.21
8181,-87.50,2.38,-0.19,-4.31,-3.00,-0.44,-0.06,0.05,-0.11,0.00,0.00,1.20
8189,-87.50,2.38,-0.31,-4.38,-3.69,-0.44,-0.05,0.05,-0.08,0.00,0.00,1.20
8201,-87.50,2.38,-0.31,-4.44,-3.56,-0.38,0.00,0.04,-0.08,0.00,0.00,1.22
8210,-87.44,2.38,-0.38,-4.56,-3.81,-0.44,0.07,0.06,-0.08,0.00,0.00,1.23
8222,-87.44,2.38,-0.44,-4.56,-3.81,-0.44,0.13,0.05,-0.07,0.00,0.00,1.24
8230,-87.44,2.38,-0.50,-4.56,-3.69,-0.62,0.18,0.03,-0.08,0.00,0.00,1.29
8264,-87.38,2.38,-0.62,-5.06,-2.94,-0.44,0.32,0.06,-0.04,0.00,0.00,1.30
8276,-87.38,2.38,-0.69,-4.88,-2.50,-0.44,0.35,0.05,-0.03,0.00,0.00,1.33
8291,-87.38,2.38,-0.69,-4.88,-2.19,-0.31,0.39,0.05,-0.09,0.00,0.00,1.38
8302,-87.38,2.38,-0.81,-5.12,-1.25,-0.31,0.47,0.05,-0.02,0.00,0.00,1.41
8310,-87.38,2.38,-0.88,-5.12,-0.56,-0.25,0.45,0.05,-0.02,0.00,0.00,1.39
8323,-87.38,2.38,-0.88,-5.06,0.12,-0.19,0.49,0.06,-0.05,0.00,0.00,1.41
8334,-87.38,2.38,-0.94,-5.38,0.44,-0.31,0.47,0.05,-0.06,0.00,0.00,1.47
8344,-87.38,2.38,-1.00,-5.31,1.06,-0.25,0.48,0.05,-0.03,0.00,0.00,1.46
8354,-87.38,2.38,-1.06,-5.44,1.44,-0.06,0.47,0.07,-0.03,0.00,0.00,1.47
8362,-87.38,2.38,-1.12,-5.44,2.06,-0.06,0.45,0.06,-0.02,0.00,0.00,1.48
8371,-87.38,2.38,-1.19,-5.50,2.69,0.00,0.43,0.04,-0.04,0.00,0.00,1.51
8379,-87.38,2.38,-1.19,-5.44,3.56,0.00,0.42,0.06,-0.02,0.00,0.00,1.49
8391,-87.38,2.38,-1.19,-5.69,3.69,0.00,0.40,0.07,-0.01,0.00,0.00,1.51
8399,-87.44,2.38,-1.25,-5.56,4.06,0.06,0.36,0.05,-0.03,0.00,0.00,1.46
8432,-87.44,2.38,-1.50,-5.62,5.19,0.06,0.26,0.07,-0.04,0.00,0.00,1.35
8440,-87.50,2.38,-1.50,-5.62,5.19,0.25,0.15,0.04,-0.02,0.00,0.00,1.40
8450,-87.50,2.38,-1.50,-5.75,5.31,0.19,0.11,0.06,-0.01,0.00,0.00,1.43
8458,-87.50,2.38,-1.56,-5.75,5.31,0.19,0.07,0.05,-0.01,0.00,0.00,1.44
8466,-87.50,2.38,-1.62,-5.75,5.62,0.12,0.07,0.05,-0.01,0.00,0.00,1.49
8476,-87.50,2.38,-1.69,-5.81,5.75,0.06,0.06,0.05,-0.02,0.00,0.00,1.50
8490,-87.50,2.38,-1.75,-5.88,5.75,0.00,-0.01,0.06,-0.04,0.00,0.00,1.53
8499,-87.50,2.38,-1.81,-5.81,5.19,0.00,-0.11,0.03,0.00,0.00,0.00,1.53
8510,-87.50,2.38,-1.88,-5.81,5.19,0.00,-0.11,0.03,0.00,0.00,0.00,1.54
8518,-87.50,2.38,-1.94,-5.94,4.81,0.06,-0.10,0.06,-0.02,0.00,0.00,1.53
8531,-87.56,2.38,-1.94,-6.12,4.25,0.00,-0.24,0.05,-0.03,0.00,0.00,1.52
8540,-87.56,2.38,-2.00,-6.12,3.44,0.00,-0.26,0.04,-0.05,0.00,0.00,1.53
8549,-87.56,2.38,-2.06,-6.12,3.44,0.00,-0.28,0.06,-0.04,0.00,0.00,1.55
8557,-87.56,2.38,-2.12,-6.19,2.94,-0.06,-0.28,0.06,-0.04,0.00,0.00,1.56
8592,-87.56,177.56,-2.31,-6.31,1.06,-0.25,-0.36,0.05,-0.04,0.00,0.00,1.55
8601,-87.56,177.56,-2.38,-6.44,-0.19,-0.19,-0.35,0.05,-0.03,0.00,0.00,1.55
8612,-87.56,177.56,-2.44,-6.44,-0.19,-0.19,-0.35,0.05,-0.03,0.00,0.00,1.54
8620,-87.56,177.56,-2.50,-6.44,-0.69,-0.25,-0.33,0.04,0.00,0.00,0.00,1.54
8632,-87.56,177.56,-2.56,-6.50,-1.44,-0.31,-0.29,0.05,-0.01,0.00,0.00,1.54
8640,-87.56,177.56,-2.62,-6.56,-2.69,-0.25,-0.28,0.06,-0.04,0.00,0.00,1.55
8652,-87.56,2.38,-2.69,-6.56,-2.69,-0.25,-0.27,0.07,-0.03,0.00,0.00,1.54
8660,-87.56,2.38,-2.75,-6.62,-3.12,-0.31,-0.20,0.05,0.00,0.00,0.00,1.55
8670,-87.56,2.38,-2.81,-6.56,-3.69,-0.25,-0.20,0.05,0.00,0.00,0.00,1.55
8680,-87.56,2.38,-2.88,-6.50,-3.81,-0.25,-0.12,0.05,-0.04,0.00,0.00,1.53
8690,-87.50,2.38,-2.94,-6.62,-4.38,-0.31,-0.09,0.03,-0.01,0.00,0.00,1.54
8700,-87.50,2.38,-3.06,-6.56,-4.62,-0.31,-0.03,0.04,-0.01,0.00,0.00,1.54
8710,-87.50,2.38,-3.12,-6.69,-5.00,-0.38,-0.03,0.04,-0.01,0.00,0.00,1.54
8718,-87.50,2.38,-3.19,-6.69,-5.19,-0.44,0.04,0.04,-0.02,0.00,0.00,1.54
8753,-87.50,2.38,-3.38,-6.69,-5.12,-0.25,0.21,0.03,0.00,0.00,0.00,1.55
8761,-87.50,2.38,-3.44,-6.81,-5.25,-0.31,0.24,0.03,0.00,0.00,0.00,1.53
8771,-87.50,2.38,-3.50,-6.75,-5.00,-0.31,0.24,0.03,0.00,0.00,0.00,1.52
8780,-87.44,2.38,-3.56,-6.56,-4.62,-0.25,0.31,0.02,0.00,0.00,0.00,1.52
8793,-87.44,2.44,-3.62,-6.69,-4.31,-0.25,0.38,0.01,0.00,0.00,0.00,1.52
8802,-87.44,2.44,-3.69,-6.75,-3.31,-0.12,0.40,0.00,0.00,0.00,0.00,1.52
8813,-87.44,2.44,-3.75,-6.75,-3.31,-0.12,0.40,0.00,0.00,0.00,0.00,1.54
8821,-87.44,2.44,-3.81,-6.62,-3.00,-0.25,0.45,0.04,0.00,0.00,0.00,1.53
8832,-87.44,2.44,-3.88,-6.69,-2.56,-0.12,0.45,0.01,-0.02,0.00,0.00,1.54
8841,-87.44,2.44,-3.94,-6.62,-1.94,-0.19,0.44,0.02,-0.02,0.00,0.00,1.53
8852,-87.44,2.44,-4.00,-6.56,-1.44,-0.12,0.46,0.02,-0.02,0.00,0.00,1.52
8860,-87.44,2.44,-4.06,-6.62,-1.06,0.00,0.46,0.02,-0.02,0.00,0.00,1.52
8868,-87.44,2.44,-4.12,-6.56,-0.44,-0.06,0.44,0.01,-0.02,0.00,0.00,1.52
8876,-87.44,2.44,-4.19,-6.44,0.19,0.06,0.43,0.02,0.00,0.00,0.00,1.52
8908,-87.44,2.44,-4.38,-6.38,1.50,-0.06,0.38,0.02,-0.03,0.00,0.00,1.52
8916,-87.44,2.44,-4.44,-6.25,2.12,0.00,0.33,-0.01,-0.05,0.00,0.00,1.53
8926,-87.44,2.44,-4.50,-6.31,2.38,0.06,0.29,0.00,-0.03,0.00,0.00,1.51
8933,-87.44,2.44,-4.56,-6.38,2.81,-0.06,0.28,0.00,-0.04,0.00,0.00,1.53
8942,-87.44,2.44,-4.56,-6.31,3.12,0.06,0.21,-0.01,-0.02,0.00,0.00,1.51
8954,-87.44,2.44,-4.62,-6.31,3.12,0.06,0.15,-0.01,-0.06,0.00,0.00,1.52
8961,-87.44,2.44,-4.69,-6.44,3.00,0.00,0.11,-0.01,-0.02,0.00,0.00,1.53
8969,-87.44,2.44,-4.75,-6.25,3.25,-0.06,0.11,-0.01,-0.02,0.00,0.00,1.55
8980,-87.44,2.44,-4.81,-6.31,3.38,0.06,0.09,-0.01,-0.02,0.00,0.00,1.57
8991,-87.50,2.44,-4.88,-6.19,3.19,0.06,0.00,0.00,-0.07,0.00,0.00,1.60
9002,-87.50,2.44,-4.94,-6.06,3.19,-0.12,0.00,-0.01,-0.06,0.00,0.00,1.61
9010,-87.50,2.44,-5.00,-6.06,3.25,0.06,-0.04,-0.02,-0.07,0.00,0.00,1.61
9017,-87.50,2.44,-5.06,-6.00,2.69,0.00,-0.07,-0.02,-0.05,0.00,0.00,1.63
9025,-87.50,2.44,-5.12,-6.00,2.62,0.06,-0.14,-0.03,-0.06,0.00,0.00,1.63
9055,-87.50,2.44,-5.25,-5.81,1.44,0.00,-0.24,-0.04,-0.06,0.00,0.00,1.64
9063,-87.50,2.44,-5.25,-5.81,1.44,0.00,-0.26,-0.03,-0.07,0.00,0.00,1.65
9070,-87.50,2.44,-5.31,-5.69,0.75,-0.12,-0.26,-0.03,-0.07,0.00,0.00,1.64
9079,-87.50,2.44,-5.38,-5.69,0.44,0.00,-0.25,-0.03,-0.08,0.00,0.00,1.63
9091,-87.50,2.44,-5.44,-5.81,-0.19,0.00,-0.28,-0.04,-0.09,0.00,0.00,1.66
9101,-87.50,2.44,-5.50,-5.69,-0.62,-0.19,-0.27,-0.02,-0.09,0.00,0.00,1.64
9109,-87.50,2.44,-5.56,-5.69,-1.12,-0.12,-0.30,-0.05,-0.08,0.00,0.00,1.66
9116,-87.50,2.44,-5.62,-5.69,-1.69,-0.12,-0.27,-0.05,-0.09,0.00,0.00,1.66
9124,-87.50,2.44,-5.62,-5.69,-2.25,-0.19,-0.27,-0.04,-0.07,0.00,0.00,1.64
9135,-87.50,2.44,-5.69,-5.69,-2.25,-0.19,-0.27,-0.05,-0.11,0.00,0.00,1.64
9144,-87.50,2.44,-5.75,-5.62,-3.38,-0.31,-0.24,-0.05,-0.09,0.00,0.00,1.65
9158,-87.50,2.44,-5.75,-5.62,-3.38,-0.31,-0.21,-0.06,-0.12,0.00,0.00,1.65
9165,-87.50,2.44,-5.88,-5.50,-4.12,-0.19,-0.20,-0.06,-0.10,0.00,0.00,1.64
9173,-87.50,2.44,-5.88,-5.50,-4.12,-0.19,-0.20,-0.06,-0.10,0.00,0.00,1.63
9205,-87.44,2.44,-6.06,-5.38,-5.44,-0.44,-0.01,-0.07,-0.11,0.00,0.00,1.65
9212,-87.44,2.44,-6.12,-5.38,-5.44,-0.44,-0.01,-0.07,-0.11,0.00,0.00,1.64
9220,-87.44,2.44,-6.19,-5.38,-5.56,-0.19,0.03,-0.08,-0.09,0.00,0.00,1.63
9228,-87.38,2.44,-6.19,-5.31,-5.81,-0.31,0.07,-0.07,-0.11,0.00,0.00,1.63
9235,-87.38,2.44,-6.25,-5.19,-5.88,-0.31,0.10,-0.09,-0.08,0.00,0.00,1.63
9246,-87.38,2.44,-6.25,-5.19,-5.75,-0.38,0.10,-0.09,-0.09,0.00,0.00,1.63
9255,-87.38,2.44,-6.31,-4.88,-5.62,-0.31,0.23,-0.05,-0.09,0.00,0.00,1.62
9264,-87.38,2.44,-6.38,-4.88,-5.62,-0.31,0.23,-0.05,-0.09,0.00,0.00,1.63
9271,-87.31,2.44,-6.44,-4.94,-5.31,-0.19,0.26,-0.10,-0.10,0.00,0.00,1.62
9280,-87.31,2.44,-6.44,-4.88,-5.12,-0.31,0.27,-0.07,-0.09,0.00,0.00,1.60
9288,-87.31,2.44,-6.50,-4.69,-5.06,-0.19,0.31,-0.08,-0.10,0.00,0.00,1.60
9298,-87.25,2.44,-6.56,-4.69,-4.69,-0.31,0.37,-0.09,-0.09,0.00,0.00,1.60
9306,-87.25,2.44,-6.62,-4.50,-4.19,-0.25,0.41,-0.08,-0.10,0.00,0.00,1.59
9318,-87.25,2.44,-6.62,-4.50,-4.19,-0.25,0.41,-0.08,-0.10,0.00,0.00,1.60
9363,-87.19,2.44,-6.81,-4.12,-1.44,-0.25,0.47,-0.08,-0.14,0.00,0.00,1.56
9373,-87.19,2.44,-6.88,-3.94,-1.06,0.00,0.47,-0.10,-0.08,0.00,0.00,1.54
9384,-87.19,2.44,-6.88,-3.88,-0.31,-0.12,0.45,-0.08,-0.12,0.00,0.00,1.53
9396,-87.19,2.44,-6.94,-3.88,0.06,0.00,0.46,-0.09,-0.09,0.00,0.00,1.46
9406,-87.19,2.44,-6.94,-3.81,0.81,0.00,0.44,-0.11,-0.11,0.00,0.00,1.40
9416,-87.19,2.44,-7.00,-3.62,1.31,0.06,0.44,-0.11,-0.11,0.00,0.00,1.30
9425,-87.19,2.44,-7.00,-3.62,1.75,0.00,0.39,-0.09,-0.09,0.00,0.00,1.20
9436,-87.25,2.44,-7.06,-3.44,2.25,0.00,0.34,-0.08,-0.11,0.00,0.00,0.95
9447,-87.25,2.44,-7.06,-3.38,2.75,0.00,0.30,-0.11,-0.12,0.00,0.00,0.78
9457,-87.25,2.44,-7.12,-3.19,3.25,0.00,0.23,-0.12,-0.12,0.00,0.00,0.62
9466,-87.25,2.44,-7.12,-3.19,3.25,0.00,0.23,-0.12,-0.12,0.00,0.00,0.52
9475,-87.25,2.44,-7.19,-3.12,3.38,0.00,0.21,-0.13,-0.12,0.00,0.00,0.37
9487,-87.31,2.44,-7.19,-3.06,3.94,0.06,0.17,-0.11,-0.12,0.00,0.00,0.22
9498,-87.31,2.44,-7.25,-2.94,4.06,0.00,0.08,-0.11,-0.13,0.00,0.00,0.19
9530,-87.38,2.44,-7.31,-2.69,3.88,0.00,-0.05,-0.14,-0.15,0.00,0.00,0.13
9540,-87.38,2.44,-7.38,-2.62,3.62,-0.06,-0.09,-0.14,-0.15,0.00,0.00,0.15
9549,-87.38,2.44,-7.38,-2.25,3.56,-0.06,-0.10,-0.11,-0.14,0.00,0.00,0.05
9559,-87.38,2.44,-7.38,-2.38,2.88,-0.12,-0.13,-0.11,-0.12,0.00,0.00,0.10
9568,-87.38,2.44,-7.38,-2.38,2.88,-0.12,-0.16,-0.13,-0.14,0.00,0.00,0.09
9578,-87.38,2.44,-7.44,-2.19,2.69,0.00,-0.16,-0.13,-0.14,0.00,0.00,0.14
9589,-87.38,2.44,-7.44,-2.12,1.81,0.12,-0.21,-0.13,-0.13,0.00,0.00,6.63
9598,-87.38,2.44,-7.44,-1.94,1.50,-0.06,-0.23,-0.13,-0.14,0.00,0.00,0.10
9609,-87.38,2.44,-7.50,-2.00,0.94,-0.06,-0.24,-0.11,-0.15,0.00,0.00,6.66
9618,-87.44,2.44,-7.50,-2.00,0.94,-0.06,-0.25,-0.11,-0.14,0.00,0.00,0.05
9627,-87.44,2.44,-7.50,-1.81,0.31,-0.06,-0.25,-0.11,-0.14,0.00,0.00,6.67
9638,-87.44,2.44,-7.50,-1.69,0.12,-0.19,-0.23,-0.13,-0.16,0.00,0.00,0.14
9648,-87.44,2.44,-7.56,-1.69,-0.50,-0.19,-0.19,-0.13,-0.13,0.00,0.00,0.13
9659,-87.38,2.44,-7.56,-1.50,-1.50,-0.06,-0.21,-0.12,-0.15,0.00,0.00,0.14
9691,-87.38,2.44,-7.62,-1.25,-2.44,-0.19,-0.09,-0.13,-0.15,0.00,0.00,0.10
9701,-87.38,2.44,-7.62,-1.06,-2.88,-0.06,-0.07,-0.10,-0.11,0.00,0.00,0.14
9710,-87.38,2.44,-7.62,-0.94,-3.25,-0.25,-0.03,-0.13,-0.12,0.00,0.00,0.08
9721,-87.38,2.44,-7.62,-0.94,-3.25,-0.25,-0.02,-0.12,-0.13,0.00,0.00,0.08
9730,-87.38,2.44,-7.69,-0.88,-3.75,-0.06,0.05,-0.13,-0.13,0.00,0.00,0.14
9742,-87.38,2.44,-7.69,-0.75,-3.75,-0.19,0.08,-0.11,-0.12,0.00,0.00,0.07
9751,-87.31,2.44,-7.69,-0.62,-3.75,-0.06,0.10,-0.11,-0.12,0.00,0.00,0.08
9763,-87.31,2.44,-7.69,-0.50,-3.44,0.00,0.16,-0.10,-0.10,0.00,0.00,0.12
9772,-87.31,2.44,-7.69,-0.50,-3.50,-0.06,0.22,-0.09,-0.11,0.00,0.00,0.12
9784,-87.31,2.44,-7.69,-0.38,-3.19,-0.06,0.26,-0.11,-0.10,0.00,0.00,0.14
9793,-87.25,2.44,-7.69,-0.25,-2.81,-0.12,0.28,-0.09,-0.12,0.00,0.00,0.14
9805,-87.25,2.44,-7.69,-0.19,-2.69,-0.19,0.32,-0.11,-0.14,0.00,0.00,0.12
9813,-87.25,2.44,-7.69,0.06,-2.19,-0.12,0.37,-0.09,-0.09,0.00,0.00,0.10
9824,-87.25,2.44,-7.69,0.12,-1.75,-0.12,0.40,-0.10,-0.09,0.00,0.00,0.15
9859,-87.25,2.44,-7.69,0.38,-0.50,-0.06,0.44,-0.11,-0.10,0.00,0.00,0.07
9872,-87.25,2.44,-7.69,0.56,0.25,-0.12,0.43,-0.08,-0.06,0.00,0.00,0.13
9881,-87.25,2.44,-7.69,0.81,1.25,0.06,0.46,-0.09,-0.07,0.00,0.00,0.13
9891,-87.25,2.44,-7.69,0.75,1.81,0.06,0.45,-0.11,-0.09,0.00,0.00,0.08
9901,-87.25,2.44,-7.69,1.00,2.44,0.00,0.44,-0.07,-0.06,0.00,0.00,0.09
9912,-87.25,2.44,-7.69,1.12,2.62,0.12,0.42,-0.08,-0.08,0.00,0.00,0.08
9921,-87.25,2.44,-7.62,1.25,3.25,0.12,0.38,-0.10,-0.09,0.00,0.00,0.09
9931,-87.31,2.44,-7.62,1.25,3.25,0.12,0.35,-0.08,-0.09,0.00,0.00,0.09
9941,-87.31,2.44,-7.62,1.25,4.06,0.19,0.34,-0.07,-0.10,0.00,0.00,0.12
9954,-87.31,2.44,-7.62,1.44,4.38,0.19,0.31,-0.09,-0.07,0.00,0.00,0.13
9963,-87.31,2.44,-7.56,1.69,4.75,0.06,0.22,-0.07,-0.06,0.00,0.00,0.12
9975,-87.31,2.44,-7.56,1.69,5.06,0.12,0.21,-0.05,-0.07,0.00,0.00,0.14
9983,-87.38,2.44,-7.50,1.75,5.25,0.00,0.18,-0.07,-0.07,0.00,0.00,0.15
9995,-87.38,2.44,-7.50,2.00,5.50,0.19,0.13,-0.08,-0.09,0.00,0.00,0.09
10028,-87.44,2.44,-7.44,2.12,5.31,0.31,0.00,-0.05,-0.07,0.00,0.00,0.15
10043,-87.44,2.44,-7.44,2.31,5.19,0.12,-0.01,-0.07,-0.06,0.00,0.00,0.07
10052,-87.44,2.44,-7.38,2.38,4.81,0.19,-0.13,-0.06,-0.09,0.00,0.00,6.64
10062,-87.44,2.44,-7.38,2.50,4.50,0.25,-0.15,-0.06,-0.05,0.00,0.00,0.05
10072,-87.44,2.44,-7.31,2.50,4.50,0.25,-0.17,-0.04,-0.06,0.00,0.00,0.12
10082,-87.44,2.44,-7.31,2.69,3.81,0.19,-0.22,-0.03,-0.08,0.00,0.00,6.65
10092,-87.50,2.44,-7.31,2.62,3.50,0.06,-0.23,-0.03,-0.09,0.00,0.00,0.07
10102,-87.50,2.44,-7.25,2.75,3.06,0.12,-0.24,-0.05,-0.10,0.00,0.00,0.04
10115,-87.50,2.44,-7.25,3.00,2.31,0.12,-0.26,-0.02,-0.07,0.00,0.00,6.60
10124,-87.50,2.44,-7.19,3.06,2.00,0.25,-0.29,-0.02,-0.09,0.00,0.00,0.18
10136,-87.50,2.44,-7.12,2.94,1.44,0.06,-0.28,-0.03,-0.07,0.00,0.00,0.05
10145,-87.50,2.44,-7.12,3.25,0.94,0.06,-0.28,-0.04,-0.05,0.00,0.00,6.64
10154,-87.50,2.44,-7.06,3.19,0.38,0.00,-0.26,-0.02,-0.03,0.00,0.00,0.09
10164,-87.50,2.44,-7.06,3.38,-0.19,-0.06,-0.22,-0.03,-0.03,0.00,0.00,6.61
10196,-87.50,2.44,-6.94,3.38,-1.69,0.00,-0.16,-0.03,-0.04,0.00,0.00,0.15
10206,-87.50,2.44,-6.94,3.50,-1.88,0.00,-0.14,-0.01,-0.03,0.00,0.00,0.10
10217,-87.50,2.44,-6.88,3.56,-2.38,-0.12,-0.11,-0.02,-0.03,0.00,0.00,0.22
10226,-87.50,2.44,-6.88,3.69,-2.75,0.00,-0.08,-0.02,-0.03,0.00,0.00,0.27
10239,-87.50,2.44,-6.81,3.69,-2.88,-0.19,-0.01,0.00,-0.03,0.00,0.00,0.42
10251,-87.44,2.44,-6.75,4.00,-3.12,-0.06,0.00,-0.04,-0.05,0.00,0.00,0.65
10265,-87.44,2.44,-6.75,3.81,-3.06,-0.06,0.05,-0.01,-0.04,0.00,0.00,0.90
10274,-87.44,2.44,-6.69,4.00,-3.25,0.00,0.13,-0.02,-0.02,0.00,0.00,1.09
10283,-87.44,2.44,-6.69,4.19,-3.19,-0.19,0.16,0.00,-0.01,0.00,0.00,1.25
10293,-87.44,2.44,-6.62,4.25,-3.00,0.00,0.22,0.00,-0.03,0.00,0.00,1.35
10303,-87.44,2.44,-6.56,4.38,-2.81,0.00,0.22,-0.01,-0.03,0.00,0.00,1.49
10313,-87.44,2.44,-6.56,4.31,-2.75,-0.12,0.29,0.00,-0.01,0.00,0.00,1.54
10321,-87.44,2.44,-6.50,4.31,-2.75,-0.12,0.29,0.00,-0.01,0.00,0.00,1.55
10329,-87.44,2.44,-6.44,4.44,-2.50,0.00,0.29,0.00,-0.01,0.00,0.00,1.56
10362,-87.44,2.44,-6.31,4.56,-1.25,-0.06,0.39,0.00,-0.02,0.00,0.00,1.62
10370,-87.44,2.44,-6.31,4.69,-0.88,0.00,0.39,0.00,-0.02,0.00,0.00,1.62
10377,-87.44,2.44,-6.25,4.75,-0.44,-0.06,0.41,0.00,0.00,0.00,0.00,1.61
10384,-87.44,2.44,-6.19,4.88,-0.12,-0.12,0.39,0.02,0.00,0.00,0.00,1.63
10393,-87.44,2.44,-6.19,5.00,0.25,-0.06,0.38,0.00,-0.01,0.00,0.00,1.62
10402,-87.44,2.44,-6.12,5.00,0.25,-0.06,0.39,-0.01,-0.03,0.00,0.00,1.62
10412,-87.44,2.44,-6.12,5.06,0.69,0.06,0.39,-0.01,0.00,0.00,0.00,1.63
10421,-87.44,2.44,-6.06,5.00,1.12,-0.06,0.39,-0.01,0.00,0.00,0.00,1.63
10428,-87.44,2.44,-6.00,5.19,1.56,0.06,0.33,-0.01,-0.02,0.00,0.00,1.63
10436,-87.44,2.44,-5.94,5.19,2.25,0.06,0.32,0.00,-0.03,0.00,0.00,1.63
10444,-87.44,2.44,-5.88,5.50,2.62,0.12,0.30,0.00,-0.05,0.00,0.00,1.64
10454,-87.44,2.44,-5.88,5.38,2.81,0.06,0.26,0.01,-0.02,0.00,0.00,1.63
10463,-87.44,2.44,-5.81,5.44,3.25,0.19,0.22,0.01,-0.03,0.00,0.00,1.64
10472,-87.44,2.44,-5.81,5.44,3.25,0.19,0.22,0.01,-0.03,0.00,0.00,1.63
10503,-87.44,2.44,-5.62,5.75,3.75,0.25,0.07,0.00,0.00,0.00,0.00,1.64
10515,-87.44,2.44,-5.56,5.75,3.75,0.25,0.03,0.01,-0.03,0.00,0.00,1.63
10523,-87.50,2.44,-5.50,5.62,3.81,0.25,0.00,0.01,-0.04,0.00,0.00,1.64
10531,-87.50,2.44,-5.44,5.75,3.81,-0.12,0.00,0.01,-0.04,0.00,0.00,1.64
10540,-87.50,2.44,-5.38,5.69,3.88,0.19,-0.01,0.01,-0.04,0.00,0.00,1.66
10548,-87.50,2.44,-5.31,5.88,3.56,0.25,-0.09,0.01,-0.07,0.00,0.00,1.63
10557,-87.50,2.44,-5.25,5.81,3.31,0.19,-0.11,0.01,0.00,0.00,0.00,1.62
10565,-87.50,2.44,-5.19,5.94,2.94,0.06,-0.12,0.02,-0.02,0.00,0.00,1.61
10575,-87.50,2.44,-5.19,5.94,2.94,0.06,-0.12,0.02,-0.02,0.00,0.00,1.58
10583,-87.50,2.44,-5.12,6.00,2.50,0.19,-0.19,0.01,-0.02,0.00,0.00,1.58
10597,-87.50,2.44,-5.12,6.00,2.19,0.12,-0.20,0.02,-0.04,0.00,0.00,1.55
10605,-87.50,2.44,-5.06,6.06,1.38,0.12,-0.26,0.00,-0.07,0.00,0.00,1.54
10617,-87.50,2.44,-5.00,5.81,0.69,0.19,-0.27,0.01,-0.06,0.00,0.00,1.53
10625,-87.50,2.44,-4.94,6.00,0.25,0.06,-0.26,0.01,-0.06,0.00,0.00,1.52
10633,-87.50,2.44,-4.88,6.00,0.25,0.06,-0.26,0.01,-0.06,0.00,0.00,1.51
10665,-87.50,2.44,-4.69,6.12,-1.75,0.00,-0.24,0.01,-0.03,0.00,0.00,1.52
10674,-87.50,2.44,-4.62,6.12,-1.75,0.00,-0.24,0.01,-0.03,0.00,0.00,1.51
10682,-87.50,2.44,-4.56,6.19,-2.12,0.00,-0.23,0.01,-0.06,0.00,0.00,1.51
10694,-87.50,2.44,-4.50,6.19,-2.75,0.06,-0.21,0.01,-0.04,0.00,0.00,1.53
10704,-87.50,2.44,-4.44,6.00,-3.31,-0.12,-0.14,0.01,-0.05,0.00,0.00,1.52
10717,-87.50,2.44,-4.38,6.06,-3.56,-0.06,-0.13,0.00,-0.07,0.00,0.00,1.53
10725,-87.50,2.44,-4.31,6.19,-3.94,-0.06,-0.10,0.01,-0.08,0.00,0.00,1.52
10735,-87.50,2.44,-4.25,6.12,-4.25,-0.06,-0.10,0.01,-0.08,0.00,0.00,1.53
10744,-87.44,2.44,-4.25,6.12,-4.56,-0.12,-0.01,0.00,-0.06,0.00,0.00,1.53
10758,-87.44,2.44,-4.19,6.19,-4.81,-0.19,0.02,0.01,-0.07,0.00,0.00,1.53
10766,-87.44,2.44,-4.12,6.12,-5.25,-0.12,0.06,0.00,-0.06,0.00,0.00,1.54
10777,-87.44,2.44,-4.06,6.12,-5.25,-0.12,0.06,0.00,-0.06,0.00,0.00,1.54
10785,-87.44,2.44,-4.00,6.19,-5.25,-0.06,0.14,0.00,-0.05,0.00,0.00,1.53
10795,-87.44,2.44,-3.94,6.19,-5.19,0.00,0.16,-0.01,-0.06,0.00,0.00,1.52
10825,-87.38,2.44,-3.75,6.25,-4.81,-0.06,0.29,0.01,-0.06,0.00,0.00,1.54
10833,-87.38,2.44,-3.69,6.19,-4.62,-0.12,0.29,0.01,-0.06,0.00,0.00,1.53
10843,-87.31,2.44,-3.62,6.31,-4.38,-0.12,0.34,0.00,-0.07,0.00,0.00,1.53
10853,-87.31,2.44,-3.56,6.31,-4.00,0.00,0.33,0.00,-0.11,0.00,0.00,1.52
10864,-87.31,2.44,-3.50,6.25,-3.38,-0.19,0.37,0.00,-0.09,0.00,0.00,1.52
10873,-87.31,2.44,-3.50,6.19,-3.19,-0.06,0.37,0.01,-0.06,0.00,0.00,1.53
10881,-87.31,2.44,-3.44,6.44,-2.81,-0.06,0.37,0.02,-0.09,0.00,0.00,1.54
10889,-87.25,2.44,-3.38,6.31,-2.31,0.00,0.40,0.00,-0.09,0.00,0.00,1.53
10897,-87.25,2.44,-3.38,6.06,-1.75,0.06,0.41,-0.01,-0.10,0.00,0.00,1.53
10907,-87.25,2.44,-3.31,6.31,-1.56,0.00,0.40,0.00,-0.08,0.00,0.00,1.53
10916,-87.25,2.44,-3.25,6.31,-1.56,0.00,0.40,0.02,-0.09,0.00,0.00,1.53
10926,-87.25,2.44,-3.19,6.19,-1.00,0.06,0.40,0.02,-0.09,0.00,0.00,1.53
10933,-87.25,2.44,-3.12,6.31,-0.38,0.06,0.38,0.01,-0.12,0.00,0.00,1.53
10942,-87.25,2.44,-3.06,6.12,0.12,0.12,0.36,0.00,-0.10,0.00,0.00,1.53
10973,-87.25,2.44,-2.88,6.12,1.06,0.19,0.27,-0.02,-0.11,0.00,0.00,1.54
10982,-87.25,2.44,-2.81,6.25,1.25,0.19,0.24,0.00,-0.12,0.00,0.00,1.54
10990,-87.25,2.44,-2.75,6.25,1.75,0.06,0.23,0.00,-0.10,0.00,0.00,1.54
10998,-87.25,2.44,-2.75,6.25,2.06,0.12,0.18,0.00,-0.14,0.00,0.00,1.54
11007,-87.31,2.38,-2.69,6.25,2.06,0.12,0.16,0.00,-0.15,0.00,0.00,1.54
11019,-87.31,2.38,-2.62,6.19,2.06,0.12,0.10,-0.02,-0.12,0.00,0.00,1.54
11027,-87.31,2.38,-2.56,6.19,2.19,0.19,0.06,0.00,-0.12,0.00,0.00,1.53
11038,-87.31,2.38,-2.50,6.06,2.25,0.12,0.06,0.00,-0.12,0.00,0.00,1.52
11048,-87.31,2.38,-2.44,6.12,2.00,0.31,0.00,-0.01,-0.16,0.00,0.00,1.49
11061,-87.31,2.38,-2.38,6.12,2.00,0.31,-0.03,-0.01,-0.16,0.00,0.00,1.45
11069,-87.31,2.38,-2.25,5.94,1.50,0.38,-0.07,-0.03,-0.17,0.00,0.00,1.40
11082,-87.31,2.38,-2.25,5.94,1.50,0.38,-0.10,-0.01,-0.16,0.00,0.00,1.37
11090,-87.38,2.38,-2.19,5.88,1.56,0.19,-0.13,-0.01,-0.17,0.00,0.00,1.38
11102,-87.38,2.38,-2.19,5.94,1.06,0.19,-0.16,0.00,-0.18,0.00,0.00,1.41
11133,-87.38,2.38,-1.94,5.75,-0.06,0.19,-0.19,0.00,-0.15,0.00,0.00,1.50
11144,-87.38,2.38,-1.88,5.81,-0.38,0.12,-0.21,-0.04,-0.16,0.00,0.00,1.52
11153,-87.38,2.38,-1.81,5.62,-1.06,0.19,-0.21,-0.02,-0.20,0.00,0.00,1.51
11163,-87.38,2.38,-1.75,5.69,-1.31,0.06,-0.22,-0.02,-0.16,0.00,0.00,1.52
11171,-87.38,2.38,-1.75,5.44,-1.75,0.00,-0.21,-0.03,-0.19,0.00,0.00,1.48
11181,-87.38,2.38,-1.75,5.44,-2.19,-0.06,-0.19,-0.01,-0.17,0.00,0.00,1.50
11190,-87.31,2.38,-1.69,5.31,-2.62,0.06,-0.16,-0.02,-0.17,0.00,0.00,1.48
11200,-87.31,2.38,-1.62,5.38,-3.19,0.06,-0.19,-0.01,-0.18,0.00,0.00,1.46
11209,-87.31,2.38,-1.56,5.50,-3.25,0.00,-0.13,-0.02,-0.17,0.00,0.00,1.41
11221,-87.31,2.38,-1.50,5.50,-3.25,0.00,-0.10,-0.03,-0.17,0.00,0.00,1.41
11230,-87.31,2.38,-1.50,5.25,-3.94,-0.19,-0.08,0.00,-0.20,0.00,0.00,1.38
11241,-87.25,2.38,-1.44,5.25,-3.94,-0.19,-0.08,0.00,-0.20,0.00,0.00,1.36
11250,-87.25,2.38,-1.38,4.94,-4.38,-0.19,0.00,-0.02,-0.22,0.00,0.00,1.36
11262,-87.25,2.38,-1.31,5.00,-4.69,-0.06,0.02,-0.01,-0.18,0.00,0.00,1.37
11294,-87.19,2.38,-1.12,4.88,-4.69,-0.06,0.15,-0.01,-0.18,0.00,0.00,1.30
11300,-87.12,2.38,-1.12,4.81,-4.69,-0.12,0.17,-0.02,-0.22,0.00,0.00,1.30
11310,-87.12,2.38,-1.12,4.81,-4.69,-0.12,0.20,-0.02,-0.17,0.00,0.00,1.20
11320,-87.12,2.38,-1.06,4.81,-4.44,-0.19,0.23,-0.02,-0.18,0.00,0.00,0.34
11328,-87.12,2.38,-1.00,4.69,-4.31,-0.12,0.23,-0.02,-0.18,0.00,0.00,0.34
11336,-87.06,2.38,-1.00,4.56,-3.94,-0.19,0.29,-0.01,-0.16,0.00,0.00,0.49
11344,-87.06,2.38,-0.94,4.56,-3.88,-0.19,0.32,-0.03,-0.22,0.00,0.00,0.42
11351,-87.06,2.38,-0.88,4.44,-3.56,-0.19,0.35,0.00,-0.20,0.00,0.00,0.44
11360,-87.06,2.38,-0.88,4.44,-3.12,-0.06,0.37,0.00,-0.14,0.00,0.00,0.54
11370,-87.00,2.38,-0.88,4.44,-3.12,-0.06,0.39,0.00,-0.17,0.00,0.00,0.58
11378,-87.00,2.38,-0.81,4.38,-2.56,-0.12,0.39,0.00,-0.17,0.00,0.00,0.58
11385,-87.00,2.38,-0.75,4.38,-2.19,-0.06,0.40,-0.01,-0.17,0.00,0.00,0.64
11393,-87.00,2.38,-0.75,4.12,-1.94,-0.12,0.42,-0.02,-0.19,0.00,0.00,0.70
11401,-87.00,2.38,-0.75,4.00,-1.38,0.00,0.41,-0.01,-0.19,0.00,0.00,0.71
11431,-87.00,2.38,-0.62,4.06,0.12,0.06,0.42,0.00,-0.16,0.00,0.00,0.66
11441,-87.00,2.38,-0.56,4.06,0.12,0.06,0.42,0.00,-0.16,0.00,0.00,0.70
11450,-87.00,2.38,-0.50,3.88,0.69,0.00,0.37,0.00,-0.18,0.00,0.00,0.71
11461,-87.00,2.38,-0.50,3.75,1.06,0.06,0.34,-0.01,-0.16,0.00,0.00,0.70
11471,-87.00,2.38,-0.44,3.88,1.75,0.00,0.32,-0.01,-0.19,0.00,0.00,0.70
11481,-87.06,2.38,-0.44,3.75,2.06,0.19,0.32,-0.01,-0.19,0.00,0.00,0.71
11489,-87.06,2.38,-0.38,3.75,2.50,0.06,0.28,0.00,-0.16,0.00,0.00,0.72
11501,-87.06,2.38,-0.38,3.62,2.69,0.12,0.26,0.00,-0.18,0.00,0.00,0.73
11510,-87.06,2.38,-0.31,3.50,2.94,0.19,0.19,-0.01,-0.15,0.00,0.00,0.73
11523,-87.12,2.38,-0.25,3.31,3.19,0.12,0.16,0.03,-0.17,0.00,0.00,0.74
11531,-87.12,2.38,-0.25,3.31,3.44,0.12,0.12,-0.02,-0.16,0.00,0.00,0.75
11541,-87.12,2.38,-0.19,3.25,3.69,0.12,0.12,-0.02,-0.16,0.00,0.00,0.74
11551,-87.19,2.38,-0.19,3.06,3.62,0.12,0.05,0.00,-0.18,0.00,0.00,0.76
11564,-87.19,2.38,-0.12,3.19,3.69,0.19,0.00,0.00,-0.19,0.00,0.00,0.76
11595,-87.25,2.38,-0.06,2.75,3.38,0.12,-0.09,0.00,-0.18,0.00,0.00,0.75
11607,-87.25,2.38,0.00,2.62,3.19,0.00,-0.11,-0.01,-0.23,0.00,0.00,0.76
11614,-87.31,2.38,0.00,2.50,2.88,0.12,-0.15,-0.01,-0.21,0.00,0.00,0.77
11625,-87.31,2.38,0.00,2.56,2.62,0.12,-0.15,0.01,-0.18,0.00,0.00,0.76
11633,-87.31,2.38,0.06,2.44,2.25,-0.06,-0.16,0.00,-0.21,0.00,0.00,0.75
11642,-87.31,2.38,0.06,2.44,2.25,-0.06,-0.16,0.00,-0.21,0.00,0.00,0.74
11652,-87.31,2.38,0.06,2.38,2.00,0.00,-0.21,0.01,-0.20,0.00,0.00,0.75
11663,-87.31,2.38,0.12,2.12,1.50,0.00,-0.20,0.00,-0.19,0.00,0.00,0.72
11672,-87.38,2.38,0.12,2.06,1.06,0.00,-0.20,0.01,-0.17,0.00,0.00,0.69
11683,-87.38,2.38,0.12,2.06,0.88,-0.12,-0.20,0.01,-0.17,0.00,0.00,0.65
11691,-87.38,2.38,0.19,1.81,0.25,-0.12,-0.19,0.00,-0.17,0.00,0.00,0.59
11706,-87.38,2.38,0.19,1.75,-0.38,-0.25,-0.17,0.01,-0.18,0.00,0.00,0.50
11714,-87.38,2.38,0.19,1.50,-1.19,-0.19,-0.12,0.01,-0.17,0.00,0.00,0.42
11727,-87.38,2.38,0.19,1.44,-1.69,-0.19,-0.11,0.03,-0.20,0.00,0.00,0.39
11763,-87.31,2.38,0.25,1.12,-2.06,-0.25,-0.03,0.02,-0.16,0.00,0.00,0.33
11773,-87.31,2.38,0.25,1.25,-2.06,-0.25,0.04,0.03,-0.16,0.00,0.00,0.38
11783,-87.31,2.38,0.25,0.94,-2.56,-0.38,0.04,0.03,-0.16,0.00,0.00,0.32
11791,-87.31,2.38,0.25,0.94,-2.75,-0.38,0.02,0.03,-0.14,0.00,0.00,0.33
11803,-87.31,2.38,0.31,0.62,-2.81,-0.25,0.10,0.01,-0.13,0.00,0.00,0.44
11813,-87.31,2.38,0.31,0.69,-2.81,-0.44,0.18,0.02,-0.15,0.00,0.00,0.42
11824,-87.31,2.38,0.31,0.50,-2.44,-0.31,0.21,0.04,-0.12,0.00,0.00,0.37
11832,-87.31,2.38,0.31,0.44,-2.25,-0.44,0.21,0.04,-0.12,0.00,0.00,0.33
11840,-87.25,2.38,0.31,0.38,-2.50,-0.31,0.27,0.02,-0.11,0.00,0.00,0.33
11850,-87.25,2.38,0.31,0.31,-2.00,-0.38,0.29,0.03,-0.10,0.00,0.00,0.35
11858,-87.25,2.38,0.31,0.31,-1.75,-0.19,0.31,0.05,-0.13,0.00,0.00,0.38
11868,-87.25,2.38,0.25,0.25,-1.44,-0.38,0.32,0.06,-0.13,0.00,0.00,0.34
11876,-87.25,2.38,0.25,0.12,-0.88,-0.38,0.34,0.04,-0.13,0.00,0.00,0.34
11888,-87.25,2.38,0.25,0.00,-0.69,-0.25,0.37,0.05,-0.08,0.00,0.00,0.35
11920,-87.25,2.38,0.25,-0.25,0.38,-0.19,0.40,0.04,-0.10,0.00,0.00,0.51
11931,-87.25,2.38,0.25,-0.38,1.00,-0.19,0.39,0.05,-0.08,0.00,0.00,0.58
11939,-87.25,2.31,0.25,-0.44,1.44,-0.19,0.39,0.04,-0.08,0.00,0.00,0.65
11949,-87.25,2.31,0.25,-0.62,1.75,0.00,0.37,0.05,-0.12,0.00,0.00,0.68
11956,-87.31,2.31,0.25,-0.56,2.44,-0.19,0.35,0.05,-0.09,0.00,0.00,0.70
11965,-87.31,2.31,0.25,-0.56,2.81,0.06,0.31,0.06,-0.12,0.00,0.00,0.71
11975,-87.31,2.31,0.25,-0.56,2.81,0.06,0.31,0.05,-0.09,0.00,0.00,0.72
11983,-87.31,2.31,0.25,-0.81,3.19,-0.06,0.31,0.05,-0.09,0.00,0.00,0.72
11991,-87.31,2.31,0.25,-0.81,3.44,-0.12,0.28,0.02,-0.08,0.00,0.00,0.71
11999,-87.38,2.31,0.25,-0.94,3.69,0.06,0.24,0.05,-0.10,0.00,0.00,0.72
12007,-87.38,2.31,0.25,-1.00,4.19,0.00,0.22,0.06,-0.12,0.00,0.00,0.71
12015,-87.38,2.31,0.25,-1.31,4.25,-0.06,0.20,0.05,-0.08,0.00,0.00,0.73
12025,-87.38,2.31,0.25,-1.31,4.25,-0.06,0.14,0.07,-0.07,0.00,0.00,0.73
12032,-87.44,2.31,0.19,-1.25,4.31,0.12,0.14,0.07,-0.07,0.00,0.00,0.73
12040,-87.44,2.31,0.19,-1.50,4.38,0.06,0.12,0.04,-0.10,0.00,0.00,0.73
12082,-87.50,2.31,0.12,-1.62,4.50,0.12,-0.02,0.04,-0.06,0.00,0.00,0.75
12091,-87.50,2.31,0.12,-1.75,4.56,-0.12,-0.06,0.09,-0.07,0.00,0.00,0.74
12099,-87.50,2.31,0.12,-2.06,4.12,0.12,-0.08,0.05,-0.07,0.00,0.00,0.74
12106,-87.56,2.31,0.06,-1.81,4.06,0.00,-0.09,0.20,-0.06,0.00,0.00,0.73
12115,-87.56,2.31,0.06,-1.94,3.69,-0.06,0.04,0.61,0.07,0.00,0.00,0.74
12128,-87.56,2.31,0.06,-1.94,3.69,-0.06,0.02,0.79,0.12,0.00,0.00,0.77
12136,-87.56,2.31,0.06,-3.88,3.12,1.06,-0.08,0.77,0.09,0.00,0.00,0.77
12145,-87.56,2.31,0.00,-3.88,3.12,1.06,-0.08,0.77,0.09,0.00,0.00,0.78
12155,-87.56,2.31,-0.06,-5.06,2.69,1.62,-0.42,0.62,0.03,0.00,0.00,0.76
12166,-87.62,2.31,-0.12,-6.25,2.38,1.62,-0.11,0.56,0.06,0.00,0.00,0.78
12176,-87.62,2.25,-0.25,-7.38,1.69,0.94,0.15,0.61,0.09,0.00,0.00,0.77
12184,-87.62,2.25,-0.31,-8.19,1.44,0.31,0.15,0.61,0.09,0.00,0.00,0.79
12191,-87.69,2.25,-0.44,-9.06,1.56,-0.12,-0.12,0.24,0.00,0.00,0.00,0.78
12201,-87.62,2.25,-0.50,-9.69,1.62,-0.69,-0.21,0.20,-0.03,0.00,0.00,0.79
12232,-87.62,2.31,-0.75,-10.69,1.38,-2.25,0.04,0.27,-0.02,0.00,0.00,0.78
12240,-87.56,2.31,-0.81,-11.19,1.06,-2.00,0.10,0.12,-0.07,0.00,0.00,0.79
12248,-87.56,2.38,-0.94,-11.50,1.06,-1.38,0.12,0.05,-0.08,0.00,0.00,0.78
12257,-87.56,2.38,-0.94,-11.56,0.88,-0.75,0.09,0.17,-0.06,0.00,0.00,0.79
12266,-87.56,2.38,-1.06,-11.56,0.88,-0.75,0.39,0.34,-0.02,0.00,0.00,0.79
12278,-87.56,2.31,-1.19,-11.69,0.75,0.12,0.45,0.34,0.01,0.00,0.00,0.78
12286,-87.62,2.31,-1.31,-12.19,0.44,1.19,0.45,0.34,0.01,0.00,0.00,0.79
12296,-87.62,2.31,-1.44,-12.44,1.00,2.00,0.30,0.29,-0.01,0.00,0.00,0.79
12306,-87.62,2.31,-1.56,-13.06,1.31,2.50,0.47,0.44,-0.01,0.00,0.00,0.77
12318,-87.69,2.25,-1.75,-13.50,1.44,2.31,0.43,0.51,0.04,0.00,0.00,0.79
12327,-87.69,2.25,-1.88,-14.56,2.94,1.06,0.40,0.48,0.05,0.00,0.00,0.79
12337,-87.75,2.19,-2.06,-14.56,2.94,1.06,0.40,0.48,0.05,0.00,0.00,0.78
12344,-87.75,2.19,-2.25,-15.25,3.62,0.25,0.21,0.38,0.00,0.00,0.00,0.80
12353,-87.75,2.19,-2.38,-15.75,4.19,-0.88,0.05,0.26,-0.01,0.00,0.00,0.80
12385,-87.69,177.69,-2.81,-17.19,4.56,-3.19,-0.08,0.21,-0.03,0.00,0.00,0.81
12392,-87.69,177.69,-2.94,-17.56,4.69,-2.88,-0.18,0.10,-0.02,0.00,0.00,0.82
12401,-87.62,177.62,-3.06,-17.88,4.12,-2.62,-0.18,0.07,-0.06,0.00,0.00,0.83
12409,-87.62,177.62,-3.25,-17.94,3.62,-1.81,-0.18,0.11,-0.06,0.00,0.00,0.84
12418,-87.62,177.62,-3.25,-18.06,3.06,-0.81,-0.32,0.15,-0.05,0.00,0.00,0.85
12427,-87.62,177.62,-3.44,-18.06,3.06,-0.81,-0.25,0.08,-0.04,0.00,0.00,0.84
12435,-87.62,177.62,-3.56,-18.31,2.31,0.19,-0.25,0.08,-0.04,0.00,0.00,0.85
12442,-87.62,177.62,-3.75,-18.50,1.50,1.00,-0.21,0.05,-0.08,0.00,0.00,0.84
12450,-87.62,177.62,-4.00,-18.62,0.75,1.44,-0.23,0.07,-0.06,0.00,0.00,0.82
12458,-87.62,177.62,-4.00,-18.56,0.44,1.69,-0.04,0.11,-0.02,0.00,0.00,0.82
12469,-87.62,177.69,-4.19,-18.56,0.44,1.69,0.17,0.13,-0.03,0.00,0.00,0.84
12478,-87.69,177.69,-4.38,-18.81,-0.12,1.31,0.18,0.12,-0.01,0.00,0.00,0.83
12486,-87.69,177.69,-4.56,-18.81,-0.12,1.31,0.18,0.12,-0.01,0.00,0.00,0.84
12519,-87.69,177.69,-5.12,-18.81,1.62,-1.25,0.44,0.06,-0.05,0.00,0.00,0.86
12528,-87.69,177.69,-5.31,-18.81,1.62,-1.25,0.54,0.00,-0.06,0.00,0.00,0.86
12538,-87.62,177.69,-5.50,-18.69,2.31,-1.50,0.54,0.00,-0.06,0.00,0.00,0.87
12545,-87.62,177.69,-5.62,-18.75,2.69,-1.50,0.57,-0.03,-0.08,0.00,0.00,0.85
12557,-87.62,177.69,-5.81,-18.50,3.56,-1.38,0.59,-0.03,-0.09,0.00,0.00,0.86
12567,-87.56,177.62,-6.00,-18.31,4.25,-1.06,0.57,0.07,-0.05,0.00,0.00,0.85
12578,-87.56,177.69,-6.12,-18.31,4.88,-0.31,0.31,0.21,-0.02,0.00,0.00,0.85
12586,-87.56,177.69,-6.31,-18.56,5.38,0.31,0.10,0.24,-0.01,0.00,0.00,0.86
12594,-87.56,177.69,-6.50,-18.88,5.12,0.75,-0.13,0.25,0.00,0.00,0.00,0.87
12602,-87.56,177.69,-6.75,-19.19,5.25,0.75,-0.31,0.29,0.00,0.00,0.00,0.88
12610,-87.50,177.69,-6.94,-19.69,4.75,0.44,-0.47,0.38,0.01,0.00,0.00,0.88
12621,-87.50,177.69,-6.94,-19.69,4.75,0.44,-0.55,0.31,-0.02,0.00,0.00,0.89
12630,-87.50,177.69,-7.12,-20.75,3.62,-0.81,-0.61,0.18,-0.04,0.00,0.00,0.88
12641,-87.50,177.69,-7.31,-20.75,3.62,-0.81,-0.61,0.18,-0.04,0.00,0.00,0.89
12671,-87.38,177.62,-8.06,-21.31,0.12,-2.75,-0.45,0.00,-0.09,0.00,0.00,0.90
12683,-87.38,177.62,-8.06,-21.50,-0.94,-2.56,-0.36,-0.02,-0.08,0.00,0.00,0.90
12690,-87.38,177.56,-8.25,-21.25,-1.69,-2.00,-0.47,-0.06,-0.05,0.00,0.00,0.90
12701,-87.38,177.56,-8.44,-21.25,-1.69,-2.00,-0.47,-0.06,-0.05,0.00,0.00,0.91
12710,-87.38,177.56,-8.62,-21.25,-3.94,-0.38,-0.54,-0.05,-0.07,0.00,0.00,0.90
12719,-87.38,177.56,-8.88,-21.25,-3.94,-0.38,-0.63,-0.05,-0.03,0.00,0.00,0.90
12729,-87.38,177.56,-9.06,-20.81,-4.88,0.00,-0.69,-0.09,-0.05,0.00,0.00,0.92
12739,-87.44,177.56,-9.25,-20.81,-5.88,0.25,-0.69,-0.09,-0.05,0.00,0.00,0.90
12747,-87.44,177.56,-9.44,-20.69,-6.88,0.19,-0.60,-0.07,-0.04,0.00,0.00,0.91
12758,-87.44,177.56,-9.69,-20.44,-8.00,-0.19,-0.52,-0.08,-0.07,0.00,0.00,0.90
12769,-87.50,177.56,-9.88,-20.31,-9.06,-0.56,-0.37,-0.07,-0.06,0.00,0.00,0.90
12783,-87.50,177.56,-10.06,-20.25,-9.69,-0.88,0.07,-0.01,0.00,0.00,0.00,0.91
12791,-87.50,177.56,-10.25,-19.94,-10.06,-0.94,0.80,-0.03,-0.04,0.00,0.00,0.89
12822,-87.56,177.56,-11.06,-19.06,-6.00,1.38,1.29,-0.14,-0.01,0.00,0.00,0.89
12831,-87.56,177.56,-11.06,-18.62,-4.00,1.94,1.06,-0.12,-0.06,0.00,0.00,0.90
12839,-87.56,177.62,-11.25,-18.62,-4.00,1.94,1.06,-0.12,-0.06,0.00,0.00,0.90
12846,-87.62,177.62,-11.44,-18.31,-2.38,1.50,0.89,-0.17,-0.05,0.00,0.00,0.89
12854,-87.62,177.62,-11.62,-18.06,-1.00,0.56,0.17,0.13,0.00,0.00,0.00,0.88
12861,-87.62,177.62,-11.75,-17.88,-0.06,-0.75,0.14,0.27,0.01,0.00,0.00,0.90
12871,-87.62,177.62,-11.75,-17.88,-0.06,-0.75,0.10,0.37,0.03,0.00,0.00,0.88
12881,-87.56,177.56,-11.94,-17.88,0.56,-1.94,-0.25,0.53,0.08,0.00,0.00,0.89
12889,-87.56,177.56,-12.06,-18.44,0.75,-2.88,-0.25,0.53,0.08,0.00,0.00,0.90
12897,-87.50,177.50,-12.25,-19.12,0.94,-3.25,-0.15,0.52,0.06,0.00,0.00,0.89
12905,-87.50,177.50,-12.38,-19.88,0.50,-3.31,-0.13,0.50,0.04,0.00,0.00,0.90
12913,-87.44,177.50,-12.56,-20.62,0.38,-2.75,-0.28,0.45,0.04,0.00,0.00,0.90
12921,-87.44,177.50,-12.56,-21.44,-0.44,-1.94,-0.10,0.23,0.00,0.00,0.00,0.90
12951,-87.44,177.44,-13.19,-22.56,-2.50,0.50,-0.34,-0.04,-0.02,0.00,0.00,0.89
12961,-87.44,177.44,-13.38,-22.56,-2.50,0.50,-0.11,-0.03,-0.02,0.00,0.00,0.90
12971,-87.44,177.44,-13.62,-22.44,-3.12,1.19,-0.31,-0.07,0.00,0.00,0.00,0.89
12981,-87.44,177.44,-13.88,-22.38,-3.50,0.94,-0.37,-0.08,-0.04,0.00,0.00,0.89
12988,-87.50,177.50,-14.06,-22.50,-3.62,0.81,-0.37,-0.08,-0.04,0.00,0.00,0.89
12996,-87.50,177.50,-14.31,-22.44,-4.12,0.38,-0.19,-0.03,-0.01,0.00,0.00,0.90
13006,-87.50,177.50,-14.50,-22.25,-4.19,-0.44,-0.06,-0.15,-0.06,0.00,0.00,0.89
13014,-87.44,177.44,-14.75,-22.06,-4.38,-1.19,-0.12,-0.13,-0.05,0.00,0.00,0.90
13022,-87.44,177.44,-14.75,-21.81,-4.75,-1.75,0.07,-0.05,-0.01,0.00,0.00,0.90
13032,-87.44,177.44,-14.94,-21.81,-4.75,-1.75,0.31,-0.05,-0.03,0.00,0.00,0.89
13039,-87.44,2.50,-15.12,-21.75,-4.62,-2.00,0.31,-0.05,-0.03,0.00,0.00,0.90
13047,-87.38,2.56,-15.31,-21.62,-4.69,-1.88,0.23,-0.06,0.00,0.00,0.00,0.90
13054,-87.38,2.56,-15.50,-21.44,-4.56,-1.44,0.37,-0.06,0.00,0.00,0.00,0.88
13084,-87.38,2.56,-16.12,-21.25,-3.50,0.88,0.49,-0.09,-0.01,0.00,0.00,0.90
13094,-87.38,2.56,-16.12,-21.25,-3.50,0.88,0.55,-0.15,-0.04,0.00,0.00,0.89
13101,-87.38,2.56,-16.38,-21.19,-2.88,1.25,0.43,-0.11,-0.03,0.00,0.00,0.89
13112,-87.38,2.50,-16.56,-21.00,-2.31,1.31,0.43,-0.11,-0.03,0.00,0.00,0.89
13122,-87.44,2.50,-16.75,-20.81,-1.81,1.19,0.29,-0.18,-0.01,0.00,0.00,0.89
13132,-87.44,2.50,-16.94,-20.44,-1.38,0.50,0.31,-0.13,-0.01,0.00,0.00,0.91
13139,-87.38,2.50,-17.12,-20.12,-0.75,-0.69,0.31,-0.13,-0.01,0.00,0.00,0.89
13146,-87.38,2.56,-17.31,-19.75,-0.19,-1.44,0.25,-0.14,-0.03,0.00,0.00,0.90
13154,-87.38,2.56,-17.50,-19.75,0.25,-1.94,0.33,-0.20,-0.04,0.00,0.00,0.91
13166,-87.38,2.56,-17.50,-19.75,0.25,-1.94,0.54,-0.12,-0.03,0.00,0.00,0.92
13174,-87.31,2.62,-17.62,-19.12,1.38,-2.06,0.41,-0.17,-0.02,0.00,0.00,0.91
13187,-87.31,2.62,-17.81,-19.12,1.38,-2.06,0.34,-0.25,-0.01,0.00,0.00,0.91
13194,-87.25,2.69,-18.12,-18.50,1.75,-0.81,0.39,-0.19,-0.02,0.00,0.00,0.93
13204,-87.25,2.69,-18.12,-18.50,1.75,-0.81,0.39,-0.19,-0.02,0.00,0.00,0.91
13234,-87.25,177.25,-18.81,-17.00,2.44,1.06,-0.03,-0.19,-0.02,0.00,0.00,0.92
13243,-87.25,177.25,-18.81,-17.00,2.44,1.06,-0.03,-0.19,-0.02,0.00,0.00,0.93
13251,-87.25,177.25,-18.94,-16.56,2.50,0.62,-0.06,-0.20,-0.01,0.00,0.00,0.93
13260,-87.25,177.25,-19.12,-16.25,2.62,0.31,-0.01,-0.27,-0.03,0.00,0.00,0.94
13269,-87.25,177.25,-19.25,-16.00,2.38,-0.06,-0.03,-0.30,-0.06,0.00,0.00,0.93
13276,-87.25,177.25,-19.38,-15.50,2.44,-0.75,-0.17,-0.16,-0.02,0.00,0.00,0.94
13284,-87.25,177.25,-19.38,-15.19,2.38,-1.38,-0.11,-0.15,-0.03,0.00,0.00,0.94
13294,-87.25,177.25,-19.50,-15.19,2.38,-1.38,-0.11,-0.15,-0.03,0.00,0.00,0.93
13301,-87.19,177.19,-19.62,-14.94,1.88,-1.75,-0.10,-0.17,0.00,0.00,0.00,0.93
13312,-87.19,177.19,-19.75,-14.88,1.75,-1.56,-0.27,-0.13,0.00,0.00,0.00,0.95
13322,-87.19,177.19,-19.88,-14.56,1.25,-1.38,-0.23,-0.09,-0.02,0.00,0.00,0.95
13335,-87.12,177.19,-20.00,-14.50,0.38,-1.00,-0.17,-0.07,0.00,0.00,0.00,0.95
13343,-87.12,177.12,-20.19,-14.31,-0.12,-0.69,-0.17,0.06,0.03,0.00,0.00,0.95
13377,-87.12,177.19,-20.56,-14.56,-1.81,1.06,-0.05,-0.10,-0.01,0.00,0.00,0.95
13385,-87.19,177.19,-20.75,-14.56,-2.00,1.19,0.00,-0.11,0.00,0.00,0.00,0.95
13394,-87.19,177.19,-20.88,-14.56,-2.00,1.19,0.00,-0.11,0.00,0.00,0.00,0.96
13401,-87.19,177.19,-21.06,-14.19,-1.94,0.25,0.11,-0.14,-0.01,0.00,0.00,0.95
13409,-87.19,177.19,-21.19,-14.19,-1.94,0.25,0.21,-0.13,0.00,0.00,0.00,0.95
13416,-87.19,177.19,-21.31,-14.00,-1.88,-0.31,0.36,-0.07,0.00,0.00,0.00,0.96
13425,-87.19,177.19,-21.31,-13.81,-1.50,-0.75,0.51,0.05,0.02,0.00,0.00,0.96
13435,-87.19,177.19,-21.44,-13.81,-1.50,-0.75,0.68,0.22,0.08,0.00,0.00,0.95
13444,-87.19,177.19,-21.56,-13.81,-1.00,-0.88,0.68,0.22,0.08,0.00,0.00,0.95
13452,-87.19,177.19,-21.69,-14.19,0.50,-0.12,0.62,0.22,0.09,0.00,0.00,0.95
13463,-87.19,177.19,-21.81,-14.19,0.50,-0.12,0.57,0.25,0.10,0.00,0.00,0.96
13473,-87.19,177.19,-22.00,-14.81,1.25,0.31,0.46,0.30,0.08,0.00,0.00,0.96
13484,-87.19,177.19,-22.12,-15.50,2.31,0.38,0.23,0.48,0.12,0.00,0.00,0.96
13516,-87.12,177.19,-22.62,-19.38,2.81,-0.31,0.02,0.70,0.10,0.00,0.00,0.95
13525,-87.12,177.19,-22.81,-19.38,2.81,-0.31,0.07,0.73,0.11,0.00,0.00,0.91
13537,-87.12,177.19,-23.00,-20.44,2.88,-0.62,0.02,0.73,0.11,0.00,0.00,0.86
13545,-87.12,177.19,-23.19,-21.69,2.81,-0.94,0.02,0.73,0.11,0.00,0.00,0.88
13553,-87.19,177.19,-23.50,-22.38,3.00,-1.00,0.03,0.43,0.03,0.00,0.00,0.92
13560,-87.19,177.25,-23.75,-23.19,2.69,-1.19,0.04,0.27,0.00,0.00,0.00,0.94
13567,-87.19,177.25,-23.94,-23.69,2.56,-1.38,0.00,0.15,-0.02,0.00,0.00,0.95
13576,-87.19,177.25,-23.94,-23.75,2.75,-1.44,0.04,0.07,-0.02,0.00,0.00,0.97
13586,-87.19,177.25,-24.19,-23.75,2.75,-1.44,0.14,-0.10,-0.03,0.00,0.00,0.97
13593,-87.12,177.19,-24.38,-23.69,2.62,-1.44,0.14,-0.10,-0.03,0.00,0.00,0.96
13603,-87.12,177.19,-24.56,-23.44,2.69,-1.25,0.10,-0.17,-0.07,0.00,0.00,0.97
13613,-87.12,177.19,-24.81,-22.88,2.62,-0.94,0.21,-0.52,-0.14,0.00,0.00,0.97
13628,-87.06,177.19,-25.00,-22.06,2.75,-0.69,0.26,-0.54,-0.13,0.00,0.00,0.95
13658,-87.06,177.19,-25.81,-19.50,2.31,0.31,-0.18,-0.22,-0.07,0.00,0.00,0.96
13669,-87.06,177.19,-25.81,-19.06,2.12,0.81,0.05,0.05,0.00,0.00,0.00,0.96
13677,-87.06,177.19,-26.00,-18.94,2.00,1.06,-0.07,0.25,0.10,0.00,0.00,0.97
13686,-87.06,177.25,-26.19,-18.94,2.00,1.06,-0.14,0.36,0.10,0.00,0.00,0.96
13694,-87.06,177.25,-26.38,-19.44,1.44,1.44,-0.14,0.36,0.10,0.00,0.00,0.95
13703,-87.06,177.25,-26.62,-20.06,1.12,1.75,-0.08,0.39,0.09,0.00,0.00,0.96
13713,-87.12,177.25,-26.81,-20.50,1.06,1.81,-0.05,0.30,0.10,0.00,0.00,0.97
13725,-87.12,177.31,-27.06,-21.19,1.00,1.50,0.05,0.19,0.04,0.00,0.00,0.96
13736,-87.12,177.31,-27.25,-21.31,1.25,0.94,0.33,0.16,0.05,0.00,0.00,0.97
13744,-87.12,177.31,-27.50,-21.38,2.12,0.44,0.53,0.08,0.08,0.00,0.00,0.97
13751,-87.12,177.31,-27.69,-21.12,2.81,0.25,0.59,-0.21,-0.02,0.00,0.00,0.97
13759,-87.06,177.31,-27.88,-20.50,3.69,0.00,0.62,-0.07,0.01,0.00,0.00,0.96
13767,-87.06,177.31,-27.88,-20.38,4.50,-0.62,0.61,0.09,0.04,0.00,0.00,0.98
13777,-87.06,177.31,-28.06,-20.38,4.50,-0.62,0.50,0.28,0.10,0.00,0.00,0.96
13809,-87.00,177.31,-28.69,-21.81,6.25,0.19,0.04,0.27,0.11,0.00,0.00,0.98
13818,-86.94,177.31,-28.94,-21.94,5.94,0.12,-0.22,0.07,0.04,0.00,0.00,0.97
13828,-86.94,177.31,-29.12,-21.94,5.94,0.12,-0.17,-0.18,0.00,0.00,0.00,0.98
13838,-86.88,177.38,-29.31,-22.00,5.62,-0.19,-0.02,-0.38,-0.03,0.00,0.00,0.99
13845,-86.88,177.38,-29.56,-21.62,5.44,-0.56,-0.02,-0.38,-0.03,0.00,0.00,0.99
13852,-86.81,177.38,-29.75,-20.75,5.50,-1.12,0.09,-0.55,-0.06,0.00,0.00,0.98
13861,-86.81,177.38,-29.94,-19.69,5.44,-1.00,0.28,-0.81,-0.12,0.00,0.00,0.98
13869,-86.75,177.31,-30.12,-18.12,5.94,-0.88,0.41,-0.72,-0.06,0.00,0.00,0.97
13878,-86.75,177.31,-30.12,-18.12,5.94,-0.88,0.31,-0.56,-0.03,0.00,0.00,0.98
13888,-86.75,177.38,-30.25,-16.94,5.88,-0.38,0.15,-0.48,0.00,0.00,0.00,0.98
13895,-86.69,177.38,-30.44,-16.00,6.00,0.38,0.15,-0.48,0.00,0.00,0.00,0.97
13902,-86.69,177.38,-30.56,-15.31,5.75,1.19,-0.03,-0.26,0.09,0.00,0.00,0.97
13910,-86.62,177.38,-30.75,-14.81,5.25,1.75,-0.23,-0.11,0.11,0.00,0.00,0.98
13940,-86.62,177.50,-31.25,-14.56,2.81,2.31,-0.54,0.26,0.23,0.00,0.00,0.99
13947,-86.62,177.50,-31.25,-14.56,2.81,2.31,-0.54,0.26,0.23,0.00,0.00,0.99
13955,-86.62,177.50,-31.44,-15.00,1.94,2.25,-0.41,0.21,0.19,0.00,0.00,0.98
13963,-86.62,177.50,-31.62,-15.44,1.44,1.94,-0.15,0.16,0.22,0.00,0.00,0.96
13970,-86.62,177.56,-31.75,-15.56,1.25,1.88,0.15,0.09,0.18,0.00,0.00,0.98
13981,-86.62,177.56,-31.75,-15.44,1.44,1.81,0.28,0.00,0.19,0.00,0.00,0.98
13989,-86.62,177.56,-31.94,-15.38,1.81,1.44,0.46,-0.02,0.21,0.00,0.00,0.98
14001,-86.62,177.62,-32.12,-15.38,1.81,1.44,0.46,-0.02,0.21,0.00,0.00,0.97
14009,-86.62,177.62,-32.25,-15.25,2.62,1.19,0.66,-0.10,0.20,0.00,0.00,0.98
14019,-86.62,177.62,-32.44,-15.12,3.06,1.06,0.61,0.09,0.25,0.00,0.00,0.99
14028,-86.56,177.62,-32.62,-15.00,3.94,1.31,0.49,0.12,0.26,0.00,0.00,0.99
14038,-86.56,177.69,-32.75,-14.94,4.75,1.12,0.27,0.18,0.26,0.00,0.00,0.99
14046,-86.50,177.69,-32.94,-15.06,5.50,1.00,0.27,0.18,0.26,0.00,0.00,1.01
14053,-86.50,177.69,-33.06,-15.31,5.62,0.75,-0.13,0.28,0.29,0.00,0.00,1.02
14085,-86.38,177.69,-33.56,-16.69,4.81,-0.38,-0.23,0.41,0.33,0.00,0.00,1.00
14092,-86.31,177.75,-33.75,-17.25,4.44,-0.38,-0.11,0.32,0.34,0.00,0.00,1.02
14099,-86.31,177.75,-33.75,-18.00,4.00,0.25,-0.10,0.27,0.32,0.00,0.00,1.01
14107,-86.31,177.75,-33.94,-18.00,4.00,0.25,-0.10,0.27,0.32,0.00,0.00,1.01
14115,-86.31,177.75,-34.12,-18.06,3.62,0.31,-0.01,0.17,0.29,0.00,0.00,1.02
14125,-86.25,177.75,-34.31,-18.44,3.50,0.50,-0.06,0.10,0.26,0.00,0.00,1.03
14132,-86.25,177.81,-34.50,-18.62,3.25,0.94,-0.15,-0.09,0.26,0.00,0.00,1.03
14143,-86.25,177.81,-34.50,-18.25,2.94,0.81,-0.17,-0.21,0.25,0.00,0.00,1.02
14151,-86.25,177.81,-34.88,-17.94,2.56,0.56,-0.53,-0.36,0.25,0.00,0.00,1.02
14161,-86.25,177.81,-34.88,-17.94,2.56,0.56,-0.53,-0.36,0.25,0.00,0.00,1.04
14170,-86.19,177.81,-35.06,-17.31,1.62,-0.44,-0.38,-0.38,0.24,0.00,0.00,1.03
14183,-86.19,177.81,-35.19,-16.69,-0.38,-1.69,-0.51,-0.42,0.26,0.00,0.00,1.03
14191,-86.19,177.81,-35.38,-15.50,-2.31,-1.62,-1.09,-0.48,0.27,0.00,0.00,1.02
14226,-86.31,177.81,-35.94,-13.19,-4.38,1.44,0.08,-0.60,0.26,0.00,0.00,1.02
14233,-86.38,177.88,-36.12,-12.38,-4.69,3.00,0.69,-0.61,0.25,0.00,0.00,1.03
14245,-86.38,177.88,-36.12,-11.38,-3.94,4.00,1.08,-0.60,0.25,0.00,0.00,1.03
14253,-86.44,177.94,-36.38,-10.38,-3.44,4.31,0.00,-0.57,0.27,0.00,0.00,1.02
14265,-86.44,177.94,-36.38,-9.31,-3.44,3.75,0.42,-0.53,0.28,0.00,0.00,1.03
14272,-86.56,178.00,-36.62,-8.69,-2.62,3.19,0.21,-0.48,0.26,0.00,0.00,1.05
14283,-86.56,178.00,-36.62,-7.81,-2.25,1.31,-0.78,-0.46,0.26,0.00,0.00,1.06
14292,-86.56,178.06,-36.75,-7.19,-2.75,-1.06,0.17,-0.25,0.32,0.00,0.00,1.06
14300,-86.62,178.00,-36.81,-7.19,-2.75,-1.06,0.17,-0.25,0.32,0.00,0.00,1.09
14308,-86.62,178.00,-36.88,-6.50,-2.81,-2.50,0.59,-0.02,0.40,0.00,0.00,1.06
14320,-86.62,178.00,-36.88,-6.50,-2.06,-2.12,0.52,0.17,0.43,0.00,0.00,1.10
14334,-86.62,178.00,-36.94,-6.75,-1.19,-0.94,0.94,0.38,0.44,0.00,0.00,1.11
14343,-86.62,178.00,-37.06,-7.94,1.31,1.94,0.68,0.40,0.47,0.00,0.00,1.12
14378,-86.62,178.06,-37.44,-8.75,2.12,0.62,-0.73,-0.03,0.38,0.00,0.00,1.14
14388,-86.56,178.06,-37.50,-8.69,1.50,-1.19,-0.83,0.05,0.37,0.00,0.00,1.16
14400,-86.56,178.06,-37.56,-8.69,0.81,-2.44,-0.46,0.11,0.39,0.00,0.00,1.22
14408,-86.56,178.00,-37.62,-8.94,0.62,-3.31,-0.15,0.36,0.49,0.00,0.00,1.24
14421,-86.50,178.00,-37.69,-9.44,0.31,-3.06,0.04,0.38,0.51,0.00,0.00,1.28
14432,-86.50,178.00,-37.81,-10.12,0.19,-1.81,0.56,0.07,0.41,0.00,0.00,1.34
14442,-86.50,178.00,-37.94,-10.50,0.12,-0.38,0.06,-0.20,0.37,0.00,0.00,1.35
14449,-86.50,178.00,-38.00,-10.38,0.31,0.44,0.06,-0.20,0.37,0.00,0.00,1.39
14457,-86.50,178.00,-38.12,-10.31,0.00,0.50,0.09,-0.29,0.36,0.00,0.00,1.38
14465,-86.50,178.00,-38.25,-9.81,-0.06,0.62,-0.10,-0.29,0.35,0.00,0.00,1.36
14474,-86.50,178.00,-38.25,-9.31,-0.19,0.31,-0.35,-0.23,0.33,0.00,0.00,1.26
14484,-86.50,178.00,-38.31,-9.12,-0.75,-0.44,-0.11,-0.16,0.34,0.00,0.00,1.07
14494,-86.50,178.00,-38.44,-8.81,-0.75,-0.69,-0.08,0.02,0.41,0.00,0.00,0.83
14502,-86.50,178.00,-38.50,-8.81,-0.75,-0.69,-0.08,0.02,0.41,0.00,0.00,0.60
14534,-86.56,178.00,-38.75,-9.44,-1.06,-0.06,0.10,0.13,0.38,0.00,0.00,0.39
14544,-86.56,178.06,-38.88,-9.69,-0.94,-0.12,0.17,0.17,0.41,0.00,0.00,0.39
14553,-86.56,178.06,-38.94,-9.69,-0.94,-0.12,0.17,0.17,0.41,0.00,0.00,0.38
14561,-86.62,178.06,-39.06,-9.94,-0.81,-0.44,0.27,0.17,0.39,0.00,0.00,0.43
14570,-86.62,178.06,-39.19,-10.00,-0.44,-0.75,0.23,0.07,0.33,0.00,0.00,0.35
14580,-86.62,178.06,-39.31,-9.94,-0.12,-1.00,0.28,0.05,0.31,0.00,0.00,0.40
14591,-86.69,178.06,-39.38,-10.06,0.31,-1.00,0.36,0.00,0.29,0.00,0.00,0.39
14599,-86.69,178.06,-39.50,-9.94,0.62,-1.19,0.29,-0.09,0.27,0.00,0.00,0.40
14607,-86.62,178.06,-39.56,-9.81,1.19,-1.56,0.14,-0.15,0.31,0.00,0.00,0.39
14615,-86.62,178.00,-39.62,-9.50,1.31,-1.75,0.11,-0.19,0.28,0.00,0.00,0.37
14624,-86.62,178.00,-39.62,-9.12,1.25,-2.06,0.04,-0.33,0.25,0.00,0.00,0.43
14634,-86.62,178.00,-39.69,-9.12,1.25,-2.06,-0.02,-0.40,0.22,0.00,0.00,0.42
14644,-86.62,178.00,-39.75,-8.50,1.19,-2.50,0.03,-0.40,0.25,0.00,0.00,0.37
14675,-86.50,177.88,-39.94,-5.62,0.25,-1.75,-0.41,-0.46,0.06,0.00,0.00,0.45
14685,-86.50,177.88,-39.94,-4.69,-0.75,-1.38,-0.37,-0.84,0.21,0.00,0.00,0.38
14695,-86.50,177.88,-40.00,-4.69,-0.75,-1.38,-0.60,-0.64,0.00,0.00,0.00,0.37
14703,-86.50,177.88,-40.00,-3.56,-1.62,-0.75,-0.60,-0.64,0.00,0.00,0.00,0.40
14712,-86.56,177.88,-40.00,-2.69,-2.69,-0.25,-0.41,-0.65,0.06,0.00,0.00,0.38
14723,-86.56,177.88,-40.06,-1.75,-3.69,0.25,-0.41,-0.32,0.12,0.00,0.00,0.38
14736,-86.62,177.88,-40.06,-1.00,-4.06,0.81,-0.06,-0.28,0.14,0.00,0.00,0.42
14746,-86.62,177.88,-40.06,0.25,-4.75,0.75,0.29,-0.28,0.15,0.00,0.00,0.47
14755,-86.69,177.94,-40.06,0.25,-4.75,0.75,0.31,-0.11,0.17,0.00,0.00,0.42
14764,-86.75,177.94,-40.06,0.75,-4.38,0.50,0.31,-0.11,0.17,0.00,0.00,0.39
14774,-86.75,177.94,-40.06,1.19,-4.19,0.31,0.58,-0.02,0.22,0.00,0.00,0.42
14785,-86.81,177.94,-40.06,1.25,-3.94,0.38,0.67,0.04,0.20,0.00,0.00,0.35
14797,-86.81,177.94,-40.06,1.56,-3.06,0.12,0.20,0.05,0.26,0.00,0.00,0.40
14806,-86.81,177.94,-40.00,1.62,-2.25,-0.38,0.29,-0.28,0.16,0.00,0.00,0.40
14841,-86.81,177.88,-39.94,2.31,-0.69,-1.56,0.21,-0.17,0.14,0.00,0.00,0.40
14849,-86.81,177.81,-39.88,2.88,-0.44,-1.62,0.40,-0.19,0.14,0.00,0.00,0.34
14860,-86.81,177.81,-39.81,3.06,-0.25,-1.31,0.41,0.00,0.21,0.00,0.00,0.38
14868,-86.81,177.81,-39.75,3.25,0.00,-0.81,0.40,0.14,0.25,0.00,0.00,0.43
14879,-86.81,177.81,-39.75,2.94,0.06,-0.44,0.08,0.45,0.32,0.00,0.00,0.43
14887,-86.81,177.81,-39.75,2.12,0.19,-0.31,-0.08,0.42,0.32,0.00,0.00,0.37
14896,-86.81,177.81,-39.75,1.56,-0.19,-0.25,-0.27,0.39,0.33,0.00,0.00,0.35
14909,-86.81,177.81,-39.69,1.56,-0.19,-0.25,-0.48,0.29,0.32,0.00,0.00,0.47
14918,-86.81,177.81,-39.69,0.31,-1.38,-0.81,-0.36,0.06,0.23,0.00,0.00,0.33
14929,-86.81,177.81,-39.69,0.25,-1.81,-1.38,-0.15,-0.10,0.13,0.00,0.00,0.42
14937,-86.81,177.75,-39.69,0.31,-1.81,-1.62,0.02,-0.16,0.14,0.00,0.00,0.39
14949,-86.81,177.75,-39.69,0.56,-1.94,-1.69,0.26,-0.15,0.15,0.00,0.00,0.38
14957,-86.81,177.75,-39.62,0.69,-1.50,-1.44,0.56,-0.08,0.17,0.00,0.00,0.44
14990,-86.81,177.75,-39.56,0.88,-0.62,0.25,-0.01,0.10,0.21,0.00,0.00,0.39
14998,-86.81,177.75,-39.56,0.62,-0.56,0.31,-0.28,0.16,0.20,0.00,0.00,0.37
15010,-86.81,177.75,-39.56,0.50,-0.88,0.19,-0.35,0.14,0.25,0.00,0.00,0.39
15018,-86.88,177.75,-39.56,0.25,-1.12,-0.31,-0.27,0.14,0.20,0.00,0.00,0.37
15028,-86.88,177.75,-39.56,0.00,-1.56,-0.81,-0.01,-0.01,0.17,0.00,0.00,0.39
15040,-86.88,177.75,-39.56,0.06,-1.75,-1.19,0.20,-0.09,0.15,0.00,0.00,0.39
15048,-86.88,177.69,-39.56,0.19,-1.94,-1.25,0.46,-0.14,0.14,0.00,0.00,0.44
15061,-86.88,177.69,-39.56,0.44,-1.12,-1.00,0.60,-0.19,0.15,0.00,0.00,0.40
15069,-86.88,177.69,-39.56,0.94,-0.44,-0.56,0.58,-0.23,0.14,0.00,0.00,0.38
15081,-86.88,177.69,-39.56,1.06,-0.06,0.00,0.53,-0.23,0.12,0.00,0.00,0.35
15089,-86.88,177.69,-39.50,1.62,0.44,0.12,0.34,-0.22,0.14,0.00,0.00,0.38
15101,-86.88,177.69,-39.50,1.94,0.75,0.38,0.07,-0.17,0.16,0.00,0.00,0.44
15109,-86.88,177.69,-39.44,2.44,0.69,0.12,-0.16,-0.02,0.23,0.00,0.00,0.42
15118,-86.88,177.69,-39.44,2.44,0.44,-0.06,-0.12,0.04,0.25,0.00,0.00,0.42
15149,-86.88,177.69,-39.38,2.12,0.12,-0.62,0.23,0.14,0.25,0.00,0.00,0.37
15160,-86.88,177.69,-39.38,2.12,0.12,-0.62,0.24,0.09,0.26,0.00,0.00,0.38
15169,-86.88,177.69,-39.38,1.69,0.50,-0.44,0.23,0.01,0.25,0.00,0.00,0.38
15180,-86.88,177.69,-39.31,1.88,0.69,-0.50,0.25,-0.11,0.18,0.00,0.00,0.39
15188,-86.88,177.69,-39.31,2.12,0.94,-0.56,0.16,-0.14,0.17,0.00,0.00,0.40
15198,-86.81,177.69,-39.31,2.12,0.94,-0.56,0.05,-0.07,0.20,0.00,0.00,0.39
15208,-86.81,177.69,-39.25,2.38,1.19,-0.50,0.05,-0.07,0.20,0.00,0.00,0.35
15216,-86.81,177.69,-39.25,2.62,1.12,-0.44,0.03,-0.01,0.20,0.00,0.00,0.38
15230,-86.81,177.69,-39.19,2.75,1.00,-0.31,0.00,0.01,0.22,0.00,0.00,0.38
15239,-86.81,177.69,-39.19,2.56,0.44,-0.12,-0.28,0.09,0.24,0.00,0.00,0.35
15251,-86.81,177.69,-39.12,2.50,0.06,-0.06,-0.21,0.11,0.26,0.00,0.00,0.39
15259,-86.81,177.69,-39.12,2.38,-0.38,-0.06,-0.22,0.12,0.27,0.00,0.00,0.38
15271,-86.81,177.69,-39.12,2.38,-0.38,-0.06,-0.22,0.12,0.27,0.00,0.00,0.38
15302,-86.88,177.69,-39.00,2.12,-1.88,0.25,0.04,0.04,0.24,0.00,0.00,0.44
15311,-86.88,177.69,-39.00,2.06,-2.19,0.31,0.16,0.04,0.22,0.00,0.00,0.42
15320,-86.88,177.69,-39.00,2.06,-2.19,0.50,0.18,0.01,0.24,0.00,0.00,0.34
15329,-86.94,177.69,-39.00,1.94,-2.06,0.62,0.14,-0.04,0.23,0.00,0.00,0.35
15339,-86.94,177.69,-38.94,1.94,-2.06,0.62,0.16,0.01,0.22,0.00,0.00,0.43
15349,-86.94,177.69,-38.94,2.19,-1.88,0.50,0.18,0.04,0.25,0.00,0.00,0.34
15358,-86.94,177.69,-38.94,2.19,-1.88,0.44,0.18,0.04,0.25,0.00,0.00,0.35
15366,-87.00,177.69,-38.88,2.12,-1.62,0.06,0.16,0.06,0.24,0.00,0.00,0.39
15379,-87.00,177.69,-38.88,2.12,-1.38,0.00,0.13,0.09,0.23,0.00,0.00,0.38
15393,-87.00,177.69,-38.88,2.06,-1.31,-0.19,0.11,0.18,0.26,0.00,0.00,0.35
15401,-87.06,177.69,-38.88,1.44,-1.12,-0.19,0.09,0.21,0.27,0.00,0.00,0.40
15415,-87.06,177.69,-38.88,1.44,-1.12,-0.19,0.10,0.21,0.29,0.00,0.00,0.39
15423,-87.12,177.69,-38.88,0.88,-0.88,-0.19,0.06,0.13,0.24,0.00,0.00,0.38
15431,-87.12,177.75,-38.88,0.75,-1.12,-0.19,0.05,0.08,0.22,0.00,0.00,0.42
15465,-87.19,177.75,-38.88,0.50,-1.00,-0.44,0.06,0.00,0.24,0.00,0.00,0.38
15473,-87.19,177.75,-38.88,0.69,-1.06,-0.31,0.07,-0.06,0.20,0.00,0.00,0.40
15486,-87.19,177.75,-38.88,0.56,-1.00,-0.25,0.08,-0.03,0.20,0.00,0.00,0.42
15494,-87.19,177.75,-38.81,0.94,-1.06,-0.19,0.05,-0.03,0.17,0.00,0.00,0.40
15503,-87.19,177.75,-38.81,0.94,-1.12,-0.19,0.04,-0.05,0.20,0.00,0.00,0.44
15511,-87.19,177.75,-38.81,1.19,-1.12,-0.19,0.07,-0.05,0.21,0.00,0.00,0.42
15521,-87.25,177.75,-38.81,1.38,-1.12,0.00,0.06,-0.06,0.21,0.00,0.00,0.43
15533,-87.25,177.69,-38.81,1.38,-1.12,0.00,0.04,-0.06,0.19,0.00,0.00,0.39
15542,-87.25,177.69,-38.75,1.44,-1.50,-0.06,0.06,-0.05,0.22,0.00,0.00,0.42
15555,-87.25,177.69,-38.75,1.62,-1.62,0.00,0.06,-0.05,0.22,0.00,0.00,0.44
15563,-87.31,177.69,-38.75,1.69,-1.69,0.06,0.06,-0.03,0.22,0.00,0.00,0.44
15575,-87.31,177.69,-38.75,1.69,-1.69,0.06,0.06,-0.03,0.21,0.00,0.00,0.47
15583,-87.31,177.69,-38.69,1.88,-1.69,0.00,0.08,-0.10,0.19,0.00,0.00,0.47
15596,-87.31,177.69,-38.69,2.06,-1.75,-0.06,0.09,-0.10,0.20,0.00,0.00,0.49
15629,-87.31,177.69,-38.56,2.50,-1.69,-0.31,0.06,-0.10,0.18,0.00,0.00,0.69
15644,-87.38,177.69,-38.56,2.62,-1.50,-0.44,0.02,-0.17,0.17,0.00,0.00,0.79
15653,-87.31,177.62,-38.44,3.25,-1.88,-0.62,0.14,-0.40,0.14,0.00,0.00,0.87
15663,-87.31,177.62,-38.44,3.25,-1.88,-0.62,0.24,-0.51,0.10,0.00,0.00,1.05
15672,-87.31,177.62,-38.44,3.88,-1.69,-0.81,0.25,-0.49,0.12,0.00,0.00,1.17
15682,-87.31,177.62,-38.38,4.75,-1.50,-0.88,0.10,-0.37,0.11,0.00,0.00,1.18
15697,-87.31,177.62,-38.31,5.50,-1.44,-0.75,0.31,-0.50,0.09,0.00,0.00,1.10
15708,-87.31,177.56,-38.12,6.75,-1.31,-0.56,0.25,-0.55,0.09,0.00,0.00,0.95
15717,-87.25,177.50,-38.00,7.81,-1.00,-0.19,0.10,-0.44,0.13,0.00,0.00,0.80
15728,-87.25,177.44,-37.88,8.56,-0.81,0.12,0.11,-0.32,0.11,0.00,0.00,0.65
15737,-87.19,177.44,-37.75,9.06,-0.81,0.12,0.22,-0.43,0.07,0.00,0.00,0.51
15749,-87.19,177.38,-37.56,9.81,-0.69,0.19,0.06,-0.49,0.08,0.00,0.00,0.22
15758,-87.12,177.31,-37.44,10.69,-0.56,0.00,0.05,-0.43,0.06,0.00,0.00,0.17
15794,-87.06,177.19,-36.94,12.81,-0.44,-0.94,0.07,-0.35,0.03,0.00,0.00,1.07
15802,-87.00,177.12,-36.81,14.19,-0.44,-1.00,0.10,-0.33,0.08,0.00,0.00,1.08
15810,-86.94,177.12,-36.62,14.19,-0.44,-1.00,0.10,-0.33,0.08,0.00,0.00,1.08
15817,-86.94,177.06,-36.44,15.00,-0.38,-0.94,0.05,-0.36,0.05,0.00,0.00,1.07
15826,-86.88,177.06,-36.25,15.69,-0.25,-0.88,0.13,-0.34,0.05,0.00,0.00,1.06
15833,-86.88,177.00,-36.06,16.44,-0.31,-0.62,0.16,-0.33,0.04,0.00,0.00,1.07
15842,-86.88,177.00,-36.06,16.44,-0.31,-0.62,0.11,-0.32,0.03,0.00,0.00,1.06
