Time,sensPitch,sensRoll,sensYaw,xGyro,yGyro,ZGyro,xAcc,yAcc,zAcc,latitude,longitude,altitude
5993,-83.56,-179.12,-3.06,6.06,-1.00,0.81,0.08,-0.09,0.07,0.00,0.00,1.79
6004,-83.56,-179.12,-2.94,6.31,-0.94,0.94,0.10,-0.08,0.05,0.00,0.00,1.86
6015,-83.56,-179.12,-2.88,6.25,-1.06,0.94,0.11,-0.07,0.08,0.00,0.00,1.76
6028,-83.56,-179.12,-2.81,6.19,-1.00,0.88,0.11,-0.08,0.06,0.00,0.00,1.80
6042,-83.62,-179.12,-2.75,6.12,-1.19,0.88,0.10,-0.08,0.04,0.00,0.00,1.82
6054,-83.62,-179.12,-2.69,6.00,-1.19,0.81,0.10,-0.04,0.06,0.00,0.00,1.70
6065,-83.62,-179.12,-2.56,6.12,-1.31,0.88,0.09,-0.03,0.07,0.00,0.00,1.69
6076,-83.62,-179.12,-2.50,6.19,-1.19,0.88,0.09,-0.05,0.05,0.00,0.00,1.71
6089,-83.62,-179.12,-2.44,6.00,-1.38,0.88,0.10,-0.03,0.04,0.00,0.00,1.61
6103,-83.69,-179.12,-2.38,6.12,-1.31,0.81,0.12,-0.03,0.06,0.00,0.00,1.54
6114,-83.69,-179.12,-2.31,6.06,-1.19,0.75,0.11,-0.02,0.03,0.00,0.00,1.54
6125,-83.69,-179.12,-2.19,6.12,-1.25,0.94,0.09,0.00,0.05,0.00,0.00,1.43
6137,-83.69,-179.12,-2.12,6.00,-1.44,0.88,0.11,0.00,0.01,0.00,0.00,1.32
6827,-84.81,-178.88,0.25,1.31,-0.75,0.00,0.18,0.12,-0.10,0.00,0.00,0.57
6840,-84.81,-178.88,0.31,1.12,-0.56,-0.06,0.17,0.12,-0.11,0.00,0.00,0.56
6849,-84.81,-178.88,0.31,1.19,-0.50,-0.19,0.18,0.12,-0.12,0.00,0.00,0.57
6862,-84.81,-178.88,0.31,0.88,-0.38,-0.06,0.18,0.11,-0.15,0.00,0.00,0.56
6872,-84.81,-178.88,0.31,0.94,-0.56,0.00,0.18,0.13,-0.13,0.00,0.00,0.50
6886,-84.81,-178.88,0.31,0.81,-0.62,0.00,0.19,0.12,-0.11,0.00,0.00,0.63
6897,-84.81,-178.88,0.38,0.62,-0.44,-0.25,0.18,0.12,-0.12,0.00,0.00,0.56
6911,-84.81,-178.88,0.38,0.31,-0.25,-0.19,0.19,0.10,-0.13,0.00,0.00,0.60
6920,-84.81,-178.88,0.38,0.44,-0.50,-0.12,0.18,0.12,-0.13,0.00,0.00,0.59
6934,-84.81,-178.88,0.38,0.19,-0.25,-0.19,0.19,0.11,-0.12,0.00,0.00,0.61
6947,-84.81,-178.88,0.38,0.19,-0.38,-0.25,0.19,0.10,-0.13,0.00,0.00,0.57
6958,-84.81,-178.88,0.38,0.06,0.19,-0.25,0.23,0.11,-0.12,0.00,0.00,0.49
6970,-84.81,-178.88,0.38,-0.12,0.06,-0.38,0.22,0.11,-0.11,0.00,0.00,0.57
6980,-84.81,-178.88,0.38,-0.06,0.12,-0.31,0.20,0.10,-0.11,0.00,0.00,0.54
7016,-84.81,-178.88,0.38,-0.50,0.38,-0.31,0.19,0.08,-0.11,0.00,0.00,0.56
7028,-84.81,-178.88,0.31,-0.62,0.38,-0.31,0.21,0.07,-0.12,0.00,0.00,0.55
7038,-84.81,-178.88,0.31,-0.62,0.81,-0.44,0.22,0.10,-0.13,0.00,0.00,0.48
7049,-84.81,-178.88,0.31,-0.88,0.81,-0.31,0.21,0.07,-0.11,0.00,0.00,0.54
7059,-84.81,-178.88,0.31,-0.94,0.88,-0.50,0.21,0.06,-0.09,0.00,0.00,0.51
7069,-84.81,-178.88,0.31,-1.00,1.00,-0.44,0.21,0.06,-0.07,0.00,0.00,0.52
7079,-84.75,-178.88,0.31,-1.06,0.94,-0.44,0.20,0.06,-0.12,0.00,0.00,0.50
7089,-84.75,-178.88,0.31,-1.25,1.19,-0.50,0.22,0.03,-0.12,0.00,0.00,0.52
7100,-84.75,-178.88,0.25,-1.31,1.50,-0.50,0.20,0.04,-0.13,0.00,0.00,0.50
7110,-84.75,-178.88,0.25,-1.44,1.56,-0.56,0.21,0.03,-0.11,0.00,0.00,0.61
7121,-84.75,-178.88,0.25,-1.75,1.69,-0.56,0.18,0.03,-0.09,0.00,0.00,0.49
7131,-84.69,-178.88,0.19,-1.75,1.69,-0.56,0.18,0.02,-0.10,0.00,0.00,0.58
7141,-84.69,-178.88,0.19,-1.62,1.88,-0.56,0.21,0.03,-0.12,0.00,0.00,0.53
7151,-84.69,-178.88,0.19,-1.75,1.69,-0.56,0.19,0.01,-0.10,0.00,0.00,0.54
7185,-84.62,-178.88,0.12,-1.94,1.94,-0.62,0.17,0.01,-0.09,0.00,0.00,0.56
7196,-84.62,-178.88,0.12,-2.12,2.12,-0.62,0.14,0.00,-0.10,0.00,0.00,0.55
7211,-84.56,-178.88,0.06,-2.31,2.19,-0.69,0.13,0.00,-0.09,0.00,0.00,0.53
7220,-84.56,-178.88,0.06,-2.31,2.31,-0.69,0.15,0.00,-0.10,0.00,0.00,0.52
7232,-84.56,-178.88,0.06,-2.31,2.31,-0.69,0.14,-0.01,-0.11,0.00,0.00,0.58
7242,-84.50,-178.88,0.00,-2.56,2.25,-0.56,0.14,-0.03,-0.09,0.00,0.00,0.59
7253,-84.50,-178.88,-0.06,-2.69,2.44,-0.56,0.15,-0.04,-0.05,0.00,0.00,0.53
7263,-84.44,-178.88,-0.06,-2.81,2.50,-0.75,0.13,-0.03,-0.08,0.00,0.00,0.56
7275,-84.44,-178.88,-0.06,-2.88,2.31,-0.69,0.10,-0.04,-0.08,0.00,0.00,0.57
7285,-84.38,-178.88,-0.12,-2.94,2.31,-0.69,0.11,-0.05,-0.03,0.00,0.00,0.56
7300,-84.38,-178.88,-0.12,-3.12,2.25,-0.69,0.12,-0.04,-0.05,0.00,0.00,0.51
7311,-84.38,-178.88,-0.19,-3.19,2.31,-0.69,0.12,-0.03,-0.05,0.00,0.00,0.60
7323,-84.31,-178.88,-0.19,-3.19,2.31,-0.69,0.10,-0.07,-0.06,0.00,0.00,0.58
7371,-84.25,-178.94,-0.38,-3.88,2.12,-0.69,0.12,-0.05,-0.02,0.00,0.00,0.65
7383,-84.25,-178.94,-0.38,-3.75,2.06,-0.81,0.10,-0.07,-0.05,0.00,0.00,0.64
7392,-84.19,-178.94,-0.44,-3.94,2.00,-0.75,0.11,-0.08,-0.03,0.00,0.00,0.64
7404,-84.19,-178.94,-0.44,-4.06,2.06,-0.69,0.11,-0.08,-0.06,0.00,0.00,0.63
7414,-84.12,-178.94,-0.50,-4.12,1.88,-0.81,0.08,-0.08,-0.03,0.00,0.00,0.63
7424,-84.12,-178.94,-0.56,-4.31,1.75,-0.75,0.12,-0.12,-0.01,0.00,0.00,0.68
7434,-84.12,-178.94,-0.62,-4.19,1.88,-0.81,0.12,-0.09,-0.02,0.00,0.00,0.71
7446,-84.12,-178.94,-0.62,-4.38,1.88,-0.69,0.11,-0.10,0.00,0.00,0.00,0.60
7457,-84.06,-178.94,-0.69,-4.62,1.69,-0.75,0.10,-0.09,-0.02,0.00,0.00,0.67
7469,-84.06,-178.94,-0.75,-4.50,1.62,-0.69,0.11,-0.12,-0.03,0.00,0.00,0.76
7479,-84.06,-178.94,-0.75,-4.56,1.75,-0.81,0.12,-0.11,-0.03,0.00,0.00,0.78
7493,-84.06,-178.94,-0.81,-4.50,1.62,-0.88,0.12,-0.10,0.00,0.00,0.00,0.76
7503,-84.00,-178.94,-0.88,-4.81,1.56,-0.81,0.12,-0.12,0.01,0.00,0.00,0.85
7516,-84.00,-178.94,-0.94,-4.81,1.50,-0.69,0.12,-0.10,0.00,0.00,0.00,0.85
7551,-83.94,-179.00,-1.06,-5.12,1.62,-0.81,0.11,-0.13,-0.03,0.00,0.00,0.97
7565,-83.94,-179.00,-1.12,-5.06,1.69,-0.69,0.11,-0.09,0.00,0.00,0.00,1.17
7575,-83.94,-179.00,-1.25,-5.06,1.50,-0.75,0.11,-0.13,0.00,0.00,0.00,1.20
7588,-83.88,-179.00,-1.25,-5.19,1.50,-0.69,0.10,-0.14,0.01,0.00,0.00,1.23
7601,-83.88,-179.00,-1.31,-5.38,1.69,-0.69,0.11,-0.13,0.02,0.00,0.00,1.36
7615,-83.88,-179.00,-1.38,-5.25,1.56,-0.81,0.11,-0.13,0.01,0.00,0.00,1.51
7626,-83.81,-179.00,-1.50,-5.38,1.50,-0.81,0.08,-0.11,0.01,0.00,0.00,1.64
7638,-83.81,-179.00,-1.56,-5.38,1.44,-0.62,0.10,-0.11,0.02,0.00,0.00,1.70
7653,-83.81,-179.00,-1.56,-5.56,1.56,-0.81,0.08,-0.11,0.02,0.00,0.00,1.81
7666,-83.81,-179.00,-1.62,-5.56,1.25,-0.69,0.10,-0.11,0.02,0.00,0.00,1.84
7680,-83.75,-179.00,-1.75,-5.56,1.25,-0.75,0.08,-0.14,0.01,0.00,0.00,1.84
7693,-83.75,-179.00,-1.81,-5.56,1.50,-0.56,0.09,-0.12,0.04,0.00,0.00,1.83
7709,-83.75,-179.00,-1.88,-5.75,1.31,-0.62,0.14,-0.30,0.00,0.00,0.00,1.91
7721,-83.75,-179.00,-1.94,-5.69,1.25,-0.62,0.28,-0.21,0.00,0.00,0.00,1.96
7754,-83.69,-179.00,-2.12,-4.44,3.50,-0.19,0.81,-0.50,-0.10,0.00,0.00,2.20
7764,-83.62,-179.00,-2.19,-3.88,4.56,0.06,0.70,-0.49,-0.09,0.00,0.00,2.23
7773,-83.62,-179.00,-2.19,-3.88,4.56,0.06,0.65,-0.57,-0.11,0.00,0.00,2.28
7782,-83.56,-179.00,-2.25,-3.44,5.38,0.06,0.65,-0.57,-0.11,0.00,0.00,2.27
7793,-83.50,-179.00,-2.25,-2.81,6.06,-0.12,0.15,-0.59,-0.11,0.00,0.00,2.28
7803,-83.44,-179.00,-2.31,-2.00,6.44,-0.31,0.01,-0.54,-0.11,0.00,0.00,2.27
7814,-83.38,-179.00,-2.31,-1.56,6.56,-0.31,-0.16,-0.45,-0.08,0.00,0.00,2.30
7824,-83.31,-179.00,-2.31,-0.81,6.50,-0.56,-0.16,-0.45,-0.08,0.00,0.00,2.24
7833,-83.25,-179.00,-2.31,-0.38,5.88,-0.75,-0.29,-0.34,-0.03,0.00,0.00,2.25
7845,-83.19,-179.00,-2.31,0.12,5.25,-0.69,-0.32,-0.28,-0.02,0.00,0.00,2.23
7855,-83.12,-179.00,-2.31,0.50,3.75,-0.25,-0.43,-0.21,0.00,0.00,0.00,2.25
7867,-83.12,-171.75,-2.31,0.56,3.12,0.12,-0.46,-0.20,-0.03,0.00,0.00,2.24
7877,-83.06,-171.81,-2.31,0.69,2.12,0.44,-0.42,-0.16,0.03,0.00,0.00,2.21
7913,-83.06,-171.75,-2.31,1.00,-0.44,1.12,-0.24,-0.22,-0.03,0.00,0.00,2.22
7922,-83.06,-171.75,-2.25,1.31,-1.25,1.06,-0.08,-0.28,-0.03,0.00,0.00,2.22
7934,-83.06,-171.69,-2.25,1.50,-1.62,0.94,0.02,-0.27,-0.03,0.00,0.00,2.24
7944,-83.06,-171.62,-2.25,1.81,-1.38,0.81,0.37,-0.26,-0.06,0.00,0.00,2.25
7955,-83.12,-171.62,-2.25,2.00,-1.50,0.56,0.27,-0.27,-0.10,0.00,0.00,2.24
7966,-83.12,-171.62,-2.19,2.75,-0.50,0.38,0.17,-0.20,-0.05,0.00,0.00,2.24
7977,-83.12,-171.62,-2.19,2.75,-0.50,0.38,-0.20,-0.08,-0.01,0.00,0.00,2.25
7986,-83.12,-171.69,-2.12,3.25,-0.75,0.31,-0.87,-0.23,-0.02,0.00,0.00,2.26
7998,-83.12,-171.69,-2.12,3.38,-2.12,0.38,-0.84,-0.42,-0.09,0.00,0.00,2.28
8007,-83.19,-179.00,-2.06,3.75,-3.19,0.56,-0.23,-0.25,-0.01,0.00,0.00,2.28
8021,-83.19,-179.00,-2.06,4.06,-3.88,0.75,-0.42,-0.18,0.01,0.00,0.00,2.27
8031,-83.25,-179.00,-1.94,4.31,-5.06,0.94,-0.08,-0.26,0.01,0.00,0.00,2.28
8043,-83.31,-179.00,-1.94,4.62,-5.69,1.50,0.06,-0.30,-0.02,0.00,0.00,2.26
8055,-83.38,-179.00,-1.88,5.06,-6.00,1.50,-0.39,-0.19,-0.03,0.00,0.00,2.20
8089,-83.62,-178.94,-1.69,5.94,-7.44,1.50,-0.30,-0.02,0.06,0.00,0.00,1.88
8101,-83.69,-178.94,-1.62,6.19,-7.81,1.19,0.76,-0.02,0.02,0.00,0.00,1.55
8114,-83.75,-178.94,-1.56,6.38,-7.19,1.19,0.34,-0.02,0.01,0.00,0.00,1.06
8125,-83.81,-178.94,-1.50,6.69,-6.81,1.00,0.12,0.00,-0.01,0.00,0.00,0.90
8136,-83.88,-178.94,-1.44,6.69,-6.50,0.88,1.16,-0.01,-0.04,0.00,0.00,0.87
8147,-83.94,-178.94,-1.38,7.12,-4.31,0.94,0.48,0.00,-0.08,0.00,0.00,0.78
8157,-84.00,-178.94,-1.31,7.38,-3.50,1.00,0.90,0.00,-0.06,0.00,0.00,0.84
8171,-84.00,-178.94,-1.25,7.56,-2.19,1.00,0.71,0.03,-0.07,0.00,0.00,0.83
8181,-84.06,-178.94,-1.06,7.62,-0.81,1.00,0.63,0.06,-0.06,0.00,0.00,0.99
8193,-84.06,-178.88,-1.00,7.75,-0.25,1.06,0.90,0.16,-0.02,0.00,0.00,1.06
8206,-84.00,-178.88,-0.94,7.75,0.88,1.19,0.75,0.15,-0.07,0.00,0.00,1.25
8219,-84.00,-178.88,-0.88,7.50,1.31,1.06,0.25,0.31,-0.03,0.00,0.00,1.40
8230,-84.00,-178.88,-0.81,7.19,1.06,0.88,0.11,0.37,-0.01,0.00,0.00,1.63
8242,-83.94,-178.88,-0.69,6.69,1.00,0.81,-0.26,0.30,0.00,0.00,0.00,1.66
8278,-83.94,-178.88,-0.50,6.00,-0.31,0.94,-0.25,0.19,-0.01,0.00,0.00,1.58
8290,-83.94,-178.88,-0.44,6.06,-1.00,1.00,0.29,0.06,-0.16,0.00,0.00,1.58
8304,-84.00,-178.88,-0.31,6.06,-0.94,1.00,0.04,0.09,-0.13,0.00,0.00,1.44
8318,-84.00,-178.88,-0.31,6.06,-1.12,1.25,-0.03,0.12,-0.11,0.00,0.00,1.36
8334,-84.00,-178.88,-0.25,6.12,-1.38,1.12,0.06,0.11,-0.12,0.00,0.00,1.48
8347,-84.00,-178.88,-0.12,6.12,-1.25,0.88,0.00,0.11,-0.12,0.00,0.00,1.24
8363,-84.00,-178.81,-0.06,6.12,-1.56,0.88,0.13,0.04,-0.15,0.00,0.00,1.07
8374,-84.06,-178.81,0.06,6.38,-1.56,0.62,0.00,0.14,-0.12,0.00,0.00,1.05
8384,-84.06,-178.81,0.12,6.19,-1.75,0.75,0.19,0.16,-0.14,0.00,0.00,0.93
8394,-84.06,-178.81,0.12,6.19,-1.69,0.81,0.21,0.11,-0.14,0.00,0.00,1.00
8407,-84.06,-178.81,0.19,6.19,-1.88,0.81,0.13,0.04,-0.19,0.00,0.00,0.90
8421,-84.06,-178.81,0.25,6.38,-1.88,1.12,0.30,-0.02,-0.20,0.00,0.00,0.85
8431,-84.06,-178.81,0.38,6.69,-1.44,1.12,0.10,-0.10,-0.22,0.00,0.00,0.87
8468,-84.06,-178.81,0.62,7.94,-1.94,1.00,0.10,-0.15,-0.22,0.00,0.00,0.77
8478,-84.06,-178.81,0.69,8.31,-1.81,0.81,-0.01,-0.11,-0.22,0.00,0.00,0.71
8487,-84.06,-178.81,0.81,8.62,-2.06,0.62,0.02,-0.03,-0.19,0.00,0.00,0.66
8499,-84.12,-178.81,0.88,8.81,-2.06,0.62,-0.17,0.03,-0.15,0.00,0.00,0.59
8513,-84.12,-178.81,1.00,8.94,-2.88,0.62,-0.13,0.02,-0.17,0.00,0.00,0.62
8522,-84.19,-178.81,1.12,8.88,-3.50,0.50,-0.09,0.08,-0.10,0.00,0.00,0.55
8536,-84.19,-178.81,1.25,9.12,-4.06,0.69,-0.02,0.06,-0.14,0.00,0.00,0.52
8550,-84.25,-178.81,1.31,8.94,-4.62,1.25,0.11,0.05,-0.14,0.00,0.00,0.48
8564,-84.25,-178.81,1.44,9.31,-4.50,1.56,0.28,0.00,-0.19,0.00,0.00,0.52
8574,-84.38,-178.81,1.56,9.38,-4.44,1.81,0.42,-0.08,-0.19,0.00,0.00,0.53
8587,-84.38,-178.81,1.69,9.62,-3.94,1.75,0.48,-0.02,-0.16,0.00,0.00,0.51
8599,-84.44,-178.81,1.75,9.81,-3.50,1.69,0.47,0.00,-0.16,0.00,0.00,0.53
8614,-84.44,-178.81,1.88,9.81,-2.81,1.38,0.41,-0.08,-0.20,0.00,0.00,0.52
8623,-84.50,-178.81,2.06,10.44,-1.94,0.75,0.32,-0.04,-0.18,0.00,0.00,0.57
8659,-84.50,-178.81,2.38,10.56,-1.12,0.25,0.14,0.02,-0.16,0.00,0.00,0.52
8671,-84.50,-178.81,2.50,10.69,-1.25,0.44,0.38,-0.09,-0.18,0.00,0.00,0.54
8683,-84.50,-178.81,2.62,10.88,-1.44,0.69,0.38,-0.09,-0.18,0.00,0.00,0.50
8692,-84.50,-178.81,2.81,10.88,-1.12,1.06,0.37,-0.08,-0.17,0.00,0.00,0.59
8703,-84.50,-178.81,2.94,11.12,-0.69,1.12,0.42,-0.15,-0.21,0.00,0.00,0.50
8712,-84.50,-178.88,3.06,11.25,-0.19,1.25,0.22,-0.32,-0.25,0.00,0.00,0.57
8722,-84.50,-178.88,3.06,11.69,0.19,1.12,0.21,-0.37,-0.29,0.00,0.00,0.49
8731,-84.50,-178.88,3.19,11.69,0.19,1.12,0.35,-0.15,-0.25,0.00,0.00,0.49
8743,-84.44,-178.88,3.38,12.50,0.06,1.38,0.35,-0.15,-0.25,0.00,0.00,0.50
8752,-84.44,-178.88,3.62,12.19,0.44,1.31,0.14,-0.06,-0.23,0.00,0.00,0.55
8765,-84.44,-178.88,3.62,12.31,0.38,1.12,0.25,-0.06,-0.21,0.00,0.00,0.59
8775,-84.38,-178.94,3.88,12.31,0.38,1.25,0.12,0.04,-0.17,0.00,0.00,0.50
8787,-84.38,-178.94,4.00,12.12,0.38,1.38,-0.06,-0.04,-0.18,0.00,0.00,0.62
8796,-84.38,-178.94,4.06,12.12,0.31,1.06,0.05,0.05,-0.11,0.00,0.00,0.53
8831,-84.38,-178.88,4.44,11.81,-0.38,1.31,0.03,-0.15,-0.12,0.00,0.00,0.48
8841,-84.38,-178.88,4.56,11.88,-0.62,1.12,0.02,-0.04,-0.09,0.00,0.00,0.44
8855,-84.38,-178.94,4.69,11.81,-1.00,0.94,-0.04,-0.10,-0.11,0.00,0.00,0.55
8864,-84.38,-178.94,4.94,11.88,-1.19,1.19,-0.04,-0.19,-0.13,0.00,0.00,0.54
8876,-84.38,-178.94,5.06,12.06,-1.75,1.12,-0.07,-0.05,-0.07,0.00,0.00,0.51
8886,-84.44,-178.94,5.19,12.12,-1.88,1.00,0.04,-0.16,-0.07,0.00,0.00,0.45
8897,-84.44,-178.94,5.31,12.19,-1.94,1.12,0.14,-0.11,-0.02,0.00,0.00,0.49
8908,-84.44,-178.94,5.44,12.38,-1.88,1.06,0.13,-0.21,-0.09,0.00,0.00,0.51
8920,-84.44,-178.94,5.56,12.50,-2.12,1.19,0.14,-0.11,-0.05,0.00,0.00,0.47
8929,-84.50,-178.94,5.69,12.56,-2.38,1.31,0.14,-0.21,-0.08,0.00,0.00,0.50
8942,-84.50,-178.94,5.81,12.81,-2.38,1.31,0.04,-0.20,-0.08,0.00,0.00,0.51
8953,-84.50,-178.94,5.94,13.00,-2.38,1.25,0.11,-0.11,-0.06,0.00,0.00,0.55
8967,-84.56,-178.94,6.06,13.12,-2.69,1.44,0.10,-0.21,-0.09,0.00,0.00,0.51
8977,-84.56,-179.00,6.31,13.19,-2.69,1.25,0.10,-0.20,-0.08,0.00,0.00,0.44
9015,-84.62,-179.00,6.75,13.56,-2.31,1.25,0.23,-0.13,-0.10,0.00,0.00,0.45
9024,-84.69,-179.00,7.00,13.50,-2.19,1.25,0.16,-0.03,-0.08,0.00,0.00,0.44
9037,-84.69,-179.00,7.00,13.50,-2.06,1.38,0.11,0.00,-0.06,0.00,0.00,0.49
9047,-84.69,-179.00,7.31,13.62,-1.75,1.50,0.20,0.03,-0.05,0.00,0.00,0.48
9057,-84.69,-179.00,7.44,13.38,-1.69,1.44,0.26,0.09,-0.06,0.00,0.00,0.47
9066,-84.69,-179.00,7.56,13.19,-1.50,1.81,0.23,0.02,-0.03,0.00,0.00,0.45
9075,-84.69,-179.00,7.69,13.06,-1.19,1.50,0.28,0.06,-0.05,0.00,0.00,0.45
9087,-84.69,-179.00,7.69,12.81,-1.31,1.81,0.33,0.08,-0.01,0.00,0.00,0.42
9096,-84.75,-179.00,7.88,12.44,-1.00,1.50,0.27,0.13,-0.01,0.00,0.00,0.48
9108,-84.75,-178.94,8.00,12.44,-0.94,1.50,0.23,0.00,-0.05,0.00,0.00,0.49
9118,-84.75,-178.94,8.12,12.31,-0.75,1.38,0.23,0.02,-0.03,0.00,0.00,0.47
9132,-84.75,-178.94,8.25,12.25,-0.56,1.12,0.20,0.00,-0.01,0.00,0.00,0.47
9141,-84.75,-178.94,8.38,12.06,-0.12,1.12,0.21,-0.09,-0.02,0.00,0.00,0.47
9178,-84.75,-178.94,8.69,11.94,0.88,1.25,0.38,-0.10,-0.06,0.00,0.00,0.48
9188,-84.69,-178.94,8.94,11.81,1.12,1.44,0.04,0.25,0.00,0.00,0.00,0.53
9199,-84.69,-178.94,9.06,11.75,1.12,1.19,-0.07,0.27,0.01,0.00,0.00,0.59
9210,-84.69,-178.94,9.19,11.50,0.88,1.44,-0.02,0.27,-0.01,0.00,0.00,0.65
9226,-84.69,-178.94,9.25,10.94,0.62,1.50,-0.08,0.36,0.00,0.00,0.00,0.70
9236,-84.69,-178.94,9.38,10.25,0.50,1.44,-0.06,0.51,0.00,0.00,0.00,0.80
9250,-84.69,-178.94,9.44,8.75,-0.50,1.38,0.02,0.34,-0.04,0.00,0.00,0.77
9261,-84.69,-178.94,9.62,8.00,-0.75,1.44,-0.07,0.37,-0.06,0.00,0.00,0.78
9275,-84.69,-178.88,9.62,7.31,-1.00,1.12,-0.01,0.38,-0.06,0.00,0.00,0.70
9284,-84.69,-178.88,9.69,6.44,-1.44,1.00,0.01,0.29,-0.12,0.00,0.00,0.73
9294,-84.69,-178.88,9.69,5.81,-1.56,0.94,-0.04,0.15,-0.14,0.00,0.00,0.60
9306,-84.69,-178.81,9.75,5.31,-1.56,0.81,0.18,0.15,-0.14,0.00,0.00,0.63
9317,-84.69,-178.81,9.81,4.38,-1.81,0.69,0.21,0.12,-0.18,0.00,0.00,0.56
9327,-84.69,-178.81,9.81,4.25,-1.69,0.69,0.35,0.03,-0.18,0.00,0.00,0.72
9360,-84.69,-178.81,9.94,3.50,-0.44,0.81,0.36,0.04,-0.21,0.00,0.00,0.63
9370,-84.69,-178.81,10.00,3.31,0.06,0.88,0.34,0.07,-0.18,0.00,0.00,0.70
9380,-84.69,-178.81,10.00,3.19,0.38,0.62,0.07,0.04,-0.19,0.00,0.00,0.73
9390,-84.69,-178.81,10.06,3.00,0.25,0.50,0.07,-0.06,-0.23,0.00,0.00,0.78
9400,-84.69,-178.81,10.06,2.94,0.31,0.19,0.19,-0.06,-0.24,0.00,0.00,0.80
9411,-84.69,-178.81,10.12,2.50,0.69,0.06,0.19,-0.05,-0.27,0.00,0.00,0.70
9423,-84.62,-178.81,10.12,2.75,0.50,0.06,0.03,-0.11,-0.25,0.00,0.00,0.86
9433,-84.62,-178.81,10.19,2.81,0.31,-0.06,0.03,-0.18,-0.25,0.00,0.00,0.79
9443,-84.62,-178.81,10.19,2.94,0.06,0.12,-0.09,-0.14,-0.24,0.00,0.00,0.65
9456,-84.62,-178.81,10.25,3.00,-0.06,-0.12,-0.22,-0.11,-0.23,0.00,0.00,0.71
9467,-84.62,-178.81,10.25,3.00,-0.62,0.25,-0.13,-0.25,-0.22,0.00,0.00,0.57
9480,-84.62,-178.81,10.31,3.38,-1.62,0.44,-0.12,-0.20,-0.17,0.00,0.00,0.57
9490,-84.69,-178.88,10.38,3.56,-2.38,0.50,-0.05,-0.18,-0.16,0.00,0.00,0.53
9501,-84.69,-178.88,10.44,3.69,-2.44,0.62,0.02,-0.18,-0.15,0.00,0.00,0.47
9533,-84.75,-178.88,10.56,4.00,-3.00,0.38,0.16,-0.11,-0.12,0.00,0.00,0.44
9545,-84.81,-178.88,10.62,4.25,-2.88,0.19,0.29,-0.12,-0.14,0.00,0.00,0.39
9556,-84.81,-178.88,10.69,4.38,-2.62,0.19,0.43,-0.03,-0.13,0.00,0.00,0.43
9569,-84.81,-178.88,10.75,4.38,-2.12,0.25,0.33,-0.08,-0.09,0.00,0.00,0.38
9579,-84.88,-178.94,10.81,4.69,-1.50,0.31,0.30,0.00,-0.10,0.00,0.00,0.42
9590,-84.88,-178.94,10.81,4.56,-1.25,0.56,0.24,0.03,-0.10,0.00,0.00,0.43
9599,-84.88,-178.94,10.94,4.62,-1.19,0.88,0.19,0.02,-0.09,0.00,0.00,0.33
9610,-84.88,-178.88,10.94,4.50,-1.19,0.75,0.09,0.10,-0.09,0.00,0.00,0.42
9619,-84.88,-178.88,11.00,4.38,-1.12,0.75,0.12,0.16,-0.08,0.00,0.00,0.37
9631,-84.88,-178.88,11.00,4.00,-1.31,0.88,0.01,0.16,-0.06,0.00,0.00,0.44
9641,-84.88,-178.88,11.06,3.69,-1.38,0.69,0.00,0.16,-0.05,0.00,0.00,0.39
9652,-84.94,-178.88,11.06,3.38,-1.69,0.69,0.03,0.23,-0.06,0.00,0.00,0.42
9661,-84.94,-178.88,11.12,3.25,-1.75,0.12,0.03,0.17,-0.09,0.00,0.00,0.39
9670,-84.94,-178.88,11.12,2.88,-2.06,0.19,0.10,0.08,-0.12,0.00,0.00,0.43
9703,-85.00,-178.88,11.25,2.81,-2.19,0.00,0.18,-0.30,-0.27,0.00,0.00,0.35
9713,-85.00,-178.88,11.25,3.19,-1.94,-0.12,0.11,-0.42,-0.28,0.00,0.00,0.33
9726,-85.00,-178.88,11.31,3.50,-1.94,0.12,0.04,-0.44,-0.28,0.00,0.00,0.44
9736,-85.06,-178.88,11.31,3.94,-2.19,0.25,-0.03,-0.45,-0.25,0.00,0.00,0.38
9746,-85.06,-178.88,11.38,4.25,-2.38,0.50,-0.01,-0.53,-0.28,0.00,0.00,0.43
9758,-85.12,-178.88,11.44,5.25,-2.75,0.50,-0.06,-0.45,-0.28,0.00,0.00,0.45
9769,-85.12,-178.88,11.50,5.81,-3.12,0.56,-0.02,-0.44,-0.25,0.00,0.00,0.38
9779,-85.12,-178.94,11.62,6.88,-3.75,1.06,-0.02,-0.45,-0.26,0.00,0.00,0.34
9788,-85.19,-179.00,11.75,6.88,-3.75,1.06,-0.01,-0.41,-0.23,0.00,0.00,0.42
9797,-85.19,-179.00,11.88,7.56,-4.00,1.19,-0.01,-0.41,-0.23,0.00,0.00,0.35
9808,-85.19,-179.06,11.94,8.31,-4.19,1.12,0.00,-0.29,-0.22,0.00,0.00,0.34
9818,-85.25,-179.06,12.06,8.44,-4.44,1.25,0.29,0.00,-0.13,0.00,0.00,0.42
9829,-85.25,-179.06,12.12,9.00,-4.44,1.25,0.46,0.05,-0.08,0.00,0.00,0.29
9842,-85.31,-179.06,12.25,9.38,-4.19,1.19,0.69,0.08,-0.07,0.00,0.00,0.38
9876,-85.44,-179.06,12.56,9.44,-2.00,1.19,0.57,0.13,-0.15,0.00,0.00,0.35
9887,-85.44,-179.06,12.69,9.50,-1.19,0.88,0.16,-0.17,-0.18,0.00,0.00,0.37
9895,-85.44,-179.06,12.75,9.62,-0.75,0.69,0.09,-0.12,-0.19,0.00,0.00,0.35
9908,-85.44,-179.06,12.88,9.88,-0.56,0.44,-0.02,-0.17,-0.19,0.00,0.00,0.32
9919,-85.44,-179.06,13.00,10.19,-0.94,0.31,0.05,0.10,-0.15,0.00,0.00,0.35
9933,-85.44,-179.06,13.06,10.38,-1.12,0.25,0.15,0.15,-0.16,0.00,0.00,0.34
9942,-85.50,-179.06,13.31,10.31,-1.62,0.69,0.19,0.11,-0.17,0.00,0.00,0.33
9953,-85.50,-179.06,13.31,10.25,-1.69,1.00,0.21,0.15,-0.16,0.00,0.00,0.33
9962,-85.50,-179.06,13.50,10.12,-1.56,1.31,0.45,0.27,-0.13,0.00,0.00,0.39
9971,-85.50,-179.06,13.56,9.62,-1.12,1.56,0.47,0.31,-0.10,0.00,0.00,0.29
9982,-85.50,-179.06,13.56,9.62,-0.88,1.81,0.42,0.26,-0.12,0.00,0.00,0.39
9991,-85.50,-179.06,13.62,9.62,-0.88,1.81,0.33,0.29,-0.12,0.00,0.00,0.34
10002,-85.50,-179.00,13.75,9.25,-0.81,1.94,0.33,0.29,-0.12,0.00,0.00,0.38
10033,-85.44,-178.94,14.00,7.75,0.94,0.88,0.36,0.22,-0.12,0.00,0.00,0.34
10044,-85.44,-178.94,14.06,7.69,1.25,0.44,0.49,0.15,-0.14,0.00,0.00,0.35
10053,-85.38,-178.94,14.12,7.75,2.00,0.44,0.42,0.11,-0.16,0.00,0.00,0.40
10063,-85.38,-178.94,14.19,7.62,2.38,0.31,0.37,0.10,-0.19,0.00,0.00,0.34
10072,-85.31,-178.94,14.25,7.12,3.00,0.44,0.45,0.12,-0.16,0.00,0.00,0.30
10083,-85.31,-178.94,14.25,7.00,3.12,0.69,0.21,0.07,-0.18,0.00,0.00,0.27
10092,-85.25,-178.94,14.38,6.75,3.56,0.94,0.11,0.05,-0.17,0.00,0.00,0.38
10103,-85.25,-178.94,14.38,6.62,3.50,1.19,0.14,0.08,-0.18,0.00,0.00,0.35
10113,-85.12,-178.94,14.50,6.62,3.44,1.31,0.06,0.12,-0.18,0.00,0.00,0.37
10127,-85.12,-178.94,14.50,6.56,3.31,1.44,-0.16,0.11,-0.17,0.00,0.00,0.33
10137,-85.06,-178.88,14.56,6.50,3.00,1.19,-0.12,0.12,-0.11,0.00,0.00,0.50
10147,-85.06,-178.88,14.62,6.31,2.62,1.19,-0.14,0.13,-0.16,0.00,0.00,0.59
10162,-85.00,-178.88,14.69,6.62,2.06,1.00,-0.21,0.05,-0.17,0.00,0.00,0.55
10173,-85.00,-178.88,14.75,6.81,0.94,0.56,-0.03,-0.06,-0.27,0.00,0.00,0.51
10210,-84.94,-178.94,15.06,7.31,0.12,0.50,0.09,-0.21,-0.31,0.00,0.00,0.55
10222,-84.94,-178.94,15.19,7.25,0.19,0.88,-0.03,-0.20,-0.27,0.00,0.00,0.56
10237,-84.94,-178.94,15.25,8.12,-0.19,1.19,-0.07,-0.26,-0.23,0.00,0.00,0.61
10246,-84.88,-178.94,15.44,8.50,-0.56,1.44,-0.12,-0.21,-0.25,0.00,0.00,0.58
10258,-84.88,-178.94,15.50,8.75,-0.88,1.38,-0.15,-0.19,-0.22,0.00,0.00,0.60
10270,-84.88,-179.00,15.62,9.12,-1.19,1.31,-0.13,-0.21,-0.23,0.00,0.00,0.61
10283,-84.88,-179.00,15.69,9.31,-1.75,1.12,0.00,0.00,-0.18,0.00,0.00,0.53
10293,-84.88,-179.00,15.81,9.75,-1.88,0.81,0.01,0.01,-0.18,0.00,0.00,0.52
10303,-84.94,-179.00,15.94,9.94,-2.31,0.62,0.04,0.02,-0.18,0.00,0.00,0.49
10313,-84.94,-179.00,16.00,9.94,-2.50,0.19,0.14,0.18,-0.11,0.00,0.00,0.47
10324,-84.94,-179.00,16.12,9.81,-2.50,0.31,0.21,0.26,-0.11,0.00,0.00,0.51
10334,-84.94,-179.00,16.19,9.62,-2.38,0.50,0.23,0.27,-0.11,0.00,0.00,0.43
10343,-85.00,-179.00,16.31,9.62,-2.38,0.50,0.23,0.31,-0.11,0.00,0.00,0.42
10353,-85.00,-179.00,16.38,9.38,-2.56,0.62,0.16,0.41,-0.11,0.00,0.00,0.37
10385,-85.06,-178.94,16.69,7.12,-2.31,0.56,0.09,0.40,-0.13,0.00,0.00,0.37
10395,-85.06,-178.94,16.69,7.12,-2.31,0.56,0.13,0.36,-0.10,0.00,0.00,0.37
10405,-85.06,-178.94,16.69,6.00,-2.06,0.06,0.17,0.35,-0.14,0.00,0.00,0.34
10419,-85.06,-178.94,16.75,5.50,-2.25,-0.12,0.21,0.30,-0.15,0.00,0.00,0.38
10430,-85.06,-178.88,16.81,5.06,-2.06,-0.31,0.26,0.25,-0.14,0.00,0.00,0.32
10439,-85.06,-178.88,16.88,4.69,-1.81,-0.31,0.33,0.19,-0.19,0.00,0.00,0.35
10448,-85.06,-178.88,16.88,4.19,-1.56,-0.25,0.34,0.15,-0.19,0.00,0.00,0.35
10458,-85.06,-178.88,16.88,3.56,-1.38,-0.19,0.36,0.17,-0.19,0.00,0.00,0.40
10468,-85.06,-178.81,16.94,3.12,-1.00,-0.31,0.36,0.14,-0.18,0.00,0.00,0.32
10477,-85.06,-178.81,16.94,2.62,-0.81,0.12,0.32,0.13,-0.14,0.00,0.00,0.39
10487,-85.06,-178.81,16.94,2.38,-0.50,0.19,0.30,0.12,-0.14,0.00,0.00,0.35
10498,-85.06,-178.81,17.00,2.31,-0.31,0.19,0.33,0.11,-0.13,0.00,0.00,0.29
10507,-85.06,-178.81,17.00,2.06,0.00,0.19,0.37,-0.01,-0.13,0.00,0.00,0.35
10541,-85.00,-178.81,17.06,2.31,1.00,-0.25,0.37,-0.07,-0.13,0.00,0.00,0.40
10551,-85.00,-178.81,17.06,2.12,1.38,-0.44,0.30,-0.06,-0.13,0.00,0.00,0.47
10564,-85.00,-178.81,17.12,2.12,1.81,-0.56,0.25,-0.03,-0.11,0.00,0.00,0.48
10575,-84.94,-178.81,17.12,2.00,2.31,-0.44,0.20,0.07,-0.06,0.00,0.00,0.47
10589,-84.94,-178.81,17.19,2.00,2.44,-0.31,0.07,0.12,-0.03,0.00,0.00,0.54
10599,-84.88,-178.81,17.19,2.19,2.31,-0.12,0.03,0.11,0.00,0.00,0.00,0.54
10612,-84.88,-178.81,17.25,2.25,2.19,-0.12,-0.02,0.12,-0.03,0.00,0.00,0.55
10624,-84.81,-178.81,17.25,2.00,1.88,0.06,-0.05,0.10,-0.03,0.00,0.00,0.60
10641,-84.81,-178.81,17.25,1.88,1.50,0.06,-0.07,0.15,-0.01,0.00,0.00,0.60
10652,-84.81,-178.81,17.25,1.31,1.12,0.00,-0.08,0.14,0.00,0.00,0.00,0.58
10664,-84.81,-178.81,17.31,1.12,0.56,0.06,-0.07,0.13,0.00,0.00,0.00,0.55
10677,-84.81,-178.81,17.31,0.75,0.19,-0.19,0.05,0.12,-0.03,0.00,0.00,0.53
10687,-84.81,-178.81,17.31,0.50,-0.12,-0.50,0.13,0.10,-0.05,0.00,0.00,0.59
10701,-84.81,-178.81,17.31,0.50,-0.06,-0.44,0.23,0.08,-0.06,0.00,0.00,0.65
10736,-84.81,-178.81,17.31,0.38,0.69,-0.12,0.56,-0.02,-0.14,0.00,0.00,0.64
10750,-84.75,-178.81,17.31,0.38,1.31,0.12,0.38,-0.08,-0.13,0.00,0.00,0.71
10760,-84.75,-178.81,17.31,0.62,2.38,0.31,0.35,-0.08,-0.17,0.00,0.00,0.66
10775,-84.69,-178.81,17.31,0.69,2.69,0.31,0.26,-0.06,-0.20,0.00,0.00,0.64
10787,-84.69,-178.81,17.31,0.69,3.12,0.12,0.01,0.05,-0.12,0.00,0.00,0.64
10800,-84.62,-178.81,17.31,0.69,3.06,0.00,-0.05,0.02,-0.09,0.00,0.00,0.62
10810,-84.56,-178.81,17.31,0.56,3.00,-0.25,-0.15,0.02,-0.09,0.00,0.00,0.55
10821,-84.56,-178.81,17.31,0.62,2.88,-0.31,-0.31,0.05,-0.04,0.00,0.00,0.62
10833,-84.56,-178.81,17.31,0.81,2.00,-0.25,-0.36,0.03,-0.06,0.00,0.00,0.58
10843,-84.50,-178.81,17.31,0.62,1.06,0.00,-0.44,0.02,-0.07,0.00,0.00,0.61
10857,-84.50,-178.81,17.31,0.50,0.25,0.12,-0.47,0.00,-0.07,0.00,0.00,0.57
10868,-84.50,-178.81,17.31,0.50,-1.50,0.62,-0.24,-0.12,-0.11,0.00,0.00,0.61
10881,-84.56,-178.81,17.31,0.75,-2.25,0.75,-0.09,-0.20,-0.15,0.00,0.00,0.56
10917,-84.62,-178.81,17.38,1.62,-2.69,0.56,0.38,-0.28,-0.24,0.00,0.00,0.62
10932,-84.69,-178.81,17.38,2.25,-2.62,0.12,0.42,-0.24,-0.24,0.00,0.00,0.62
10942,-84.69,-178.81,17.44,2.25,-1.31,-0.19,0.30,-0.17,-0.25,0.00,0.00,0.70
10955,-84.69,-178.81,17.50,2.62,-1.12,-0.31,0.31,-0.16,-0.21,0.00,0.00,0.65
10968,-84.69,-178.81,17.50,3.00,-0.69,-0.25,0.27,-0.08,-0.17,0.00,0.00,0.61
10979,-84.69,-178.81,17.56,3.06,-0.31,0.31,0.23,-0.06,-0.16,0.00,0.00,0.64
10990,-84.69,-178.81,17.56,3.38,-0.50,0.56,0.18,-0.07,-0.15,0.00,0.00,0.62
11000,-84.69,-178.81,17.69,3.38,-0.31,0.81,0.10,-0.03,-0.15,0.00,0.00,0.56
11010,-84.69,-178.81,17.69,3.56,-0.31,0.88,0.07,-0.01,-0.11,0.00,0.00,0.56
11020,-84.69,-178.81,17.75,3.69,-0.75,0.88,-0.03,0.01,-0.14,0.00,0.00,0.55
11031,-84.69,-178.81,17.75,3.69,-0.69,0.75,-0.08,0.05,-0.11,0.00,0.00,0.52
11041,-84.69,-178.81,17.81,3.88,-0.94,0.50,-0.11,0.06,-0.10,0.00,0.00,0.50
11051,-84.69,-178.81,17.81,3.81,-0.88,0.25,-0.12,-0.04,-0.09,0.00,0.00,0.49
11061,-84.69,-178.81,17.88,4.12,-1.38,0.19,-0.15,-0.06,-0.13,0.00,0.00,0.48
11095,-84.75,-178.88,18.00,4.38,-2.31,0.38,-0.02,-0.04,-0.14,0.00,0.00,0.54
11105,-84.75,-178.88,18.06,4.44,-3.00,0.69,0.00,0.00,-0.12,0.00,0.00,0.50
11116,-84.81,-178.81,18.12,4.50,-3.25,0.88,0.07,0.04,-0.10,0.00,0.00,0.43
11129,-84.81,-178.81,18.12,4.38,-3.62,0.94,0.09,0.05,-0.12,0.00,0.00,0.40
11142,-84.88,-178.81,18.19,4.62,-3.44,0.94,0.28,0.07,-0.11,0.00,0.00,0.42
11151,-84.88,-178.81,18.25,4.69,-3.12,0.69,0.31,0.05,-0.11,0.00,0.00,0.42
11163,-84.94,-178.81,18.31,4.75,-3.06,0.81,0.26,-0.01,-0.15,0.00,0.00,0.33
11173,-84.94,-178.81,18.38,4.88,-2.94,0.56,0.34,-0.05,-0.15,0.00,0.00,0.35
11182,-84.94,-178.81,18.38,4.88,-2.50,0.44,0.35,-0.03,-0.16,0.00,0.00,0.38
11192,-85.00,-178.81,18.44,5.06,-2.12,0.31,0.32,-0.02,-0.14,0.00,0.00,0.43
11204,-85.00,-178.81,18.50,5.25,-1.88,0.25,0.34,0.00,-0.12,0.00,0.00,0.38
11213,-85.00,-178.81,18.56,5.19,-1.56,0.19,0.38,0.08,-0.10,0.00,0.00,0.38
11227,-85.00,-178.81,18.62,5.06,-1.25,0.31,0.35,0.14,-0.07,0.00,0.00,0.42
11259,-85.00,-178.81,18.75,4.69,-0.12,0.56,0.37,0.36,-0.01,0.00,0.00,0.39
11274,-85.00,-178.81,18.75,4.25,0.19,0.88,0.36,0.30,-0.11,0.00,0.00,0.48
11283,-84.94,-178.75,18.81,3.81,0.69,0.88,0.28,0.27,-0.09,0.00,0.00,0.50
11293,-84.94,-178.75,18.81,3.50,1.12,0.88,0.17,0.17,-0.11,0.00,0.00,0.35
11306,-84.94,-178.75,18.81,3.00,1.31,0.88,0.13,0.09,-0.14,0.00,0.00,0.43
11316,-84.88,-178.69,18.81,2.88,1.06,0.75,0.05,0.04,-0.20,0.00,0.00,0.42
11329,-84.88,-178.69,18.88,2.69,1.12,0.75,0.02,0.00,-0.23,0.00,0.00,0.55
11341,-84.88,-178.69,18.88,2.50,0.88,0.75,-0.02,-0.11,-0.24,0.00,0.00,0.40
11352,-84.81,-178.69,18.88,2.50,0.69,0.69,-0.02,-0.11,-0.24,0.00,0.00,0.48
11362,-84.81,-178.69,18.94,2.44,0.56,0.69,-0.06,-0.04,-0.17,0.00,0.00,0.40
11374,-84.81,-178.69,18.94,2.56,0.06,0.69,-0.10,-0.01,-0.17,0.00,0.00,0.47
11383,-84.81,-178.69,19.00,2.62,-0.31,0.69,-0.10,0.01,-0.14,0.00,0.00,0.43
11395,-84.81,-178.69,19.00,2.38,-0.56,0.56,-0.08,0.04,-0.12,0.00,0.00,0.50
11405,-84.81,-178.69,19.06,2.88,-0.88,0.50,-0.13,0.01,-0.15,0.00,0.00,0.44
11442,-84.88,-178.69,19.12,3.00,-2.12,0.38,-0.05,-0.04,-0.18,0.00,0.00,0.35
11451,-84.88,-178.69,19.19,3.25,-2.31,0.38,0.10,-0.12,-0.13,0.00,0.00,0.38
11461,-84.88,-178.69,19.25,3.25,-2.69,0.56,0.10,-0.12,-0.13,0.00,0.00,0.37
11472,-84.88,-178.75,19.25,3.25,-2.62,0.56,0.13,-0.17,-0.17,0.00,0.00,0.35
11483,-84.94,-178.75,19.31,3.88,-3.00,0.88,0.24,-0.13,-0.14,0.00,0.00,0.33
11493,-84.94,-178.75,19.31,4.06,-2.62,0.81,0.21,-0.11,-0.15,0.00,0.00,0.29
11502,-84.94,-178.75,19.38,4.25,-2.50,0.69,0.22,-0.06,-0.12,0.00,0.00,0.35
11511,-85.00,-178.75,19.44,4.25,-2.50,0.69,0.23,-0.04,-0.13,0.00,0.00,0.34
11522,-85.00,-178.75,19.44,4.19,-2.50,0.62,0.22,0.01,-0.13,0.00,0.00,0.29
11532,-85.00,-178.75,19.50,4.69,-2.06,0.38,0.22,0.00,-0.13,0.00,0.00,0.32
11542,-85.00,-178.75,19.56,4.69,-2.00,0.50,0.26,0.00,-0.12,0.00,0.00,0.33
11552,-85.06,-178.75,19.62,4.69,-2.00,0.50,0.26,0.00,-0.12,0.00,0.00,0.29
11561,-85.06,-178.75,19.69,5.12,-1.88,0.56,0.30,0.20,-0.05,0.00,0.00,0.23
11595,-85.12,-178.69,19.75,2.19,-2.75,2.62,-0.02,0.63,-0.03,0.00,0.00,0.34
11604,-85.12,-178.69,19.75,1.19,-2.75,2.62,0.39,0.18,-0.15,0.00,0.00,0.33
11618,-85.12,-178.62,19.75,0.19,-2.75,2.25,0.35,0.05,-0.17,0.00,0.00,0.33
11629,-85.19,-178.62,19.69,-0.38,-2.12,1.38,0.25,-0.16,-0.47,0.00,0.00,0.38
11642,-85.19,-178.62,19.69,-0.31,-2.69,0.12,0.48,-0.10,-0.10,0.00,0.00,0.29
11650,-85.19,-178.62,19.69,-0.75,-0.62,-1.19,0.37,-0.18,-0.28,0.00,0.00,0.29
11659,-85.19,-178.62,19.69,-0.88,0.56,-1.88,0.35,0.00,-0.22,0.00,0.00,0.30
11671,-85.19,-178.69,19.75,-0.56,0.94,-2.44,0.40,0.08,-0.19,0.00,0.00,0.33
11682,-85.19,-178.69,19.75,-0.81,1.06,-2.25,0.05,0.05,-0.22,0.00,0.00,0.34
11693,-85.19,-178.69,19.75,-1.00,1.19,-1.38,0.05,0.07,-0.16,0.00,0.00,0.34
11703,-85.19,-178.69,19.75,-0.94,1.00,-0.06,0.07,0.02,-0.15,0.00,0.00,0.34
11714,-85.12,-178.69,19.75,-1.06,0.81,0.81,-0.28,-0.07,-0.14,0.00,0.00,0.30
11724,-85.12,-178.69,19.69,-0.88,0.38,0.88,-0.24,-0.06,-0.15,0.00,0.00,0.22
11734,-85.12,-178.69,19.69,-0.81,0.12,0.88,-0.17,0.04,-0.10,0.00,0.00,0.32
11765,-85.19,-178.69,19.69,0.31,-1.38,-0.19,0.08,-0.09,-0.16,0.00,0.00,0.28
11775,-85.19,-178.69,19.69,0.94,-1.69,-0.75,0.10,0.03,-0.16,0.00,0.00,0.25
11785,-85.19,-178.69,19.69,0.88,-1.81,-0.94,0.09,0.00,-0.18,0.00,0.00,0.28
11795,-85.19,-178.69,19.69,0.62,-1.62,-1.06,0.08,-0.04,-0.19,0.00,0.00,0.28
11804,-85.19,-178.69,19.75,1.12,-1.81,-0.88,-0.01,0.06,-0.18,0.00,0.00,0.20
11816,-85.19,-178.69,19.75,1.12,-1.81,-0.88,-0.01,0.11,-0.18,0.00,0.00,0.30
11825,-85.25,-178.69,19.75,1.19,-2.31,-0.19,0.02,0.07,-0.19,0.00,0.00,0.27
11838,-85.25,-178.69,19.75,1.25,-2.62,0.31,0.00,0.11,-0.17,0.00,0.00,0.32
11847,-85.25,-178.69,19.81,1.19,-2.69,0.38,0.08,0.15,-0.13,0.00,0.00,0.27
11858,-85.31,-178.69,19.81,0.94,-2.94,0.56,0.16,0.10,-0.14,0.00,0.00,0.28
11867,-85.31,-178.69,19.81,0.81,-2.94,0.69,0.18,0.10,-0.12,0.00,0.00,0.27
11877,-85.31,-178.69,19.81,0.62,-2.94,0.38,0.23,0.22,-0.05,0.00,0.00,0.25
11886,-85.38,-178.69,19.81,0.25,-2.94,0.12,0.30,0.19,-0.06,0.00,0.00,0.35
11917,-85.38,-178.69,19.81,-0.50,-1.88,-1.06,0.40,0.27,0.00,0.00,0.00,0.29
11926,-85.44,-178.69,19.81,-0.88,-1.25,-1.69,0.38,0.27,-0.03,0.00,0.00,0.20
11936,-85.44,-178.69,19.81,-1.25,-0.69,-1.44,0.29,0.20,-0.02,0.00,0.00,0.27
11946,-85.44,-178.69,19.81,-1.81,-0.38,-1.00,0.39,0.43,0.05,0.00,0.00,0.25
11959,-85.44,-178.69,19.75,-1.81,-0.38,-1.00,0.41,0.44,0.06,0.00,0.00,0.28
11971,-85.38,-178.62,19.62,-2.38,-0.25,-0.44,0.39,0.31,0.03,0.00,0.00,0.37
11981,-85.38,-178.62,19.56,-3.00,-0.06,-0.06,0.35,0.22,-0.02,0.00,0.00,0.20
11991,-85.38,-178.56,19.50,-3.94,0.38,0.50,0.44,0.30,-0.01,0.00,0.00,0.27
12000,-85.38,-178.56,19.44,-4.50,0.94,0.50,0.44,0.17,-0.07,0.00,0.00,0.37
12013,-85.38,-178.56,19.38,-4.88,1.50,0.50,0.40,0.07,-0.10,0.00,0.00,0.30
12023,-85.31,-178.56,19.38,-5.12,2.12,-0.12,0.42,0.02,-0.11,0.00,0.00,0.28
12035,-85.31,-178.56,19.31,-5.25,2.75,-0.38,0.47,0.06,-0.13,0.00,0.00,0.25
12048,-85.25,-178.56,19.25,-5.38,3.12,-0.62,0.41,-0.08,-0.11,0.00,0.00,0.27
12057,-85.19,-178.56,19.12,-5.38,4.06,-1.12,0.37,-0.16,-0.12,0.00,0.00,0.25
12092,-85.06,-178.56,19.00,-5.00,4.44,-0.44,0.05,-0.14,-0.15,0.00,0.00,0.35
12101,-85.00,-178.56,18.94,-4.75,4.25,0.12,-0.02,-0.10,-0.12,0.00,0.00,0.37
12113,-85.00,-178.56,18.88,-4.75,4.00,0.31,-0.31,-0.26,-0.15,0.00,0.00,0.28
12125,-84.94,-178.56,18.81,-4.62,3.12,0.69,-0.34,-0.27,-0.15,0.00,0.00,0.34
12138,-84.94,-178.50,18.81,-4.06,2.56,0.88,-0.41,-0.26,-0.13,0.00,0.00,0.43
12148,-84.88,-178.50,18.75,-3.62,0.88,0.44,-0.39,-0.52,-0.14,0.00,0.00,0.30
12157,-84.88,-178.50,18.69,-2.81,0.00,0.00,-0.39,-0.52,-0.17,0.00,0.00,0.32
12167,-84.88,-178.50,18.69,-2.00,-0.81,-0.19,-0.41,-0.52,-0.18,0.00,0.00,0.38
12177,-84.88,-178.50,18.62,-1.38,-1.38,-0.62,-0.43,-0.54,-0.20,0.00,0.00,0.32
12187,-84.94,-178.50,18.62,-0.56,-2.19,-0.88,-0.33,-0.64,-0.22,0.00,0.00,0.33
12198,-84.94,-178.50,18.62,0.31,-2.88,-1.12,-0.27,-0.53,-0.24,0.00,0.00,0.30
12208,-85.00,-178.50,18.69,0.31,-2.88,-1.12,-0.15,-0.48,-0.24,0.00,0.00,0.25
12218,-85.00,-178.62,18.75,1.19,-3.75,-0.44,-0.08,-0.44,-0.22,0.00,0.00,0.27
12252,-85.12,-178.69,18.88,2.38,-4.69,0.31,0.01,-0.08,-0.14,0.00,0.00,0.33
12261,-85.19,-178.69,18.94,2.38,-5.12,0.56,-0.06,-0.02,-0.13,0.00,0.00,0.27
12274,-85.25,-178.69,18.94,2.62,-5.38,0.50,0.00,0.03,-0.09,0.00,0.00,0.25
12286,-85.31,-178.69,18.94,2.69,-5.38,0.50,0.15,0.07,-0.13,0.00,0.00,0.25
12301,-85.38,-178.69,19.00,2.62,-5.38,0.50,0.39,0.02,-0.13,0.00,0.00,0.23
12310,-85.44,-178.69,19.06,2.69,-4.88,0.00,0.57,0.06,-0.11,0.00,0.00,0.29
12324,-85.50,-178.69,19.06,2.69,-4.31,-0.25,0.64,0.07,-0.13,0.00,0.00,0.20
12336,-85.50,-178.69,19.12,2.44,-3.50,0.00,0.65,0.03,-0.13,0.00,0.00,0.30
12352,-85.56,-178.69,19.12,2.31,-2.75,-0.19,0.56,0.12,-0.05,0.00,0.00,0.20
12366,-85.56,-178.69,19.19,1.62,-1.38,-0.19,0.46,0.15,-0.05,0.00,0.00,0.28
12377,-85.56,-178.69,19.19,1.12,-0.50,-0.12,0.42,0.13,0.00,0.00,0.00,0.22
12390,-85.56,-178.69,19.19,0.88,-0.06,-0.12,0.48,0.19,0.00,0.00,0.00,0.37
12400,-85.56,-178.69,19.19,0.06,0.69,-0.19,0.54,0.14,-0.02,0.00,0.00,0.33
12409,-85.56,-178.69,19.19,-1.56,2.12,-0.31,1.10,0.61,0.12,0.00,0.00,0.28
12453,-85.38,-178.62,19.06,-3.44,7.25,-0.38,1.15,0.39,0.03,0.00,0.00,0.25
12463,-85.25,-178.62,19.00,-4.06,8.31,-0.31,0.80,0.36,0.00,0.00,0.00,0.35
12472,-85.19,-178.62,18.94,-4.75,9.38,0.25,0.80,0.75,0.01,0.00,0.00,0.35
12482,-85.06,-178.62,18.88,-6.00,9.75,1.50,0.36,1.13,0.04,0.00,0.00,0.32
12491,-85.00,-178.62,18.75,-8.00,9.81,2.69,-0.02,1.57,0.12,0.00,0.00,0.28
12505,-85.00,-178.62,18.75,-10.50,9.00,3.69,-0.41,1.92,0.20,0.00,0.00,0.38
12515,-84.81,-178.50,18.44,-13.06,8.19,3.81,-0.29,1.84,0.18,0.00,0.00,0.44
12528,-84.75,-178.44,18.25,-15.38,7.44,3.50,-0.50,1.47,0.19,0.00,0.00,0.49
12539,-84.69,-178.44,18.06,-17.50,6.62,1.56,-0.23,0.78,0.02,0.00,0.00,0.44
12554,-84.62,-178.44,17.88,-20.50,6.19,-4.81,-0.23,0.49,0.00,0.00,0.00,0.59
12564,-84.50,-178.50,17.50,-21.44,6.31,-8.12,-0.33,0.32,-0.02,0.00,0.00,0.51
12579,-84.50,-178.62,17.38,-21.88,6.50,-10.38,-0.02,0.23,-0.07,0.00,0.00,0.58
12591,-84.44,-178.69,17.25,-22.44,6.56,-11.19,0.28,0.29,-0.10,0.00,0.00,0.68
12630,-84.25,-178.81,16.44,-25.44,6.19,-1.50,0.58,0.26,-0.11,0.00,0.00,0.83
12642,-84.19,-178.81,16.19,-26.00,5.75,1.31,0.28,0.33,-0.05,0.00,0.00,0.96
12657,-84.06,-178.69,15.50,-27.44,5.25,3.62,-0.42,0.10,-0.11,0.00,0.00,0.99
12667,-84.06,-178.62,15.19,-27.88,5.12,2.44,-0.54,0.05,-0.13,0.00,0.00,0.95
12684,-84.00,-178.62,14.88,-28.19,4.69,0.19,-0.54,0.05,-0.12,0.00,0.00,1.22
12695,-83.94,-178.62,14.38,-28.62,4.38,-6.12,-0.49,0.07,-0.08,0.00,0.00,1.31
12709,-83.88,-178.69,14.12,-29.00,4.44,-8.62,-0.22,0.09,-0.10,0.00,0.00,1.37
12720,-83.88,-178.75,13.94,-29.25,3.94,-10.25,-0.06,0.17,-0.06,0.00,0.00,1.43
12736,-83.88,-178.81,13.69,-29.62,3.31,-10.31,0.30,0.23,-0.10,0.00,0.00,1.57
12749,-83.88,-178.94,13.19,-30.81,2.44,-7.38,0.34,0.30,-0.06,0.00,0.00,1.64
12762,-83.81,-178.94,12.94,-31.56,1.69,-4.56,0.17,0.33,-0.04,0.00,0.00,1.50
12774,-83.81,-178.94,12.56,-32.94,0.88,-0.31,0.05,0.16,-0.14,0.00,0.00,1.53
12790,-83.81,-178.88,11.88,-33.12,0.44,0.81,-0.16,0.16,-0.14,0.00,0.00,1.53
12823,-83.81,-178.75,10.81,-34.56,-0.12,-5.12,-0.29,0.09,-0.09,0.00,0.00,0.68
12837,-83.81,-178.81,10.50,-34.62,-0.38,-7.38,-0.07,0.11,-0.12,0.00,0.00,0.54
12848,-83.88,-178.88,9.88,-34.88,-0.19,-9.12,0.14,0.11,-0.08,0.00,0.00,0.38
12860,-83.88,-178.94,9.62,-35.38,-0.38,-9.75,0.25,0.17,-0.08,0.00,0.00,0.43
12869,-83.88,-179.00,9.31,-35.62,-0.38,-9.25,0.42,0.22,-0.06,0.00,0.00,0.50
12882,-83.94,-179.00,9.00,-36.12,-0.19,-7.88,0.51,0.22,-0.10,0.00,0.00,0.44
12892,-83.94,-179.06,8.69,-36.44,0.06,-6.06,0.55,0.19,-0.06,0.00,0.00,0.42
12903,-83.94,-179.06,8.31,-37.44,0.19,-1.88,0.58,0.21,-0.06,0.00,0.00,0.43
12912,-83.94,-179.00,7.94,-37.44,0.19,-1.88,0.47,0.16,-0.07,0.00,0.00,0.39
12923,-83.94,-179.00,7.50,-37.94,0.44,-0.62,0.47,0.16,-0.07,0.00,0.00,0.50
12933,-83.94,-178.94,7.12,-38.44,1.25,-1.06,0.34,0.04,-0.10,0.00,0.00,0.47
12946,-83.88,-178.94,6.69,-38.38,1.88,-2.38,0.17,0.02,-0.10,0.00,0.00,0.50
12955,-83.88,-178.94,5.94,-38.38,2.44,-4.12,0.07,0.01,-0.09,0.00,0.00,0.49
12964,-83.88,-178.94,5.94,-38.50,2.75,-6.19,0.21,0.09,-0.09,0.00,0.00,0.49
13000,-83.81,-179.06,4.56,-38.94,4.19,-8.38,0.50,0.13,-0.06,0.00,0.00,0.53
13009,-83.75,-179.06,4.19,-39.06,4.62,-7.69,0.79,0.17,-0.02,0.00,0.00,0.49
13020,-83.69,-179.12,3.88,-39.25,5.25,-6.31,0.76,0.16,-0.02,0.00,0.00,0.54
13033,-83.69,-179.12,3.44,-39.62,5.44,-4.56,0.75,0.15,-0.04,0.00,0.00,0.53
13046,-83.62,-179.06,3.06,-39.94,5.94,-2.94,0.31,0.10,-0.08,0.00,0.00,0.56
13056,-83.50,-179.06,2.19,-40.12,6.44,-1.38,0.19,0.08,-0.07,0.00,0.00,0.54
13070,-83.44,-179.00,1.81,-40.31,6.81,-1.44,0.07,0.05,-0.07,0.00,0.00,0.58
13082,-83.38,-179.00,1.38,-40.56,6.88,-2.38,-0.03,0.05,-0.09,0.00,0.00,0.61
13098,-83.31,-179.00,1.00,-40.31,7.19,-3.62,-0.01,-0.02,-0.09,0.00,0.00,0.72
13108,-83.19,-179.00,0.19,-40.31,7.44,-6.81,0.00,0.01,-0.05,0.00,0.00,0.77
13123,-83.12,-172.06,-0.12,-40.38,7.25,-7.88,0.15,0.06,-0.03,0.00,0.00,0.90
13137,-83.06,-172.44,-0.50,-40.38,7.31,-8.31,0.22,0.10,-0.03,0.00,0.00,1.20
13148,-82.94,-172.94,-1.25,-40.69,7.00,-7.06,0.17,0.12,-0.04,0.00,0.00,1.24
13184,-82.75,-172.94,-2.50,-40.94,6.44,-3.19,0.02,0.09,-0.03,0.00,0.00,1.89
13196,-82.69,-172.75,-2.94,-40.94,6.06,-2.62,-0.19,-0.05,-0.02,0.00,0.00,1.95
13206,-82.62,-172.62,-3.31,-40.88,5.50,-2.88,-0.34,-0.03,-0.04,0.00,0.00,2.01
13220,-82.56,-172.44,-4.19,-40.81,4.88,-3.94,-0.34,0.00,0.01,0.00,0.00,2.21
13230,-82.50,-172.50,-4.56,-40.81,4.69,-5.06,-0.25,-0.01,0.00,0.00,0.00,2.31
13240,-82.50,-172.56,-4.94,-40.69,4.25,-6.12,-0.27,-0.07,-0.02,0.00,0.00,2.34
13249,-82.44,-172.75,-5.38,-40.75,3.81,-7.12,-0.24,0.00,0.00,0.00,0.00,2.36
13257,-82.44,-172.94,-5.75,-40.44,3.50,-7.50,-0.14,0.01,0.02,0.00,0.00,2.34
13268,-82.38,-173.06,-6.12,-40.38,3.12,-7.31,-0.06,0.02,0.00,0.00,0.00,2.36
13276,-82.38,-173.19,-6.50,-40.31,2.56,-6.88,-0.08,0.04,0.02,0.00,0.00,2.35
13287,-82.38,-173.19,-6.50,-40.44,1.94,-5.94,0.03,0.07,0.02,0.00,0.00,2.34
13296,-82.38,-173.25,-7.25,-40.44,1.75,-5.00,0.11,0.04,0.00,0.00,0.00,2.34
13308,-82.38,-173.25,-7.25,-40.38,1.56,-4.00,0.10,0.00,0.02,0.00,0.00,2.30
13340,-82.31,-172.69,-8.94,-40.06,0.81,-2.94,0.03,-0.04,0.05,0.00,0.00,2.26
13352,-82.31,-172.50,-9.31,-39.88,0.88,-3.25,-0.08,-0.13,0.04,0.00,0.00,2.26
13360,-82.31,-172.44,-9.75,-39.56,0.75,-4.00,-0.16,-0.05,0.04,0.00,0.00,2.24
13370,-82.31,-172.44,-10.12,-39.25,0.69,-4.75,-0.22,-0.07,0.08,0.00,0.00,2.27
13378,-82.31,-172.44,-10.50,-39.06,0.44,-5.62,-0.14,-0.07,0.05,0.00,0.00,2.26
13386,-82.31,-172.50,-10.88,-38.88,0.62,-6.12,0.05,-0.14,0.05,0.00,0.00,2.23
13396,-82.31,-172.50,-10.88,-38.44,0.56,-6.25,0.33,-0.01,0.09,0.00,0.00,2.25
13409,-82.38,-172.62,-11.25,-38.31,0.50,-6.06,0.44,-0.05,0.11,0.00,0.00,2.23
13417,-82.38,-172.69,-11.94,-38.19,0.69,-5.44,0.56,-0.07,0.09,0.00,0.00,2.26
13429,-82.38,-172.69,-11.94,-37.94,1.00,-4.62,0.44,-0.04,0.11,0.00,0.00,2.24
13438,-82.38,-172.62,-12.69,-37.75,1.25,-3.81,0.32,-0.05,0.09,0.00,0.00,2.22
13451,-82.38,-172.62,-12.69,-37.31,1.50,-3.00,0.25,-0.11,0.06,0.00,0.00,2.19
13459,-82.31,-172.31,-13.50,-37.06,2.06,-2.75,0.19,-0.14,0.09,0.00,0.00,2.20
13496,-82.25,-172.06,-14.56,-36.12,2.50,-3.38,0.31,-0.23,0.12,0.00,0.00,2.26
13507,-82.25,-172.12,-14.94,-35.75,2.75,-3.94,0.38,-0.16,0.16,0.00,0.00,2.20
13520,-82.25,-172.19,-15.25,-35.38,3.25,-4.62,0.38,-0.16,0.16,0.00,0.00,1.98
13529,-82.19,-172.44,-15.94,-34.50,3.62,-5.38,0.28,-0.18,0.16,0.00,0.00,2.06
13542,-82.19,-172.56,-16.25,-34.19,3.81,-5.50,0.18,-0.16,0.11,0.00,0.00,2.06
13551,-82.12,-172.69,-16.56,-33.62,4.44,-5.19,0.21,-0.16,0.13,0.00,0.00,2.05
13562,-82.12,-172.81,-16.88,-33.44,4.75,-4.81,0.21,-0.18,0.15,0.00,0.00,2.03
13571,-82.06,-172.88,-17.19,-33.00,4.62,-4.19,0.28,-0.15,0.17,0.00,0.00,2.06
13582,-82.06,-172.88,-17.50,-32.69,4.75,-3.69,0.34,-0.17,0.17,0.00,0.00,2.05
13591,-82.00,-172.88,-17.81,-32.12,5.00,-3.25,0.35,-0.21,0.18,0.00,0.00,2.06
13604,-81.94,-172.94,-18.12,-31.94,5.19,-3.25,0.24,-0.24,0.16,0.00,0.00,2.10
13613,-81.94,-172.94,-18.44,-31.44,5.25,-3.12,0.13,-0.22,0.16,0.00,0.00,2.10
13626,-81.88,-173.00,-18.75,-30.94,5.31,-3.38,0.01,-0.21,0.17,0.00,0.00,2.10
13658,-81.75,-173.12,-19.62,-29.19,4.56,-4.81,0.00,-0.24,0.17,0.00,0.00,2.10
13671,-81.69,-173.19,-19.94,-29.19,4.56,-4.81,0.12,-0.24,0.22,0.00,0.00,2.13
13680,-81.69,-173.44,-20.44,-28.19,4.19,-4.81,0.20,-0.24,0.23,0.00,0.00,2.12
13689,-81.69,-173.44,-20.44,-27.75,3.81,-4.38,0.16,-0.21,0.20,0.00,0.00,2.10
13701,-81.62,-173.56,-20.69,-27.38,3.75,-4.06,-0.07,-0.26,0.18,0.00,0.00,2.11
13710,-81.62,-173.81,-21.19,-26.88,3.81,-3.94,-0.13,-0.25,0.20,0.00,0.00,2.14
13723,-81.56,-173.88,-21.44,-26.38,3.31,-3.69,-0.17,-0.22,0.18,0.00,0.00,2.12
13732,-81.56,-173.88,-21.69,-25.81,2.75,-3.38,-0.24,-0.24,0.20,0.00,0.00,2.14
13744,-81.56,-173.88,-21.94,-25.50,2.31,-3.19,-0.16,-0.26,0.19,0.00,0.00,2.13
13753,-81.56,-173.88,-22.19,-25.12,2.06,-3.12,-0.09,-0.27,0.19,0.00,0.00,2.12
13765,-81.56,-173.94,-22.44,-24.62,1.69,-3.19,-0.07,-0.28,0.22,0.00,0.00,2.12
13775,-81.56,-174.06,-22.62,-24.06,1.38,-3.25,-0.08,-0.28,0.21,0.00,0.00,2.13
13786,-81.56,-174.19,-22.88,-23.56,1.00,-3.44,-0.16,-0.27,0.22,0.00,0.00,2.15
13818,-81.62,-174.62,-23.44,-21.94,-0.19,-3.62,-0.16,-0.28,0.23,0.00,0.00,2.14
13829,-81.62,-174.75,-23.62,-21.38,-0.81,-3.38,0.00,-0.26,0.23,0.00,0.00,2.14
13839,-81.69,-174.88,-23.81,-20.38,-1.12,-2.94,0.09,-0.30,0.21,0.00,0.00,2.12
13850,-81.69,-175.00,-24.00,-19.69,-1.44,-2.31,0.10,-0.30,0.21,0.00,0.00,2.14
13861,-81.75,-175.06,-24.12,-19.31,-1.75,-2.25,-0.03,-0.27,0.22,0.00,0.00,2.14
13870,-81.81,-175.25,-24.50,-18.75,-1.94,-2.06,-0.05,-0.30,0.21,0.00,0.00,2.15
13882,-81.81,-175.25,-24.50,-18.75,-1.94,-2.06,-0.08,-0.29,0.21,0.00,0.00,2.09
13892,-81.88,-175.50,-24.81,-17.62,-2.19,-2.44,-0.12,-0.32,0.17,0.00,0.00,1.91
13906,-81.94,-175.62,-24.94,-16.94,-2.25,-2.62,0.03,-0.30,0.20,0.00,0.00,0.95
13914,-82.00,-175.81,-25.06,-16.31,-2.25,-2.62,0.12,-0.31,0.22,0.00,0.00,0.37
13924,-82.00,-176.00,-25.19,-15.62,-2.44,-2.75,0.19,-0.30,0.21,0.00,0.00,0.27
13932,-82.06,-176.19,-25.31,-15.19,-2.56,-2.56,0.19,-0.28,0.23,0.00,0.00,0.27
13941,-82.12,-176.31,-25.38,-14.50,-2.38,-2.38,0.25,-0.31,0.21,0.00,0.00,0.27
13972,-82.19,-176.81,-25.69,-12.69,-2.00,-1.56,0.16,-0.29,0.18,0.00,0.00,0.44
13980,-82.19,-176.81,-25.69,-12.00,-1.94,-1.56,0.26,-0.31,0.23,0.00,0.00,0.47
13992,-82.25,-176.94,-25.81,-11.62,-1.75,-1.31,0.28,-0.31,0.19,0.00,0.00,0.53
14000,-82.25,-177.06,-25.88,-11.00,-1.62,-1.25,0.33,-0.28,0.21,0.00,0.00,0.56
14012,-82.31,-177.25,-26.00,-11.00,-1.62,-1.25,0.28,-0.31,0.21,0.00,0.00,0.56
14020,-82.31,-177.38,-26.06,-10.25,-1.50,-1.38,0.23,-0.32,0.20,0.00,0.00,0.56
14030,-82.38,-177.56,-26.12,-9.62,-1.12,-1.56,0.23,-0.32,0.20,0.00,0.00,0.58
14040,-82.38,-177.81,-26.19,-8.94,-0.88,-1.81,0.14,-0.29,0.17,0.00,0.00,0.58
14054,-82.38,-178.00,-26.25,-8.19,-0.88,-1.88,0.13,-0.33,0.17,0.00,0.00,0.57
14062,-82.44,-178.56,-26.31,-6.88,-0.25,-2.12,0.23,-0.30,0.17,0.00,0.00,0.55
14072,-82.44,-178.56,-26.31,-6.88,-0.25,-2.12,0.29,-0.27,0.22,0.00,0.00,0.56
14080,-82.44,-178.81,-26.31,-6.38,-0.19,-2.00,0.35,-0.26,0.20,0.00,0.00,0.57
14092,-82.44,-179.00,-26.31,-5.62,0.06,-1.75,0.38,-0.28,0.17,0.00,0.00,0.56
14122,-82.50,-179.75,-26.38,-3.19,0.69,-0.69,0.11,-0.25,0.15,0.00,0.00,0.60
14132,-82.50,-179.75,-26.38,-3.19,0.69,-0.69,0.11,-0.25,0.15,0.00,0.00,0.59
14141,-82.50,-179.88,-26.38,-1.81,1.00,-0.44,0.01,-0.29,0.14,0.00,0.00,0.60
14153,-82.50,-179.81,-26.44,-1.81,1.00,-0.44,0.03,-0.30,0.14,0.00,0.00,0.61
14162,-82.50,-179.81,-26.44,-0.62,0.81,-0.56,0.10,-0.30,0.14,0.00,0.00,0.57
14173,-82.44,-179.81,-26.44,0.00,0.69,-0.94,0.13,-0.29,0.14,0.00,0.00,0.62
14182,-82.44,179.88,-26.44,0.62,0.69,-0.75,0.06,-0.27,0.13,0.00,0.00,0.58
14196,-82.44,179.69,-26.38,1.38,0.50,-1.19,0.06,-0.28,0.14,0.00,0.00,0.57
14208,-82.50,179.19,-26.25,1.94,0.38,-1.06,0.03,-0.27,0.15,0.00,0.00,0.59
14216,-82.50,178.94,-26.19,2.69,0.25,-1.19,-0.03,-0.27,0.12,0.00,0.00,0.52
14228,-82.50,178.75,-26.12,3.25,-0.06,-0.69,-0.03,-0.25,0.13,0.00,0.00,0.57
14236,-82.50,178.56,-26.06,3.88,0.00,-0.25,0.00,-0.22,0.13,0.00,0.00,0.59
14247,-82.50,178.44,-26.00,4.44,0.00,0.00,0.04,-0.24,0.11,0.00,0.00,0.59
14255,-82.50,178.25,-25.94,5.12,-0.50,0.38,0.05,-0.26,0.13,0.00,0.00,0.58
14286,-82.56,177.94,-25.75,6.75,-1.19,1.00,-0.12,-0.26,0.09,0.00,0.00,0.39
14294,-82.56,177.81,-25.62,7.44,-1.62,1.00,-0.11,-0.27,0.08,0.00,0.00,0.35
14304,-82.56,177.81,-25.62,8.12,-1.81,0.88,-0.07,-0.25,0.07,0.00,0.00,0.29
14313,-82.62,177.62,-25.50,8.88,-1.88,0.94,-0.08,-0.25,0.11,0.00,0.00,0.20
14323,-82.62,177.50,-25.44,8.88,-1.88,0.94,-0.08,-0.25,0.11,0.00,0.00,0.25
14331,-82.69,177.38,-25.31,9.31,-2.00,0.75,0.01,-0.24,0.10,0.00,0.00,0.23
14343,-82.69,177.19,-25.19,9.75,-2.50,0.75,0.03,-0.25,0.06,0.00,0.00,0.39
14354,-82.75,177.06,-25.06,10.38,-2.75,0.94,0.02,-0.21,0.07,0.00,0.00,1.02
14367,-82.75,176.94,-24.94,11.69,-2.69,1.06,0.07,-0.22,0.06,0.00,0.00,1.96
14376,-82.81,176.69,-24.69,12.38,-3.19,1.38,0.05,-0.19,0.06,0.00,0.00,2.08
14387,-82.81,176.69,-24.69,12.81,-3.38,1.38,0.07,-0.21,0.05,0.00,0.00,2.12
14396,-82.88,176.44,-24.44,13.38,-3.12,1.69,0.16,-0.21,0.04,0.00,0.00,2.16
14407,-82.94,176.38,-24.25,14.06,-3.50,2.06,0.12,-0.20,0.03,0.00,0.00,2.17
14439,-83.00,176.19,-23.81,15.75,-3.38,2.44,0.14,-0.23,0.03,0.00,0.00,2.14
14450,-83.06,176.12,-23.62,16.25,-3.44,2.38,0.10,-0.22,0.02,0.00,0.00,2.14
14461,-83.06,176.06,-23.44,16.94,-3.44,2.31,0.18,-0.20,0.04,0.00,0.00,2.13
14470,-83.12,176.00,-23.25,17.56,-3.31,2.19,0.25,-0.18,0.03,0.00,0.00,2.14
14479,-83.12,179.50,-23.06,18.12,-3.06,2.12,0.27,-0.21,0.04,0.00,0.00,2.16
14487,-83.19,179.50,-22.88,18.62,-2.81,2.31,0.38,-0.18,0.00,0.00,0.00,2.13
14496,-83.19,179.50,-22.69,19.25,-2.62,2.19,0.36,-0.15,0.02,0.00,0.00,2.13
14507,-83.25,179.44,-22.50,19.81,-2.50,2.31,0.31,-0.17,0.00,0.00,0.00,2.13
14516,-83.25,179.44,-22.31,20.25,-2.12,2.38,0.26,-0.18,0.01,0.00,0.00,2.12
14528,-83.25,179.44,-22.31,20.81,-2.12,2.69,0.22,-0.20,0.02,0.00,0.00,2.12
14537,-83.31,179.44,-21.88,21.44,-1.62,2.69,0.22,-0.15,0.01,0.00,0.00,2.14
14549,-83.31,179.44,-21.69,21.94,-1.56,2.88,0.25,-0.17,-0.02,0.00,0.00,2.13
14558,-83.31,179.44,-21.44,22.56,-1.50,2.88,0.31,-0.17,-0.01,0.00,0.00,2.09
14568,-83.31,179.44,-21.19,23.06,-1.19,3.00,0.36,-0.14,-0.01,0.00,0.00,2.13
14602,-83.38,179.44,-20.50,24.56,-0.38,2.88,0.20,-0.13,-0.04,0.00,0.00,2.10
14617,-83.38,179.44,-20.25,25.12,-0.19,3.19,0.11,-0.14,-0.01,0.00,0.00,2.12
14626,-83.38,179.44,-20.00,26.19,0.38,3.19,0.16,-0.13,0.00,0.00,0.00,2.11
14638,-83.38,179.44,-19.75,26.19,0.38,3.19,0.27,-0.09,-0.04,0.00,0.00,2.10
14647,-83.38,179.44,-19.19,27.12,0.44,3.44,0.30,-0.09,-0.07,0.00,0.00,2.11
14657,-83.38,179.44,-19.19,27.69,0.62,3.56,0.30,-0.08,-0.04,0.00,0.00,2.12
14666,-83.38,179.44,-18.94,28.06,0.69,3.56,0.24,-0.10,-0.01,0.00,0.00,2.11
14675,-83.38,179.44,-18.69,28.06,0.69,3.56,0.08,-0.08,-0.05,0.00,0.00,2.11
14683,-83.38,179.44,-18.38,28.56,0.56,3.56,0.08,-0.08,-0.05,0.00,0.00,2.07
14694,-83.31,179.44,-18.12,29.00,0.69,3.56,0.01,-0.07,-0.09,0.00,0.00,2.06
14705,-83.31,179.44,-17.81,29.38,0.31,3.56,-0.02,-0.09,-0.09,0.00,0.00,2.08
14719,-83.38,179.44,-17.56,29.75,0.44,3.56,0.06,-0.03,-0.07,0.00,0.00,2.07
14727,-83.38,179.44,-16.94,30.81,0.38,3.69,0.08,-0.06,-0.07,0.00,0.00,2.05
14761,-83.38,179.44,-16.06,31.81,-0.12,4.19,0.00,-0.02,-0.10,0.00,0.00,2.03
14770,-83.38,179.44,-15.75,32.00,-0.25,4.38,-0.03,-0.04,-0.10,0.00,0.00,2.09
14781,-83.38,179.44,-15.44,32.44,-0.56,4.44,-0.09,-0.01,-0.10,0.00,0.00,2.24
14790,-83.38,179.44,-15.12,32.88,-0.88,4.44,-0.07,0.00,-0.10,0.00,0.00,2.25
14802,-83.38,179.50,-14.81,33.12,-1.31,4.56,-0.06,-0.01,-0.13,0.00,0.00,2.21
14811,-83.38,179.50,-14.50,33.38,-1.44,4.56,0.03,0.00,-0.11,0.00,0.00,2.22
14820,-83.44,179.50,-14.12,33.81,-1.56,4.50,0.08,-0.01,-0.10,0.00,0.00,2.21
14829,-83.44,179.50,-13.81,34.00,-2.00,4.62,0.05,0.01,-0.12,0.00,0.00,2.19
14838,-83.44,179.50,-13.50,34.44,-2.19,4.62,0.02,0.01,-0.15,0.00,0.00,2.22
14847,-83.44,179.50,-13.50,34.62,-2.50,4.50,-0.01,0.00,-0.14,0.00,0.00,2.23
14858,-83.50,179.50,-13.19,34.88,-2.50,4.50,-0.04,0.02,-0.18,0.00,0.00,2.23
14868,-83.50,179.50,-12.81,35.25,-3.00,4.50,-0.01,0.05,-0.14,0.00,0.00,2.24
14876,-83.50,179.50,-12.50,35.25,-3.00,4.50,0.04,0.06,-0.16,0.00,0.00,2.24
14885,-83.56,179.50,-12.12,35.50,-3.12,4.62,0.04,0.06,-0.16,0.00,0.00,2.27
14920,-83.62,179.56,-11.12,36.38,-3.56,4.94,0.15,0.09,-0.15,0.00,0.00,2.26
14928,-83.69,179.56,-10.81,36.62,-3.56,5.06,0.11,0.10,-0.17,0.00,0.00,2.27
14941,-83.69,179.56,-10.44,36.62,-3.56,5.06,0.07,0.09,-0.16,0.00,0.00,2.27
14954,-83.75,179.62,-9.75,37.06,-3.56,4.81,0.11,0.11,-0.16,0.00,0.00,2.27
14968,-83.81,179.62,-9.38,37.25,-3.75,4.81,0.15,0.11,-0.18,0.00,0.00,2.28
14972,-83.88,179.62,-9.06,37.44,-3.75,4.69,0.21,0.10,-0.16,0.00,0.00,2.28
14983,-83.88,179.62,-8.69,37.69,-3.56,4.75,0.28,0.11,-0.15,0.00,0.00,2.34
14991,-83.88,179.62,-8.31,37.88,-3.50,4.69,0.27,0.14,-0.17,0.00,0.00,2.34
15004,-83.94,179.69,-8.00,37.88,-3.50,4.62,0.26,0.16,-0.19,0.00,0.00,2.36
15017,-83.94,179.69,-7.62,38.31,-3.19,4.62,0.25,0.16,-0.21,0.00,0.00,2.38
15025,-84.00,179.69,-7.25,38.38,-3.19,4.75,0.20,0.16,-0.18,0.00,0.00,2.37
15037,-84.00,179.69,-6.94,38.38,-2.88,4.69,0.18,0.17,-0.17,0.00,0.00,2.36
15047,-84.00,179.75,-6.56,38.56,-2.81,4.75,0.23,0.19,-0.19,0.00,0.00,2.35
15083,-84.06,179.75,-5.50,38.88,-2.44,4.94,0.29,0.19,-0.20,0.00,0.00,1.56
15093,-84.06,179.81,-4.75,39.06,-2.19,4.94,0.21,0.21,-0.16,0.00,0.00,1.12
15105,-84.06,179.81,-4.38,39.25,-1.94,4.81,0.20,0.20,-0.23,0.00,0.00,1.06
15116,-84.06,179.88,-4.06,39.12,-1.62,4.75,0.17,0.21,-0.18,0.00,0.00,0.98
15130,-84.06,179.88,-3.69,39.25,-1.50,4.75,0.17,0.22,-0.18,0.00,0.00,1.10
15141,-84.12,179.88,-3.31,39.19,-1.50,4.69,0.20,0.22,-0.21,0.00,0.00,1.26
15155,-84.12,179.94,-2.94,39.31,-1.38,4.81,0.23,0.26,-0.21,0.00,0.00,1.41
15167,-84.12,179.94,-2.25,39.31,-1.38,4.75,0.23,0.25,-0.18,0.00,0.00,1.68
15179,-84.12,-179.94,-1.88,39.31,-1.44,4.88,0.18,0.26,-0.19,0.00,0.00,1.80
15193,-84.12,-179.94,-1.50,39.31,-1.31,4.88,0.07,0.26,-0.21,0.00,0.00,1.83
15204,-84.06,-179.88,-0.81,39.12,-1.38,5.00,0.06,0.26,-0.23,0.00,0.00,1.92
15216,-84.06,-179.81,-0.50,39.06,-1.44,5.12,0.04,0.25,-0.20,0.00,0.00,2.01
15226,-84.06,-179.81,-0.12,38.94,-1.38,5.12,0.07,0.27,-0.20,0.00,0.00,2.02
15238,-84.06,-179.81,0.25,38.94,-1.69,4.81,0.08,0.26,-0.21,0.00,0.00,2.07
15272,-84.12,-179.69,1.25,38.31,-2.25,4.50,-0.01,0.26,-0.20,0.00,0.00,2.08
15285,-84.12,-179.69,2.00,38.38,-2.50,4.75,0.00,0.26,-0.20,0.00,0.00,2.06
15295,-84.12,-179.62,2.31,38.12,-2.81,4.75,0.00,0.26,-0.21,0.00,0.00,2.10
15308,-84.12,-179.62,2.62,38.00,-3.25,4.88,0.06,0.26,-0.21,0.00,0.00,2.07
15321,-84.12,-179.56,3.00,37.69,-3.31,4.81,0.05,0.26,-0.21,0.00,0.00,2.08
15332,-84.19,-179.56,3.31,37.50,-3.56,4.88,0.06,0.26,-0.20,0.00,0.00,2.02
15344,-84.19,-179.50,3.69,37.44,-3.69,4.88,-0.01,0.26,-0.20,0.00,0.00,2.03
15355,-84.25,-179.50,4.31,37.00,-4.12,4.88,0.00,0.27,-0.21,0.00,0.00,1.98
15367,-84.25,-179.44,4.62,36.81,-4.44,4.81,0.00,0.25,-0.20,0.00,0.00,1.95
15378,-84.25,-179.44,5.00,36.50,-4.38,4.75,0.04,0.25,-0.22,0.00,0.00,1.97
15389,-84.31,-179.38,5.31,36.31,-4.62,4.62,0.08,0.26,-0.19,0.00,0.00,1.91
15402,-84.31,-179.38,5.62,35.88,-4.69,4.62,0.07,0.25,-0.20,0.00,0.00,1.96
15414,-84.38,-179.31,5.94,35.38,-5.06,4.38,0.09,0.26,-0.21,0.00,0.00,1.91
15450,-84.44,-179.25,7.19,34.62,-5.31,4.12,0.15,0.29,-0.19,0.00,0.00,1.77
15464,-84.50,-179.19,7.50,34.06,-5.31,4.12,0.23,0.27,-0.19,0.00,0.00,1.71
15478,-84.56,-179.12,8.12,33.56,-5.25,4.25,0.24,0.27,-0.20,0.00,0.00,1.62
15489,-84.56,-179.12,8.38,33.25,-5.38,4.31,0.22,0.27,-0.17,0.00,0.00,1.69
15501,-84.62,-179.06,8.69,33.00,-5.12,4.19,0.21,0.27,-0.21,0.00,0.00,1.44
15514,-84.62,-179.06,8.94,32.69,-4.94,4.31,0.22,0.25,-0.19,0.00,0.00,1.45
15526,-84.69,-179.00,9.56,32.12,-4.75,4.12,0.25,0.25,-0.18,0.00,0.00,1.41
15539,-84.69,-178.94,9.81,31.62,-4.62,4.06,0.31,0.26,-0.16,0.00,0.00,1.18
15550,-84.69,-178.94,10.06,31.38,-4.50,3.94,0.31,0.24,-0.18,0.00,0.00,1.25
15566,-84.69,-178.94,10.38,30.88,-4.19,3.88,0.34,0.26,-0.20,0.00,0.00,1.21
15576,-84.75,-178.88,10.88,30.19,-3.50,3.62,0.26,0.27,-0.17,0.00,0.00,1.18
15590,-84.75,-178.81,11.12,29.69,-3.56,3.50,0.26,0.27,-0.15,0.00,0.00,1.27
15603,-84.75,-178.81,11.44,29.25,-3.25,3.50,0.27,0.25,-0.16,0.00,0.00,1.20
15618,-84.75,-178.75,11.69,28.50,-2.94,3.50,0.34,0.26,-0.15,0.00,0.00,1.22
15656,-84.75,-178.69,12.62,27.44,-2.06,3.75,0.24,0.25,-0.18,0.00,0.00,1.22
15670,-84.75,-178.62,13.06,26.38,-1.94,3.62,0.18,0.26,-0.18,0.00,0.00,1.19
15681,-84.75,-178.56,13.31,26.00,-1.56,3.38,0.15,0.25,-0.17,0.00,0.00,1.04
15695,-84.69,-178.56,13.56,25.50,-1.50,3.38,0.15,0.23,-0.15,0.00,0.00,1.04
15706,-84.69,-178.50,13.75,24.44,-1.38,3.38,0.21,0.23,-0.18,0.00,0.00,1.05
15718,-84.69,-178.50,14.19,24.00,-1.50,3.25,0.23,0.21,-0.15,0.00,0.00,0.94
15728,-84.69,-178.44,14.38,23.62,-1.31,3.12,0.19,0.25,-0.13,0.00,0.00,0.73
15739,-84.69,-178.44,14.56,23.12,-1.12,3.06,0.13,0.21,-0.13,0.00,0.00,0.83
15749,-84.62,-178.44,14.75,22.81,-1.19,3.00,0.12,0.22,-0.17,0.00,0.00,0.67
15760,-84.62,-178.38,15.00,22.06,-1.12,2.88,0.08,0.24,-0.18,0.00,0.00,0.61
15770,-84.62,-178.38,15.19,21.50,-1.31,2.69,0.07,0.24,-0.15,0.00,0.00,0.63
15780,-84.62,-178.31,15.31,21.00,-1.25,2.81,0.11,0.25,-0.17,0.00,0.00,0.59
15790,-84.62,-178.31,15.50,20.44,-1.25,2.81,0.12,0.23,-0.14,0.00,0.00,0.52
15800,-84.62,-178.31,15.69,19.94,-1.50,2.88,0.13,0.23,-0.15,0.00,0.00,0.51
15832,-84.56,-178.25,16.19,18.38,-1.75,2.75,0.05,0.21,-0.15,0.00,0.00,0.35
15841,-84.56,-178.19,16.31,17.69,-1.75,2.56,0.01,0.20,-0.15,0.00,0.00,0.47
15854,-84.56,-178.19,16.50,17.19,-1.88,2.38,0.02,0.18,-0.13,0.00,0.00,0.40
15865,-84.56,-178.19,16.62,16.75,-2.06,2.44,0.09,0.19,-0.15,0.00,0.00,0.43
15880,-84.56,-178.19,16.75,15.44,-1.88,2.00,0.08,0.19,-0.16,0.00,0.00,0.37
15890,-84.56,-178.12,17.00,14.94,-2.12,1.75,0.11,0.20,-0.13,0.00,0.00,0.38
15901,-84.62,-178.12,17.12,14.38,-2.19,1.75,0.11,0.17,-0.12,0.00,0.00,0.32
15911,-84.62,-178.12,17.25,13.69,-2.56,1.69,0.09,0.15,-0.15,0.00,0.00,0.42
15925,-84.62,-178.06,17.38,13.00,-2.25,1.62,0.08,0.19,-0.13,0.00,0.00,0.29
15935,-84.62,-178.06,17.50,12.62,-2.38,1.50,0.09,0.19,-0.13,0.00,0.00,0.42
15947,-84.62,-178.06,17.62,11.94,-2.81,1.44,0.14,0.17,-0.11,0.00,0.00,0.43
15957,-84.62,-178.06,17.69,10.88,-2.44,1.38,0.19,0.16,-0.13,0.00,0.00,0.42
15970,-84.62,-178.06,17.81,10.19,-2.44,1.38,0.20,0.15,-0.12,0.00,0.00,0.44
16003,-84.69,-178.00,18.12,8.50,-2.19,1.06,0.17,0.16,-0.12,0.00,0.00,0.39
16019,-84.69,-178.00,18.19,7.94,-2.00,1.25,0.19,0.15,-0.10,0.00,0.00,0.42
16028,-84.69,-177.94,18.31,6.56,-1.88,0.94,0.22,0.13,-0.11,0.00,0.00,0.35
16042,-84.69,-177.94,18.31,5.94,-1.62,0.56,0.26,0.12,-0.08,0.00,0.00,0.42
16051,-84.69,-177.94,18.38,5.50,-1.50,0.69,0.27,0.11,-0.12,0.00,0.00,0.48
16064,-84.69,-177.94,18.44,4.81,-1.25,0.38,0.28,0.11,-0.12,0.00,0.00,0.38
16076,-84.69,-177.94,18.50,4.31,-1.06,0.44,0.28,0.12,-0.14,0.00,0.00,0.39
16088,-84.69,-177.94,18.50,3.56,-0.75,0.19,0.23,0.10,-0.11,0.00,0.00,0.49
16098,-84.69,-177.94,18.50,2.44,-0.62,0.25,0.18,0.59,-0.08,0.00,0.00,0.47
16110,-84.69,-177.94,18.56,1.12,-0.50,0.50,0.14,0.75,0.07,0.00,0.00,0.47
16119,-84.69,-177.94,18.56,-0.31,-0.44,0.88,0.07,0.54,-0.04,0.00,0.00,0.40
16133,-84.69,-177.94,18.50,-1.81,-0.19,0.94,0.14,0.52,0.02,0.00,0.00,0.45
16143,-84.69,-177.94,18.50,-3.12,-0.44,0.50,0.23,0.17,-0.11,0.00,0.00,0.44
16157,-84.69,-177.88,18.44,-4.06,-0.19,0.00,0.30,-0.04,-0.09,0.00,0.00,0.44
16189,-84.75,-177.94,18.31,-6.31,0.75,-2.50,0.28,-0.10,-0.19,0.00,0.00,0.40
16199,-84.75,-177.94,18.31,-6.69,1.19,-2.56,0.40,0.37,-0.06,0.00,0.00,0.44
16209,-84.69,-177.94,18.12,-7.19,1.12,-1.94,0.56,0.36,-0.09,0.00,0.00,0.48
16219,-84.69,-177.94,18.06,-8.00,1.62,-1.19,0.44,0.07,-0.15,0.00,0.00,0.53
16231,-84.69,-177.94,18.06,-9.00,1.62,-0.44,0.21,-0.05,-0.16,0.00,0.00,0.39
16241,-84.62,-177.94,17.88,-9.38,1.81,-0.19,0.31,0.20,-0.08,0.00,0.00,0.40
16252,-84.62,-177.94,17.75,-9.81,2.12,0.00,0.21,0.16,-0.09,0.00,0.00,0.44
16261,-84.56,-177.94,17.62,-10.50,2.25,0.12,0.06,0.00,-0.13,0.00,0.00,0.44
16271,-84.56,-177.88,17.50,-11.19,2.25,-0.19,0.09,0.02,-0.11,0.00,0.00,0.40
16281,-84.56,-177.88,17.44,-11.44,2.38,-1.00,0.10,0.10,-0.09,0.00,0.00,0.47
16290,-84.50,-177.94,17.31,-12.06,2.69,-1.69,0.03,-0.03,-0.12,0.00,0.00,0.42
16300,-84.50,-177.94,17.31,-12.81,2.44,-2.12,0.14,0.00,-0.09,0.00,0.00,0.43
16310,-84.50,-177.94,17.06,-13.19,2.69,-2.81,0.18,0.20,-0.05,0.00,0.00,0.45
16345,-84.44,-178.00,16.69,-14.75,2.56,-2.69,0.28,0.08,-0.12,0.00,0.00,0.39
16355,-84.38,-178.00,16.56,-15.38,2.75,-2.31,0.00,0.10,-0.13,0.00,0.00,0.52
16371,-84.38,-178.00,16.38,-16.06,2.62,-1.88,0.01,0.03,-0.16,0.00,0.00,0.58
16383,-84.31,-178.00,16.06,-17.31,2.12,-1.25,0.17,0.15,-0.09,0.00,0.00,0.69
16392,-84.31,-177.94,15.88,-17.94,2.31,-1.06,-0.15,-0.03,-0.12,0.00,0.00,0.54
16402,-84.31,-177.94,15.69,-18.50,2.25,-1.62,-0.01,-0.03,-0.15,0.00,0.00,0.65
16412,-84.31,-177.94,15.50,-18.94,2.00,-2.25,0.05,0.08,-0.14,0.00,0.00,0.58
16422,-84.25,-178.00,15.31,-19.31,1.94,-2.69,-0.01,0.16,-0.07,0.00,0.00,0.70
16436,-84.25,-178.00,15.12,-20.00,1.75,-3.19,0.03,0.01,-0.13,0.00,0.00,0.87
16447,-84.25,-178.00,14.94,-20.38,1.94,-3.94,0.10,0.01,-0.12,0.00,0.00,1.04
16462,-84.25,-178.00,14.75,-20.81,1.50,-4.50,0.08,0.10,-0.11,0.00,0.00,0.85
16472,-84.25,-178.06,14.38,-22.06,1.12,-3.75,0.17,0.06,-0.15,0.00,0.00,1.16
16488,-84.25,-178.06,14.19,-22.56,1.06,-3.50,0.11,0.11,-0.11,0.00,0.00,1.25
16526,-84.25,-178.06,13.44,-24.62,1.00,-2.38,0.06,0.11,-0.09,0.00,0.00,1.32
16538,-84.19,-178.06,13.00,-25.44,0.81,-2.69,0.19,0.08,-0.12,0.00,0.00,1.32
16550,-84.19,-178.06,12.75,-25.94,0.94,-3.25,0.14,0.00,-0.12,0.00,0.00,1.29
16563,-84.19,-178.06,12.50,-25.94,0.94,-3.25,0.21,0.10,-0.14,0.00,0.00,1.23
16573,-84.19,-178.12,12.00,-27.00,1.12,-4.69,0.27,0.04,-0.13,0.00,0.00,1.16
16585,-84.19,-178.12,11.75,-27.38,1.38,-4.62,0.15,0.01,-0.12,0.00,0.00,1.22
16597,-84.19,-178.12,11.50,-27.88,1.31,-4.81,0.37,0.14,-0.11,0.00,0.00,1.13
16607,-84.19,-178.12,11.25,-28.44,1.50,-4.19,0.46,0.10,-0.11,0.00,0.00,1.05
16622,-84.19,-178.12,10.94,-28.62,1.62,-3.56,0.34,0.01,-0.15,0.00,0.00,0.90
16633,-84.19,-178.19,10.69,-29.69,2.06,-3.12,0.38,0.14,-0.08,0.00,0.00,0.90
16644,-84.12,-178.12,10.06,-29.94,2.19,-2.94,0.27,0.05,-0.12,0.00,0.00,0.99
16656,-84.12,-178.12,9.81,-30.38,2.50,-2.75,0.17,-0.02,-0.12,0.00,0.00,0.91
16666,-84.12,-178.12,9.50,-30.69,2.56,-3.25,0.25,0.07,-0.10,0.00,0.00,0.95
16677,-84.06,-178.19,9.19,-31.00,3.06,-3.88,0.24,0.07,-0.09,0.00,0.00,1.00
16714,-84.00,-178.19,8.31,-31.94,3.44,-4.88,0.23,0.02,-0.12,0.00,0.00,1.05
16724,-83.94,-178.25,7.69,-32.56,3.88,-5.00,0.30,0.00,-0.13,0.00,0.00,1.04
16735,-83.94,-178.25,7.38,-32.75,4.19,-4.50,0.33,0.03,-0.09,0.00,0.00,1.24
16746,-83.88,-178.25,7.06,-33.12,4.06,-4.50,0.22,0.06,-0.11,0.00,0.00,1.19
16758,-83.88,-178.25,6.75,-33.50,4.38,-4.12,0.31,0.01,-0.13,0.00,0.00,1.46
16770,-83.81,-178.25,6.44,-33.88,4.56,-3.75,0.36,0.01,-0.14,0.00,0.00,1.39
16784,-83.81,-178.25,6.06,-33.88,4.75,-3.56,0.17,0.03,-0.10,0.00,0.00,1.45
