Time,Pitch,Roll,Yaw,xGyro,yGyro,ZGyro,xAcc,yAcc,zAcc,latitude,longitude,alt,xSpeed,ySpeed,zSpeed,cP,cR,cY,cP
61684482.000000,-3.250000,4.500000,0.062500,0.000000,-0.187500,-0.125000,0.000000,-0.030000,-0.160000,0.000000,0.000000,0.510000,-10000.000000,-10000.000000,0.000000,3.250000,0.000000,0.000000,0.000000
61694485.000000,-3.250000,4.500000,0.062500,0.000000,-0.125000,0.062500,0.020000,-0.020000,-0.150000,0.000000,0.000000,0.520000,-10000.000000,-10000.000000,0.000000,3.250000,0.000000,-0.000000,0.000000
61704489.000000,-3.250000,4.500000,0.062500,0.062500,-0.250000,0.000000,0.020000,-0.030000,-0.180000,0.000000,0.000000,0.550000,-10000.000000,-10000.000000,0.149905,3.187500,0.000000,0.000000,0.000000
61714492.000000,-3.250000,4.500000,0.062500,-0.062500,-0.125000,-0.062500,0.030000,-0.020000,-0.180000,0.000000,0.000000,0.520000,-10000.000000,-10000.000000,-0.000086,3.312500,0.000000,0.000000,0.000000
61724495.000000,-3.250000,4.500000,0.062500,0.000000,-0.062500,-0.125000,0.000000,-0.020000,-0.170000,0.000000,0.000000,0.520000,-10000.000000,-10000.000000,-0.000072,3.250000,0.000000,0.000000,0.000000
61734498.000000,-3.250000,4.500000,0.062500,0.000000,0.062500,0.062500,0.030000,-0.050000,-0.190000,0.000000,0.000000,0.510000,-10000.000000,-10000.000000,-0.050142,3.250000,-0.000000,-0.000000,0.000000
61744501.000000,-3.250000,4.500000,0.062500,0.062500,0.062500,0.000000,0.000000,-0.020000,-0.180000,0.000000,0.000000,0.530000,-10000.000000,-10000.000000,0.049792,3.187500,-0.000000,0.000000,0.000000
61754504.000000,-3.250000,4.500000,0.062500,0.062500,-0.000000,0.000000,-0.010000,-0.020000,-0.170000,0.000000,0.000000,0.500000,-10000.000000,-10000.000000,-0.100148,3.187500,0.000000,0.000000,0.000000
61765948.000000,-3.250000,4.500000,0.062500,0.000000,-0.062500,-0.062500,-0.010000,-0.000000,-0.180000,0.000000,0.000000,0.490000,-10000.000000,-10000.000000,-0.143880,3.250000,0.000000,0.000000,0.000000
61775989.000000,-3.250000,4.500000,0.062500,0.062500,0.187500,0.125000,0.050000,-0.060000,-0.210000,0.000000,0.000000,0.490000,-10000.000000,-10000.000000,-0.144066,3.187500,-0.000000,-0.000000,0.000000
61788080.000000,-3.250000,4.500000,0.062500,0.000000,-0.000000,0.000000,0.020000,-0.000000,-0.180000,0.000000,0.000000,0.490000,-10000.000000,-10000.000000,-0.144109,3.250000,0.000000,0.000000,0.000000
61798083.000000,-3.250000,4.500000,0.062500,0.125000,-0.062500,0.125000,0.020000,-0.000000,-0.180000,0.000000,0.000000,0.480000,-10000.000000,-10000.000000,-0.194129,3.125000,0.000000,-0.000000,0.000000
61808788.000000,-3.250000,4.500000,0.062500,-0.125000,-0.000000,0.062500,0.020000,-0.030000,-0.170000,0.000000,0.000000,0.480000,-10000.000000,-10000.000000,-0.344054,3.375000,0.000000,-0.000000,0.000000
61818793.000000,-3.250000,4.500000,0.062500,0.000000,-0.062500,0.000000,0.000000,-0.020000,-0.180000,0.000000,0.000000,0.480000,-10000.000000,-10000.000000,-0.194134,3.250000,0.000000,0.000000,0.000000
61829781.000000,-3.250000,4.500000,0.062500,0.125000,0.125000,-0.062500,0.000000,-0.000000,-0.190000,0.000000,0.000000,0.500000,-10000.000000,-10000.000000,-0.103220,3.125000,-0.000000,0.000000,0.000000
61839793.000000,-3.250000,4.500000,0.062500,0.062500,0.062500,0.000000,0.020000,-0.020000,-0.190000,0.000000,0.000000,0.490000,-10000.000000,-10000.000000,-0.103261,3.187500,-0.000000,0.000000,0.000000
61850706.000000,-3.250000,4.500000,0.062500,0.000000,-0.000000,0.000000,0.050000,-0.020000,-0.140000,0.000000,0.000000,0.480000,-10000.000000,-10000.000000,-0.248868,3.250000,0.000000,0.000000,0.000000
61860709.000000,-3.250000,4.500000,0.062500,-0.062500,-0.000000,-0.062500,0.020000,-0.010000,-0.190000,0.000000,0.000000,0.510000,-10000.000000,-10000.000000,0.050956,3.312500,0.000000,0.000000,0.000000
61870713.000000,-3.250000,4.500000,0.062500,0.000000,-0.062500,0.062500,-0.020000,-0.000000,-0.190000,0.000000,0.000000,0.490000,-10000.000000,-10000.000000,-0.005398,3.250000,0.000000,-0.000000,0.000000
61880718.000000,-3.250000,4.500000,0.062500,0.000000,-0.062500,-0.062500,0.040000,-0.000000,-0.170000,0.000000,0.000000,0.490000,-10000.000000,-10000.000000,-0.005384,3.250000,0.000000,0.000000,0.000000
61890889.000000,-3.250000,4.500000,0.062500,0.062500,-0.000000,-0.062500,0.040000,-0.030000,-0.190000,0.000000,0.000000,0.490000,-10000.000000,-10000.000000,-0.005471,3.187500,0.000000,0.000000,0.000000
61900893.000000,-3.250000,4.500000,0.062500,0.000000,0.250000,0.000000,-0.020000,-0.020000,-0.170000,0.000000,0.000000,0.490000,-10000.000000,-10000.000000,0.044529,3.250000,-0.000000,0.000000,0.000000
61910896.000000,-3.250000,4.500000,0.062500,-0.062500,-0.062500,0.000000,0.000000,-0.000000,-0.160000,0.000000,0.000000,0.470000,-10000.000000,-10000.000000,-0.055377,3.312500,0.000000,0.000000,0.000000
61920901.000000,-3.250000,4.500000,0.062500,0.125000,0.062500,0.000000,0.030000,-0.010000,-0.200000,0.000000,0.000000,0.510000,-10000.000000,-10000.000000,0.144388,3.125000,-0.000000,0.000000,0.000000
61930905.000000,-3.250000,4.500000,0.062500,0.125000,-0.062500,0.000000,0.000000,-0.030000,-0.180000,0.000000,0.000000,0.490000,-10000.000000,-10000.000000,-0.046616,3.125000,0.000000,0.000000,0.000000
61940909.000000,-3.250000,4.500000,0.062500,-0.125000,0.125000,0.062500,0.000000,-0.020000,-0.180000,0.000000,0.000000,0.480000,-10000.000000,-10000.000000,-0.046691,3.375000,-0.000000,-0.000000,0.000000
61950912.000000,-3.250000,4.500000,0.062500,0.000000,0.062500,0.000000,0.020000,-0.000000,-0.210000,0.000000,0.000000,0.490000,-10000.000000,-10000.000000,0.048925,3.250000,-0.000000,0.000000,0.000000
61960916.000000,-3.250000,4.500000,0.062500,0.000000,-0.000000,0.125000,0.010000,-0.040000,-0.200000,0.000000,0.000000,0.480000,-10000.000000,-10000.000000,-0.151146,3.250000,0.000000,-0.000000,0.000000
61970920.000000,-3.250000,4.500000,0.062500,0.000000,-0.062500,-0.062500,0.020000,-0.000000,-0.200000,0.000000,0.000000,0.500000,-10000.000000,-10000.000000,0.048639,3.250000,0.000000,0.000000,0.000000
61980923.000000,-3.250000,4.500000,0.062500,-0.125000,-0.125000,0.000000,0.030000,-0.000000,-0.180000,0.000000,0.000000,0.490000,-10000.000000,-10000.000000,-0.001382,3.375000,0.000000,0.000000,0.000000
61990926.000000,-3.250000,4.500000,0.062500,0.125000,-0.000000,0.000000,-0.010000,-0.030000,-0.160000,0.000000,0.000000,0.480000,-10000.000000,-10000.000000,-0.051302,3.125000,0.000000,0.000000,0.000000
62000929.000000,-3.250000,4.500000,0.062500,-0.125000,0.125000,-0.062500,0.030000,-0.000000,-0.170000,0.000000,0.000000,0.490000,-10000.000000,-10000.000000,-0.001303,3.375000,-0.000000,0.000000,0.000000
62011520.000000,-3.250000,4.500000,0.062500,0.062500,0.125000,0.062500,0.010000,-0.020000,-0.150000,0.000000,0.000000,0.490000,-10000.000000,-10000.000000,0.098789,3.187500,-0.000000,-0.000000,0.000000
62021522.000000,-3.250000,4.500000,0.062500,0.062500,-0.000000,0.125000,0.000000,-0.010000,-0.200000,0.000000,0.000000,0.490000,-10000.000000,-10000.000000,-0.101247,3.187500,0.000000,-0.000000,0.000000
62032256.000000,-3.250000,4.500000,0.062500,-0.062500,0.125000,0.000000,0.000000,-0.020000,-0.160000,0.000000,0.000000,0.490000,-10000.000000,-10000.000000,-0.001218,3.312500,-0.000000,0.000000,0.000000
62042260.000000,-3.250000,4.500000,0.062500,-0.125000,0.062500,-0.125000,0.000000,-0.030000,-0.160000,0.000000,0.000000,0.500000,-10000.000000,-10000.000000,0.098807,3.375000,-0.000000,0.000000,0.000000
62052307.000000,-3.250000,4.500000,0.062500,-0.062500,0.187500,-0.062500,0.010000,-0.020000,-0.170000,0.000000,0.000000,0.490000,-10000.000000,-10000.000000,-0.000930,3.312500,-0.000000,0.000000,0.000000
62062311.000000,-3.250000,4.500000,0.062500,0.000000,-0.000000,0.000000,0.000000,-0.020000,-0.180000,0.000000,0.000000,0.500000,-10000.000000,-10000.000000,0.098995,3.250000,0.000000,0.000000,0.000000
62072314.000000,-3.250000,4.500000,0.062500,0.000000,0.062500,-0.125000,0.030000,-0.010000,-0.210000,0.000000,0.000000,0.490000,-10000.000000,-10000.000000,-0.051136,3.250000,-0.000000,0.000000,0.000000
62082318.000000,-3.250000,4.500000,0.062500,-0.062500,0.062500,0.000000,0.020000,-0.030000,-0.160000,0.000000,0.000000,0.480000,-10000.000000,-10000.000000,-0.051066,3.312500,-0.000000,0.000000,0.000000
62092322.000000,-3.250000,4.500000,0.062500,0.000000,0.062500,-0.062500,0.000000,-0.000000,-0.170000,0.000000,0.000000,0.470000,-10000.000000,-10000.000000,-0.051047,3.250000,-0.000000,0.000000,0.000000
62102325.000000,-3.250000,4.500000,0.062500,-0.062500,-0.000000,-0.062500,0.020000,-0.000000,-0.150000,0.000000,0.000000,0.470000,-10000.000000,-10000.000000,-0.100917,3.312500,0.000000,0.000000,0.000000
62112329.000000,-3.250000,4.500000,0.062500,0.062500,-0.250000,0.000000,0.000000,-0.030000,-0.150000,0.000000,0.000000,0.490000,-10000.000000,-10000.000000,-0.000843,3.187500,0.000000,0.000000,0.000000
62122332.000000,-3.250000,4.500000,0.062500,0.062500,-0.187500,-0.125000,0.010000,-0.000000,-0.180000,0.000000,0.000000,0.500000,-10000.000000,-10000.000000,0.049107,3.187500,0.000000,0.000000,0.000000
62132335.000000,-3.250000,4.500000,0.062500,0.000000,0.062500,-0.125000,0.010000,-0.010000,-0.190000,0.000000,0.000000,0.500000,-10000.000000,-10000.000000,0.049021,3.250000,-0.000000,0.000000,0.000000
62142338.000000,-3.250000,4.500000,0.062500,0.125000,-0.125000,0.000000,0.020000,-0.030000,-0.200000,0.000000,0.000000,0.490000,-10000.000000,-10000.000000,-0.051079,3.125000,0.000000,0.000000,0.000000
62152341.000000,-3.250000,4.500000,0.062500,0.000000,-0.000000,0.000000,0.040000,-0.010000,-0.190000,0.000000,0.000000,0.490000,-10000.000000,-10000.000000,-0.001399,3.250000,0.000000,0.000000,0.000000
62162344.000000,-3.250000,4.500000,0.062500,0.000000,-0.000000,0.000000,0.000000,-0.010000,-0.180000,0.000000,0.000000,0.480000,-10000.000000,-10000.000000,-0.101399,3.250000,0.000000,0.000000,0.000000
62172744.000000,-3.250000,4.500000,0.062500,0.000000,-0.062500,0.000000,0.000000,-0.000000,-0.170000,0.000000,0.000000,0.480000,-10000.000000,-10000.000000,-0.051399,3.250000,0.000000,0.000000,0.000000
62182747.000000,-3.250000,4.500000,0.062500,-0.125000,-0.000000,0.000000,0.010000,-0.020000,-0.200000,0.000000,0.000000,0.510000,-10000.000000,-10000.000000,0.148400,3.375000,0.000000,0.000000,0.000000
62192752.000000,-3.250000,4.500000,0.062500,-0.125000,0.062500,0.000000,0.020000,-0.020000,-0.190000,0.000000,0.000000,0.490000,-10000.000000,-10000.000000,0.098345,3.375000,-0.000000,0.000000,0.000000
62202756.000000,-3.250000,4.500000,0.062500,0.000000,-0.000000,-0.125000,0.000000,-0.000000,-0.160000,0.000000,0.000000,0.500000,-10000.000000,-10000.000000,0.148389,3.250000,0.000000,0.000000,0.000000
62212758.000000,-3.250000,4.500000,0.062500,0.000000,-0.125000,0.125000,0.010000,-0.010000,-0.160000,0.000000,0.000000,0.480000,-10000.000000,-10000.000000,-0.051486,3.250000,0.000000,-0.000000,0.000000
62222761.000000,-3.250000,4.500000,0.062500,0.000000,0.062500,0.000000,0.010000,-0.000000,-0.200000,0.000000,0.000000,0.510000,-10000.000000,-10000.000000,0.048348,3.250000,-0.000000,0.000000,0.000000
62232765.000000,-3.250000,4.500000,0.062500,-0.062500,0.125000,0.062500,0.020000,-0.020000,-0.160000,0.000000,0.000000,0.470000,-10000.000000,-10000.000000,-0.151507,3.312500,-0.000000,-0.000000,0.000000
62242768.000000,-3.250000,4.500000,0.062500,-0.125000,0.062500,0.000000,0.010000,-0.020000,-0.150000,0.000000,0.000000,0.490000,-10000.000000,-10000.000000,-0.001438,3.375000,-0.000000,0.000000,0.000000
62252771.000000,-3.250000,4.500000,0.062500,0.125000,0.062500,-0.062500,0.000000,-0.000000,-0.150000,0.000000,0.000000,0.500000,-10000.000000,-10000.000000,0.048662,3.125000,-0.000000,0.000000,0.000000
62262775.000000,-3.250000,4.500000,0.062500,0.000000,0.062500,-0.062500,0.020000,-0.030000,-0.180000,0.000000,0.000000,0.470000,-10000.000000,-10000.000000,-0.051329,3.250000,-0.000000,0.000000,0.000000
62272777.000000,-3.250000,4.500000,0.062500,0.000000,0.062500,-0.062500,0.030000,-0.000000,-0.200000,0.000000,0.000000,0.480000,-10000.000000,-10000.000000,-0.001474,3.250000,-0.000000,0.000000,0.000000
62282781.000000,-3.250000,4.500000,0.062500,0.125000,0.062500,0.000000,0.000000,-0.020000,-0.190000,0.000000,0.000000,0.480000,-10000.000000,-10000.000000,-0.151515,3.125000,-0.000000,0.000000,0.000000
62292785.000000,-3.250000,4.500000,0.062500,-0.062500,0.062500,0.062500,0.010000,-0.020000,-0.160000,0.000000,0.000000,0.480000,-10000.000000,-10000.000000,-0.051500,3.312500,-0.000000,-0.000000,0.000000
62304069.000000,-3.250000,4.500000,0.062500,-0.062500,-0.000000,-0.125000,0.010000,-0.030000,-0.200000,0.000000,0.000000,0.470000,-10000.000000,-10000.000000,-0.145944,3.312500,0.000000,0.000000,0.000000
62314072.000000,-3.250000,4.500000,0.062500,0.000000,-0.062500,-0.062500,0.000000,-0.000000,-0.170000,0.000000,0.000000,0.470000,-10000.000000,-10000.000000,-0.045949,3.250000,0.000000,0.000000,0.000000
62324076.000000,-3.250000,4.500000,0.062500,0.062500,0.062500,-0.062500,-0.010000,-0.030000,-0.200000,0.000000,0.000000,0.480000,-10000.000000,-10000.000000,-0.146060,3.187500,-0.000000,0.000000,0.000000
62334090.000000,-3.250000,4.500000,0.062500,0.000000,0.062500,0.062500,0.020000,-0.000000,-0.180000,0.000000,0.000000,0.480000,-10000.000000,-10000.000000,0.053825,3.250000,-0.000000,-0.000000,0.000000
62344092.000000,-3.250000,4.500000,0.062500,0.000000,0.125000,-0.062500,0.000000,-0.010000,-0.200000,0.000000,0.000000,0.470000,-10000.000000,-10000.000000,-0.096271,3.250000,-0.000000,0.000000,0.000000
62354095.000000,-3.250000,4.500000,0.062500,0.062500,0.125000,-0.062500,0.000000,-0.010000,-0.170000,0.000000,0.000000,0.480000,-10000.000000,-10000.000000,-0.096256,3.187500,-0.000000,0.000000,0.000000
62364099.000000,-3.250000,4.500000,0.062500,0.000000,-0.062500,0.000000,0.020000,-0.010000,-0.160000,0.000000,0.000000,0.490000,-10000.000000,-10000.000000,0.103728,3.250000,0.000000,0.000000,0.000000
62374102.000000,-3.250000,4.500000,0.062500,-0.062500,0.062500,-0.062500,0.020000,-0.000000,-0.200000,0.000000,0.000000,0.500000,-10000.000000,-10000.000000,0.103588,3.312500,-0.000000,0.000000,0.000000
62384106.000000,-3.250000,4.500000,0.062500,0.000000,0.125000,0.000000,0.000000,-0.030000,-0.170000,0.000000,0.000000,0.490000,-10000.000000,-10000.000000,0.053622,3.250000,-0.000000,0.000000,0.000000
62394108.000000,-3.250000,4.500000,0.062500,-0.062500,0.062500,-0.062500,0.010000,-0.000000,-0.180000,0.000000,0.000000,0.510000,-10000.000000,-10000.000000,0.153567,3.312500,-0.000000,0.000000,0.000000
62404112.000000,-3.250000,4.500000,0.062500,-0.062500,0.062500,-0.062500,0.010000,-0.010000,-0.160000,0.000000,0.000000,0.510000,-10000.000000,-10000.000000,0.197942,3.312500,-0.000000,0.000000,0.000000
62414117.000000,-3.250000,4.500000,0.062500,0.062500,0.312500,0.062500,0.000000,-0.030000,-0.170000,0.000000,0.000000,0.480000,-10000.000000,-10000.000000,0.048031,3.187500,-0.000000,-0.000000,0.000000
62424122.000000,-3.250000,4.500000,0.062500,0.062500,0.125000,0.062500,0.010000,-0.000000,-0.210000,0.000000,0.000000,0.500000,-10000.000000,-10000.000000,0.097816,3.187500,-0.000000,-0.000000,0.000000
62434126.000000,-3.250000,4.500000,0.062500,0.000000,0.250000,0.062500,0.000000,-0.010000,-0.210000,0.000000,0.000000,0.480000,-10000.000000,-10000.000000,-0.002330,3.250000,-0.000000,-0.000000,0.000000
62444130.000000,-3.250000,4.500000,0.062500,0.062500,0.062500,0.187500,0.010000,-0.020000,-0.160000,0.000000,0.000000,0.490000,-10000.000000,-10000.000000,0.097705,3.187500,-0.000000,-0.000000,0.000000
62454134.000000,-3.250000,4.500000,0.062500,0.000000,-0.000000,0.062500,0.000000,-0.030000,-0.150000,0.000000,0.000000,0.480000,-10000.000000,-10000.000000,-0.002146,3.250000,0.000000,-0.000000,0.000000
62464137.000000,-3.250000,4.500000,0.062500,0.000000,0.062500,-0.062500,0.020000,-0.020000,-0.180000,0.000000,0.000000,0.500000,-10000.000000,-10000.000000,0.047809,3.250000,-0.000000,0.000000,0.000000
62474141.000000,-3.250000,4.500000,0.062500,0.125000,0.125000,0.125000,0.000000,-0.030000,-0.200000,0.000000,0.000000,0.480000,-10000.000000,-10000.000000,-0.102272,3.125000,-0.000000,-0.000000,0.000000
62484146.000000,-3.250000,4.500000,0.062500,0.000000,-0.000000,0.000000,0.010000,-0.020000,-0.190000,0.000000,0.000000,0.500000,-10000.000000,-10000.000000,0.047573,3.250000,0.000000,0.000000,0.000000
62494149.000000,-3.250000,4.500000,0.062500,-0.062500,0.062500,0.000000,0.020000,-0.020000,-0.180000,0.000000,0.000000,0.480000,-10000.000000,-10000.000000,-0.152413,3.312500,-0.000000,0.000000,0.000000
62504152.000000,-3.250000,4.500000,0.062500,-0.062500,0.187500,0.000000,0.000000,-0.030000,-0.170000,0.000000,0.000000,0.490000,-10000.000000,-10000.000000,-0.102413,3.312500,-0.000000,0.000000,0.000000
62514156.000000,-3.250000,4.500000,0.062500,0.000000,0.062500,0.000000,0.020000,-0.020000,-0.180000,0.000000,0.000000,0.490000,-10000.000000,-10000.000000,0.047476,3.250000,-0.000000,0.000000,0.000000
62524161.000000,-3.250000,4.500000,0.062500,-0.062500,-0.000000,-0.062500,0.030000,-0.020000,-0.200000,0.000000,0.000000,0.500000,-10000.000000,-10000.000000,-0.002634,3.312500,0.000000,0.000000,0.000000
62534166.000000,-3.250000,4.500000,0.062500,0.000000,-0.062500,0.062500,0.020000,-0.030000,-0.210000,0.000000,0.000000,0.500000,-10000.000000,-10000.000000,0.097140,3.250000,0.000000,-0.000000,0.000000
62544170.000000,-3.250000,4.500000,0.062500,0.000000,-0.000000,-0.125000,0.010000,-0.000000,-0.160000,0.000000,0.000000,0.500000,-10000.000000,-10000.000000,0.047225,3.250000,0.000000,0.000000,0.000000
62554173.000000,-3.250000,4.500000,0.062500,0.000000,0.062500,-0.062500,0.000000,-0.010000,-0.200000,0.000000,0.000000,0.490000,-10000.000000,-10000.000000,0.047084,3.250000,-0.000000,0.000000,0.000000
62564176.000000,-3.250000,4.500000,0.062500,0.062500,-0.000000,0.000000,0.020000,-0.020000,-0.180000,0.000000,0.000000,0.500000,-10000.000000,-10000.000000,-0.002936,3.187500,0.000000,0.000000,0.000000
62574180.000000,-3.250000,4.500000,0.062500,0.000000,0.187500,0.000000,0.010000,-0.030000,-0.190000,0.000000,0.000000,0.500000,-10000.000000,-10000.000000,0.096938,3.250000,-0.000000,0.000000,0.000000
62584186.000000,-3.250000,4.500000,0.062500,0.000000,0.187500,0.062500,0.010000,-0.010000,-0.160000,0.000000,0.000000,0.500000,-10000.000000,-10000.000000,-0.002948,3.250000,-0.000000,-0.000000,0.000000
62594190.000000,-3.250000,4.500000,0.062500,0.125000,0.125000,0.062500,0.010000,-0.030000,-0.160000,0.000000,0.000000,0.480000,-10000.000000,-10000.000000,-0.002873,3.125000,-0.000000,-0.000000,0.000000
62604193.000000,-3.250000,4.500000,0.062500,0.062500,-0.000000,-0.062500,0.020000,-0.010000,-0.160000,0.000000,0.000000,0.500000,-10000.000000,-10000.000000,0.047177,3.187500,0.000000,0.000000,0.000000
62614196.000000,-3.250000,4.500000,0.062500,-0.062500,-0.000000,0.062500,0.020000,-0.020000,-0.140000,0.000000,0.000000,0.500000,-10000.000000,-10000.000000,0.047341,3.312500,0.000000,-0.000000,0.000000
62624200.000000,-3.250000,4.500000,0.062500,0.000000,0.125000,0.000000,0.000000,-0.030000,-0.160000,0.000000,0.000000,0.480000,-10000.000000,-10000.000000,-0.102529,3.250000,-0.000000,0.000000,0.000000
62634203.000000,-3.250000,4.500000,0.062500,0.125000,-0.000000,0.000000,0.020000,-0.010000,-0.190000,0.000000,0.000000,0.510000,-10000.000000,-10000.000000,0.047340,3.125000,0.000000,0.000000,0.000000
62644207.000000,-3.250000,4.500000,0.062500,0.000000,0.125000,0.062500,0.030000,-0.020000,-0.180000,0.000000,0.000000,0.490000,-10000.000000,-10000.000000,-0.052655,3.250000,-0.000000,-0.000000,0.000000
62654210.000000,-3.250000,4.500000,0.062500,0.000000,-0.000000,0.000000,0.000000,-0.030000,-0.170000,0.000000,0.000000,0.490000,-10000.000000,-10000.000000,-0.002656,3.250000,0.000000,0.000000,0.000000
62664214.000000,-3.250000,4.500000,0.062500,0.062500,0.062500,-0.062500,0.010000,-0.010000,-0.190000,0.000000,0.000000,0.500000,-10000.000000,-10000.000000,-0.002746,3.187500,-0.000000,0.000000,0.000000
62674217.000000,-3.250000,4.500000,0.062500,0.062500,-0.187500,-0.125000,0.030000,-0.010000,-0.190000,0.000000,0.000000,0.480000,-10000.000000,-10000.000000,-0.102802,3.187500,0.000000,0.000000,0.000000
62684219.000000,-3.250000,4.500000,0.062500,0.000000,-0.000000,0.062500,0.020000,-0.020000,-0.180000,0.000000,0.000000,0.510000,-10000.000000,-10000.000000,0.047132,3.250000,0.000000,-0.000000,0.000000
62694223.000000,-3.250000,4.500000,0.062500,0.000000,0.062500,-0.062500,0.020000,-0.000000,-0.180000,0.000000,0.000000,0.490000,-10000.000000,-10000.000000,0.047097,3.250000,-0.000000,0.000000,0.000000
62704228.000000,-3.250000,4.500000,0.062500,-0.125000,0.062500,0.000000,0.000000,-0.010000,-0.150000,0.000000,0.000000,0.490000,-10000.000000,-10000.000000,-0.052758,3.375000,-0.000000,0.000000,0.000000
62714231.000000,-3.250000,4.500000,0.062500,-0.062500,0.062500,0.062500,0.020000,-0.030000,-0.200000,0.000000,0.000000,0.480000,-10000.000000,-10000.000000,-0.102879,3.312500,-0.000000,-0.000000,0.000000
62724235.000000,-3.250000,4.500000,0.062500,0.000000,0.125000,0.125000,0.000000,-0.010000,-0.170000,0.000000,0.000000,0.480000,-10000.000000,-10000.000000,-0.002905,3.250000,-0.000000,-0.000000,0.000000
62734238.000000,-3.250000,4.500000,0.062500,0.000000,-0.000000,-0.062500,0.010000,-0.010000,-0.160000,0.000000,0.000000,0.500000,-10000.000000,-10000.000000,-0.052825,3.250000,0.000000,0.000000,0.000000
62744241.000000,-3.250000,4.500000,0.062500,0.000000,-0.125000,-0.125000,0.010000,-0.030000,-0.190000,0.000000,0.000000,0.500000,-10000.000000,-10000.000000,0.047050,3.250000,0.000000,0.000000,0.000000
62754245.000000,-3.250000,4.500000,0.062500,-0.125000,-0.125000,0.000000,0.030000,-0.010000,-0.190000,0.000000,0.000000,0.510000,-10000.000000,-10000.000000,0.096944,3.375000,0.000000,0.000000,0.000000
62764249.000000,-3.250000,4.500000,0.062500,0.000000,-0.000000,0.000000,0.020000,-0.000000,-0.180000,0.000000,0.000000,0.490000,-10000.000000,-10000.000000,-0.053032,3.250000,0.000000,0.000000,0.000000
62774253.000000,-3.250000,4.500000,0.062500,-0.125000,-0.000000,-0.062500,0.010000,-0.020000,-0.190000,0.000000,0.000000,0.490000,-10000.000000,-10000.000000,0.046853,3.375000,0.000000,0.000000,0.000000
62784256.000000,-3.250000,4.500000,0.062500,0.000000,-0.062500,0.125000,0.030000,-0.020000,-0.180000,0.000000,0.000000,0.500000,-10000.000000,-10000.000000,-0.053168,3.250000,0.000000,-0.000000,0.000000
62794259.000000,-3.250000,4.500000,0.062500,0.000000,-0.062500,0.000000,0.010000,-0.000000,-0.170000,0.000000,0.000000,0.490000,-10000.000000,-10000.000000,-0.003178,3.250000,0.000000,0.000000,0.000000
62804616.000000,-3.250000,4.500000,0.062500,0.062500,-0.250000,0.125000,0.030000,-0.030000,-0.170000,0.000000,0.000000,0.490000,-10000.000000,-10000.000000,-0.003163,3.187500,0.000000,-0.000000,0.000000
62814620.000000,-3.250000,4.500000,0.062500,-0.062500,-0.125000,0.000000,0.020000,-0.030000,-0.220000,0.000000,0.000000,0.500000,-10000.000000,-10000.000000,0.096566,3.312500,0.000000,0.000000,0.000000
62824624.000000,-3.250000,4.500000,0.062500,0.000000,-0.062500,0.000000,0.010000,-0.000000,-0.170000,0.000000,0.000000,0.510000,-10000.000000,-10000.000000,0.146561,3.250000,0.000000,0.000000,0.000000
62834627.000000,-3.250000,4.500000,0.062500,0.000000,-0.062500,-0.125000,0.030000,-0.020000,-0.150000,0.000000,0.000000,0.490000,-10000.000000,-10000.000000,-0.053265,3.250000,0.000000,0.000000,0.000000
62844631.000000,-3.250000,4.500000,0.062500,-0.062500,-0.062500,0.000000,0.010000,-0.000000,-0.160000,0.000000,0.000000,0.500000,-10000.000000,-10000.000000,-0.003220,3.312500,0.000000,0.000000,0.000000
62854635.000000,-3.250000,4.500000,0.062500,-0.187500,-0.000000,0.000000,0.000000,-0.010000,-0.170000,0.000000,0.000000,0.520000,-10000.000000,-10000.000000,0.046774,3.437500,0.000000,0.000000,0.000000
62864639.000000,-3.250000,4.500000,0.062500,-0.187500,-0.125000,0.000000,0.020000,-0.020000,-0.170000,0.000000,0.000000,0.500000,-10000.000000,-10000.000000,0.046789,3.437500,0.000000,0.000000,0.000000
62874643.000000,-3.250000,4.500000,0.062500,-0.125000,-0.062500,0.062500,0.020000,-0.040000,-0.200000,0.000000,0.000000,0.490000,-10000.000000,-10000.000000,-0.003327,3.375000,0.000000,-0.000000,0.000000
62884647.000000,-3.250000,4.500000,0.062500,0.000000,0.062500,0.125000,0.010000,-0.010000,-0.160000,0.000000,0.000000,0.490000,-10000.000000,-10000.000000,-0.053247,3.250000,-0.000000,-0.000000,0.000000
62894649.000000,-3.250000,4.500000,0.062500,0.125000,-0.062500,0.062500,0.000000,-0.030000,-0.170000,0.000000,0.000000,0.510000,-10000.000000,-10000.000000,0.096732,3.125000,0.000000,-0.000000,0.000000
62904653.000000,-3.250000,4.500000,0.062500,0.125000,-0.062500,-0.062500,0.020000,-0.030000,-0.160000,0.000000,0.000000,0.510000,-10000.000000,-10000.000000,0.096797,3.125000,0.000000,0.000000,0.000000
62914656.000000,-3.250000,4.500000,0.062500,-0.062500,-0.187500,0.000000,0.010000,-0.010000,-0.150000,0.000000,0.000000,0.500000,-10000.000000,-10000.000000,-0.003054,3.312500,0.000000,0.000000,0.000000
62924659.000000,-3.250000,4.500000,0.062500,-0.062500,0.250000,0.062500,0.030000,-0.030000,-0.210000,0.000000,0.000000,0.500000,-10000.000000,-10000.000000,-0.053219,3.312500,-0.000000,-0.000000,0.000000
62934663.000000,-3.250000,4.500000,0.062500,0.000000,0.125000,0.062500,0.010000,-0.000000,-0.160000,0.000000,0.000000,0.490000,-10000.000000,-10000.000000,-0.003165,3.250000,-0.000000,-0.000000,0.000000
62944666.000000,-3.250000,4.500000,0.062500,-0.062500,-0.125000,-0.187500,0.010000,-0.020000,-0.190000,0.000000,0.000000,0.490000,-10000.000000,-10000.000000,-0.053230,3.312500,0.000000,0.000000,0.000000
62954669.000000,-3.250000,4.500000,0.062500,-0.125000,0.187500,0.000000,0.010000,-0.020000,-0.140000,0.000000,0.000000,0.490000,-10000.000000,-10000.000000,-0.153026,3.375000,-0.000000,0.000000,0.000000
62964673.000000,-3.250000,4.500000,0.062500,-0.125000,-0.000000,0.000000,0.010000,-0.010000,-0.170000,0.000000,0.000000,0.490000,-10000.000000,-10000.000000,-0.053051,3.375000,0.000000,0.000000,0.000000
62974677.000000,-3.250000,4.500000,0.062500,-0.062500,-0.062500,0.062500,0.010000,-0.010000,-0.180000,0.000000,0.000000,0.500000,-10000.000000,-10000.000000,0.046873,3.312500,0.000000,-0.000000,0.000000
62984680.000000,-3.250000,4.500000,0.062500,0.062500,-0.062500,0.125000,0.010000,-0.030000,-0.190000,0.000000,0.000000,0.470000,-10000.000000,-10000.000000,-0.103167,3.187500,0.000000,-0.000000,0.000000
62994684.000000,-3.250000,4.500000,0.062500,0.125000,-0.000000,0.000000,0.000000,-0.010000,-0.170000,0.000000,0.000000,0.500000,-10000.000000,-10000.000000,-0.053193,3.125000,0.000000,0.000000,0.000000
63004688.000000,-3.250000,4.500000,0.062500,0.062500,-0.000000,0.062500,0.010000,-0.030000,-0.170000,0.000000,0.000000,0.500000,-10000.000000,-10000.000000,-0.053178,3.187500,0.000000,-0.000000,0.000000
63014693.000000,-3.250000,4.500000,0.062500,-0.062500,0.125000,-0.062500,0.010000,-0.010000,-0.170000,0.000000,0.000000,0.510000,-10000.000000,-10000.000000,0.046796,3.312500,-0.000000,0.000000,0.000000
63024697.000000,-3.250000,4.500000,0.062500,-0.062500,-0.000000,0.062500,0.000000,-0.010000,-0.180000,0.000000,0.000000,0.500000,-10000.000000,-10000.000000,-0.003219,3.312500,0.000000,-0.000000,0.000000
63034701.000000,-3.250000,4.500000,0.062500,0.125000,0.062500,-0.062500,0.000000,-0.010000,-0.170000,0.000000,0.000000,0.500000,-10000.000000,-10000.000000,0.046775,3.125000,-0.000000,0.000000,0.000000
63044706.000000,-3.250000,4.500000,0.062500,0.062500,-0.000000,0.125000,0.000000,-0.030000,-0.170000,0.000000,0.000000,0.510000,-10000.000000,-10000.000000,0.096765,3.187500,0.000000,-0.000000,0.000000
63054709.000000,-3.250000,4.500000,0.062500,0.062500,-0.062500,0.062500,0.030000,-0.010000,-0.160000,0.000000,0.000000,0.510000,-10000.000000,-10000.000000,0.096829,3.187500,0.000000,-0.000000,0.000000
63064713.000000,-3.250000,4.500000,0.062500,0.125000,-0.062500,-0.062500,0.010000,-0.030000,-0.160000,0.000000,0.000000,0.500000,-10000.000000,-10000.000000,0.046914,3.125000,0.000000,0.000000,0.000000
63074716.000000,-3.250000,4.500000,0.062500,0.000000,-0.000000,0.000000,0.010000,-0.010000,-0.190000,0.000000,0.000000,0.520000,-10000.000000,-10000.000000,0.096818,3.250000,0.000000,0.000000,0.000000
63084718.000000,-3.250000,4.500000,0.062500,0.062500,0.125000,0.000000,0.020000,-0.010000,-0.190000,0.000000,0.000000,0.520000,-10000.000000,-10000.000000,0.246688,3.187500,-0.000000,0.000000,0.000000
63094722.000000,-3.250000,4.500000,0.062500,0.062500,-0.062500,0.000000,0.020000,-0.020000,-0.170000,0.000000,0.000000,0.520000,-10000.000000,-10000.000000,0.096762,3.187500,0.000000,0.000000,0.000000
63104725.000000,-3.250000,4.500000,0.062500,0.062500,-0.000000,-0.062500,0.000000,-0.030000,-0.180000,0.000000,0.000000,0.530000,-10000.000000,-10000.000000,0.146712,3.187500,0.000000,0.000000,0.000000
63114728.000000,-3.250000,4.500000,0.062500,-0.062500,-0.125000,-0.125000,0.000000,-0.000000,-0.180000,0.000000,0.000000,0.510000,-10000.000000,-10000.000000,-0.003269,3.312500,0.000000,0.000000,0.000000
63124731.000000,-3.250000,4.500000,0.062500,0.062500,-0.000000,0.062500,0.000000,-0.030000,-0.180000,0.000000,0.000000,0.510000,-10000.000000,-10000.000000,0.046676,3.187500,0.000000,-0.000000,0.000000
63134735.000000,-3.250000,4.500000,0.062500,0.000000,-0.125000,0.000000,0.030000,-0.020000,-0.170000,0.000000,0.000000,0.500000,-10000.000000,-10000.000000,-0.003290,3.250000,0.000000,0.000000,0.000000
63144738.000000,-3.250000,4.500000,0.062500,-0.062500,-0.062500,0.125000,-0.010000,-0.020000,-0.140000,0.000000,0.000000,0.500000,-10000.000000,-10000.000000,-0.053100,3.312500,0.000000,-0.000000,0.000000
63154741.000000,-3.250000,4.500000,0.062500,0.062500,-0.062500,0.125000,0.000000,-0.010000,-0.190000,0.000000,0.000000,0.510000,-10000.000000,-10000.000000,-0.003201,3.187500,0.000000,-0.000000,0.000000
63164744.000000,-3.250000,4.500000,0.062500,0.062500,0.125000,0.000000,0.020000,-0.020000,-0.170000,0.000000,0.000000,0.510000,-10000.000000,-10000.000000,0.046794,3.187500,-0.000000,0.000000,0.000000
63174747.000000,-3.250000,4.500000,0.062500,0.000000,-0.062500,0.062500,0.010000,-0.030000,-0.190000,0.000000,0.000000,0.500000,-10000.000000,-10000.000000,-0.103247,3.250000,0.000000,-0.000000,0.000000
63184750.000000,-3.250000,4.500000,0.062500,-0.125000,0.062500,0.000000,0.010000,-0.010000,-0.200000,0.000000,0.000000,0.520000,-10000.000000,-10000.000000,-0.003412,3.375000,-0.000000,0.000000,0.000000
63194752.000000,-3.250000,4.500000,0.062500,0.062500,0.062500,-0.062500,0.020000,-0.000000,-0.160000,0.000000,0.000000,0.510000,-10000.000000,-10000.000000,-0.053338,3.187500,-0.000000,0.000000,0.000000
63204781.000000,-3.250000,4.500000,0.062500,-0.125000,0.187500,0.125000,0.030000,-0.030000,-0.150000,0.000000,0.000000,0.500000,-10000.000000,-10000.000000,-0.153063,3.375000,-0.000000,-0.000000,0.000000
63214783.000000,-3.250000,4.500000,0.062500,-0.125000,-0.125000,0.062500,0.010000,-0.020000,-0.170000,0.000000,0.000000,0.510000,-10000.000000,-10000.000000,-0.003089,3.375000,0.000000,-0.000000,0.000000
63224786.000000,-3.250000,4.500000,0.062500,0.125000,0.250000,0.062500,0.000000,-0.030000,-0.190000,0.000000,0.000000,0.530000,-10000.000000,-10000.000000,0.096796,3.125000,-0.000000,-0.000000,0.000000
63234790.000000,-3.250000,4.500000,0.062500,0.125000,-0.125000,0.000000,0.000000,-0.020000,-0.190000,0.000000,0.000000,0.510000,-10000.000000,-10000.000000,0.046730,3.125000,0.000000,0.000000,0.000000
63244792.000000,-3.250000,4.500000,0.062500,0.125000,-0.062500,0.125000,0.000000,-0.020000,-0.180000,0.000000,0.000000,0.500000,-10000.000000,-10000.000000,-0.003295,3.125000,0.000000,-0.000000,0.000000
63254796.000000,-3.250000,4.500000,0.062500,0.000000,-0.000000,0.062500,0.000000,-0.010000,-0.170000,0.000000,0.000000,0.510000,-10000.000000,-10000.000000,-0.003286,3.250000,0.000000,-0.000000,0.000000
63264800.000000,-3.250000,4.500000,0.062500,-0.062500,-0.062500,0.000000,0.010000,-0.030000,-0.170000,0.000000,0.000000,0.510000,-10000.000000,-10000.000000,-0.003271,3.312500,0.000000,0.000000,0.000000
63274804.000000,-3.250000,4.500000,0.062500,-0.062500,0.062500,0.062500,0.030000,-0.010000,-0.210000,0.000000,0.000000,0.500000,-10000.000000,-10000.000000,-0.003452,3.312500,-0.000000,-0.000000,0.000000
63284807.000000,-3.250000,4.500000,0.062500,0.000000,-0.187500,0.000000,0.000000,-0.030000,-0.180000,0.000000,0.000000,0.500000,-10000.000000,-10000.000000,-0.103457,3.250000,0.000000,0.000000,0.000000
63294812.000000,-3.250000,4.500000,0.062500,0.062500,-0.000000,0.000000,0.010000,-0.000000,-0.190000,0.000000,0.000000,0.500000,-10000.000000,-10000.000000,-0.053553,3.187500,0.000000,0.000000,0.000000
63306817.000000,-3.250000,4.500000,0.062500,-0.062500,0.125000,0.125000,0.010000,-0.030000,-0.180000,0.000000,0.000000,0.510000,-10000.000000,-10000.000000,0.037909,3.312500,-0.000000,-0.000000,0.000000
63316821.000000,-3.250000,4.500000,0.062500,0.062500,-0.312500,-0.062500,0.020000,-0.030000,-0.160000,0.000000,0.000000,0.500000,-10000.000000,-10000.000000,-0.061996,3.187500,0.000000,0.000000,0.000000
63326823.000000,-3.250000,4.500000,0.062500,-0.125000,0.125000,0.062500,0.010000,-0.020000,-0.170000,0.000000,0.000000,0.510000,-10000.000000,-10000.000000,-0.111962,3.375000,-0.000000,-0.000000,0.000000
63336826.000000,-3.250000,4.500000,0.062500,0.125000,-0.062500,0.125000,0.010000,-0.010000,-0.180000,0.000000,0.000000,0.500000,-10000.000000,-10000.000000,-0.062022,3.125000,0.000000,-0.000000,0.000000
63346829.000000,-3.250000,4.500000,0.062500,0.000000,-0.000000,0.000000,0.000000,-0.000000,-0.170000,0.000000,0.000000,0.480000,-10000.000000,-10000.000000,-0.111988,3.250000,0.000000,0.000000,0.000000
63356832.000000,-3.250000,4.500000,0.062500,-0.062500,-0.062500,-0.062500,0.000000,-0.010000,-0.150000,0.000000,0.000000,0.480000,-10000.000000,-10000.000000,-0.161853,3.312500,0.000000,0.000000,0.000000
63366836.000000,-3.250000,4.500000,0.062500,0.062500,-0.000000,0.062500,0.010000,-0.020000,-0.180000,0.000000,0.000000,0.490000,-10000.000000,-10000.000000,-0.111909,3.187500,0.000000,-0.000000,0.000000
63376841.000000,-3.250000,4.500000,0.062500,0.000000,0.125000,0.062500,0.030000,-0.010000,-0.210000,0.000000,0.000000,0.500000,-10000.000000,-10000.000000,-0.012139,3.250000,-0.000000,-0.000000,0.000000
63386844.000000,-3.250000,4.500000,0.062500,-0.062500,-0.187500,0.062500,0.030000,-0.030000,-0.200000,0.000000,0.000000,0.480000,-10000.000000,-10000.000000,-0.112245,3.312500,0.000000,-0.000000,0.000000
63396846.000000,-3.250000,4.500000,0.062500,0.000000,-0.062500,0.125000,0.020000,-0.000000,-0.170000,0.000000,0.000000,0.500000,-10000.000000,-10000.000000,-0.012250,3.250000,0.000000,-0.000000,0.000000
63406850.000000,-3.250000,4.500000,0.062500,0.125000,-0.062500,-0.125000,0.010000,-0.020000,-0.170000,0.000000,0.000000,0.530000,-10000.000000,-10000.000000,0.096055,3.125000,0.000000,0.000000,0.000000
63416852.000000,-3.250000,4.500000,0.062500,-0.062500,0.187500,0.000000,0.020000,-0.000000,-0.180000,0.000000,0.000000,0.500000,-10000.000000,-10000.000000,-0.003971,3.312500,-0.000000,0.000000,0.000000
63426855.000000,-3.250000,4.500000,0.062500,0.000000,0.125000,0.000000,0.030000,-0.020000,-0.190000,0.000000,0.000000,0.480000,-10000.000000,-10000.000000,-0.154016,3.250000,-0.000000,0.000000,0.000000
63436858.000000,-3.250000,4.500000,0.062500,0.000000,-0.000000,0.000000,0.010000,-0.030000,-0.190000,0.000000,0.000000,0.480000,-10000.000000,-10000.000000,-0.104117,3.250000,0.000000,0.000000,0.000000
63446861.000000,-3.250000,4.500000,0.062500,0.062500,-0.062500,0.000000,0.010000,-0.000000,-0.180000,0.000000,0.000000,0.490000,-10000.000000,-10000.000000,0.045803,3.187500,0.000000,0.000000,0.000000
63456864.000000,-3.250000,4.500000,0.062500,-0.187500,-0.000000,0.062500,0.010000,-0.020000,-0.170000,0.000000,0.000000,0.510000,-10000.000000,-10000.000000,0.145787,3.437500,0.000000,-0.000000,0.000000
63466867.000000,-3.250000,4.500000,0.062500,0.000000,-0.125000,0.062500,0.000000,-0.010000,-0.180000,0.000000,0.000000,0.510000,-10000.000000,-10000.000000,0.095772,3.250000,0.000000,-0.000000,0.000000
63476871.000000,-3.250000,4.500000,0.062500,0.062500,-0.062500,-0.062500,0.030000,-0.010000,-0.200000,0.000000,0.000000,0.500000,-10000.000000,-10000.000000,-0.004319,3.187500,0.000000,0.000000,0.000000
63486875.000000,-3.250000,4.500000,0.062500,-0.062500,-0.125000,-0.125000,0.020000,-0.010000,-0.170000,0.000000,0.000000,0.500000,-10000.000000,-10000.000000,0.095666,3.312500,0.000000,0.000000,0.000000
63496879.000000,-3.250000,4.500000,0.062500,0.062500,-0.125000,0.000000,0.020000,-0.020000,-0.170000,0.000000,0.000000,0.500000,-10000.000000,-10000.000000,-0.004300,3.187500,0.000000,0.000000,0.000000
63506885.000000,-3.250000,4.500000,0.062500,0.000000,0.062500,-0.062500,0.020000,-0.000000,-0.190000,0.000000,0.000000,0.500000,-10000.000000,-10000.000000,-0.154325,3.250000,-0.000000,0.000000,0.000000
63516888.000000,-3.250000,4.500000,0.062500,0.062500,-0.062500,0.062500,0.020000,-0.010000,-0.190000,0.000000,0.000000,0.510000,-10000.000000,-10000.000000,0.045544,3.187500,0.000000,-0.000000,0.000000
63526892.000000,-3.250000,4.500000,0.062500,0.187500,-0.062500,0.125000,0.010000,-0.000000,-0.200000,0.000000,0.000000,0.500000,-10000.000000,-10000.000000,0.095399,3.062500,0.000000,-0.000000,0.000000
63536895.000000,-3.250000,4.500000,0.062500,0.062500,0.187500,0.125000,0.020000,-0.010000,-0.180000,0.000000,0.000000,0.500000,-10000.000000,-10000.000000,0.095363,3.187500,-0.000000,-0.000000,0.000000
63546899.000000,-3.250000,4.500000,0.062500,-0.062500,-0.000000,0.000000,0.020000,-0.020000,-0.150000,0.000000,0.000000,0.500000,-10000.000000,-10000.000000,0.045493,3.312500,0.000000,0.000000,0.000000
63556901.000000,-3.250000,4.500000,0.062500,-0.125000,0.062500,0.000000,0.010000,-0.000000,-0.180000,0.000000,0.000000,0.490000,-10000.000000,-10000.000000,-0.104503,3.375000,-0.000000,0.000000,0.000000
63566905.000000,-3.250000,4.500000,0.062500,0.062500,0.062500,0.062500,0.010000,-0.020000,-0.180000,0.000000,0.000000,0.480000,-10000.000000,-10000.000000,-0.154518,3.187500,-0.000000,-0.000000,0.000000
63576909.000000,-3.250000,4.500000,0.062500,0.062500,0.125000,0.000000,0.000000,-0.020000,-0.180000,0.000000,0.000000,0.520000,-10000.000000,-10000.000000,0.095346,3.187500,-0.000000,0.000000,0.000000
63586912.000000,-3.250000,4.500000,0.062500,0.000000,-0.187500,0.000000,0.010000,-0.020000,-0.170000,0.000000,0.000000,0.490000,-10000.000000,-10000.000000,-0.054594,3.250000,0.000000,0.000000,0.000000
63596915.000000,-3.250000,4.500000,0.062500,-0.062500,-0.000000,0.125000,0.030000,-0.010000,-0.180000,0.000000,0.000000,0.510000,-10000.000000,-10000.000000,0.045340,3.312500,0.000000,-0.000000,0.000000
63606920.000000,-3.250000,4.500000,0.062500,0.000000,-0.062500,-0.062500,0.000000,-0.030000,-0.180000,0.000000,0.000000,0.490000,-10000.000000,-10000.000000,-0.054645,3.250000,0.000000,0.000000,0.000000
63616923.000000,-3.250000,4.500000,0.062500,0.125000,0.062500,0.000000,0.000000,-0.020000,-0.170000,0.000000,0.000000,0.490000,-10000.000000,-10000.000000,-0.104616,3.125000,-0.000000,0.000000,0.000000
63627126.000000,-3.250000,4.500000,0.062500,0.000000,0.187500,0.000000,0.020000,-0.030000,-0.190000,0.000000,0.000000,0.480000,-10000.000000,-10000.000000,-0.103728,3.250000,-0.000000,0.000000,0.000000
63637130.000000,-3.250000,4.500000,0.062500,0.000000,0.187500,-0.062500,0.000000,-0.030000,-0.190000,0.000000,0.000000,0.480000,-10000.000000,-10000.000000,-0.103814,3.250000,-0.000000,0.000000,0.000000
63647134.000000,-3.250000,4.500000,0.062500,0.000000,0.187500,0.000000,0.030000,-0.030000,-0.160000,0.000000,0.000000,0.490000,-10000.000000,-10000.000000,-0.053769,3.250000,-0.000000,0.000000,0.000000
63657138.000000,-3.250000,4.500000,0.062500,0.062500,-0.062500,0.000000,0.010000,-0.020000,-0.170000,0.000000,0.000000,0.490000,-10000.000000,-10000.000000,-0.003765,3.187500,0.000000,0.000000,0.000000
63667143.000000,-3.250000,4.500000,0.062500,0.125000,-0.000000,-0.125000,0.020000,-0.030000,-0.160000,0.000000,0.000000,0.510000,-10000.000000,-10000.000000,0.146230,3.125000,0.000000,0.000000,0.000000
63677147.000000,-3.250000,4.500000,0.062500,0.000000,-0.125000,0.062500,0.000000,-0.000000,-0.200000,0.000000,0.000000,0.510000,-10000.000000,-10000.000000,-0.053826,3.250000,0.000000,-0.000000,0.000000
63687150.000000,-3.250000,4.500000,0.062500,0.000000,0.062500,0.000000,0.000000,-0.030000,-0.190000,0.000000,0.000000,0.490000,-10000.000000,-10000.000000,-0.003926,3.250000,-0.000000,0.000000,0.000000
63697154.000000,-3.250000,4.500000,0.062500,0.062500,0.187500,-0.062500,0.000000,-0.030000,-0.180000,0.000000,0.000000,0.490000,-10000.000000,-10000.000000,-0.103932,3.187500,-0.000000,0.000000,0.000000
63707167.000000,-3.250000,4.500000,0.062500,0.062500,-0.250000,-0.062500,0.010000,-0.010000,-0.190000,0.000000,0.000000,0.490000,-10000.000000,-10000.000000,-0.004068,3.187500,0.000000,0.000000,0.000000
63717171.000000,-3.250000,4.500000,0.062500,0.062500,-0.187500,0.000000,0.030000,-0.000000,-0.160000,0.000000,0.000000,0.500000,-10000.000000,-10000.000000,0.045977,3.187500,0.000000,0.000000,0.000000
63727175.000000,-3.250000,4.500000,0.062500,0.000000,0.250000,0.125000,0.020000,-0.020000,-0.200000,0.000000,0.000000,0.490000,-10000.000000,-10000.000000,0.044867,3.250000,-0.000000,-0.000000,0.000000
63737180.000000,-3.250000,4.500000,0.062500,0.062500,0.125000,0.062500,0.000000,-0.020000,-0.190000,0.000000,0.000000,0.490000,-10000.000000,-10000.000000,0.044781,3.187500,-0.000000,-0.000000,0.000000
63747184.000000,-3.250000,4.500000,0.062500,0.000000,-0.000000,0.062500,0.010000,-0.030000,-0.180000,0.000000,0.000000,0.500000,-10000.000000,-10000.000000,0.044746,3.250000,0.000000,-0.000000,0.000000
63757186.000000,-3.250000,4.500000,0.062500,-0.062500,0.125000,0.062500,0.010000,-0.000000,-0.170000,0.000000,0.000000,0.510000,-10000.000000,-10000.000000,0.094750,3.312500,-0.000000,-0.000000,0.000000
63767189.000000,-3.250000,4.500000,0.062500,0.062500,-0.000000,0.062500,0.040000,-0.030000,-0.200000,0.000000,0.000000,0.500000,-10000.000000,-10000.000000,-0.055320,3.187500,0.000000,-0.000000,0.000000
63778713.000000,-3.250000,4.500000,0.062500,0.000000,-0.062500,-0.062500,0.030000,-0.020000,-0.190000,0.000000,0.000000,0.490000,-10000.000000,-10000.000000,-0.098807,3.250000,0.000000,0.000000,0.000000
63789881.000000,-3.250000,4.500000,0.062500,0.000000,-0.000000,0.187500,0.020000,-0.020000,-0.190000,0.000000,0.000000,0.480000,-10000.000000,-10000.000000,-0.043703,3.250000,0.000000,-0.000000,0.000000
63799917.000000,-3.250000,4.500000,0.062500,-0.125000,-0.000000,0.000000,0.000000,-0.010000,-0.150000,0.000000,0.000000,0.500000,-10000.000000,-10000.000000,0.056053,3.375000,0.000000,0.000000,0.000000
63811283.000000,-3.250000,4.500000,0.062500,0.000000,0.062500,0.125000,0.000000,-0.030000,-0.180000,0.000000,0.000000,0.500000,-10000.000000,-10000.000000,0.056013,3.250000,-0.000000,-0.000000,0.000000
63821288.000000,-3.250000,4.500000,0.062500,0.125000,-0.062500,0.125000,0.000000,-0.010000,-0.140000,0.000000,0.000000,0.500000,-10000.000000,-10000.000000,0.006197,3.125000,0.000000,-0.000000,0.000000
63832336.000000,-3.250000,4.500000,0.062500,-0.062500,0.062500,-0.062500,0.000000,-0.020000,-0.200000,0.000000,0.000000,0.500000,-10000.000000,-10000.000000,0.056028,3.312500,-0.000000,0.000000,0.000000
63842338.000000,-3.250000,4.500000,0.062500,-0.125000,0.062500,0.000000,0.010000,-0.010000,-0.170000,0.000000,0.000000,0.510000,-10000.000000,-10000.000000,0.106032,3.375000,-0.000000,0.000000,0.000000
63852342.000000,-3.250000,4.500000,0.062500,0.062500,-0.062500,0.062500,0.010000,-0.010000,-0.170000,0.000000,0.000000,0.500000,-10000.000000,-10000.000000,0.006087,3.187500,0.000000,-0.000000,0.000000
63862646.000000,-3.250000,4.500000,0.062500,-0.125000,0.062500,0.000000,0.030000,-0.020000,-0.210000,0.000000,0.000000,0.490000,-10000.000000,-10000.000000,-0.092619,3.375000,-0.000000,0.000000,0.000000
63872649.000000,-3.250000,4.500000,0.062500,-0.062500,0.125000,0.062500,0.020000,-0.010000,-0.190000,0.000000,0.000000,0.500000,-10000.000000,-10000.000000,0.007265,3.312500,-0.000000,-0.000000,0.000000
63882653.000000,-3.250000,4.500000,0.062500,0.062500,-0.125000,-0.062500,0.010000,-0.000000,-0.180000,0.000000,0.000000,0.520000,-10000.000000,-10000.000000,0.150577,3.187500,0.000000,0.000000,0.000000
63892657.000000,-3.250000,4.500000,0.062500,-0.125000,-0.000000,0.000000,0.000000,-0.020000,-0.170000,0.000000,0.000000,0.500000,-10000.000000,-10000.000000,0.095403,3.375000,0.000000,0.000000,0.000000
63902766.000000,-3.250000,4.500000,0.062500,0.062500,-0.062500,0.062500,0.000000,-0.020000,-0.170000,0.000000,0.000000,0.490000,-10000.000000,-10000.000000,-0.053685,3.187500,0.000000,-0.000000,0.000000
63912768.000000,-3.250000,4.500000,0.062500,0.000000,-0.000000,-0.125000,0.010000,-0.010000,-0.200000,0.000000,0.000000,0.490000,-10000.000000,-10000.000000,-0.053820,3.250000,0.000000,0.000000,0.000000
63922771.000000,-3.250000,4.500000,0.062500,0.000000,0.062500,0.125000,0.020000,-0.030000,-0.160000,0.000000,0.000000,0.500000,-10000.000000,-10000.000000,-0.003771,3.250000,-0.000000,-0.000000,0.000000
63932775.000000,-3.250000,4.500000,0.062500,-0.062500,-0.187500,0.000000,0.030000,-0.030000,-0.180000,0.000000,0.000000,0.500000,-10000.000000,-10000.000000,-0.003806,3.312500,0.000000,0.000000,0.000000
63944142.000000,-3.250000,4.500000,0.062500,0.125000,-0.062500,-0.125000,0.030000,-0.020000,-0.170000,0.000000,0.000000,0.500000,-10000.000000,-10000.000000,-0.053780,3.125000,0.000000,0.000000,0.000000
63954145.000000,-3.250000,4.500000,0.062500,0.062500,-0.062500,0.000000,0.010000,-0.000000,-0.180000,0.000000,0.000000,0.510000,-10000.000000,-10000.000000,0.046150,3.187500,0.000000,0.000000,0.000000
63967117.000000,-3.250000,4.500000,0.062500,0.000000,-0.062500,0.125000,0.020000,-0.010000,-0.170000,0.000000,0.000000,0.500000,-10000.000000,-10000.000000,0.056149,3.250000,0.000000,-0.000000,0.000000
63977120.000000,-3.250000,4.500000,0.062500,0.062500,0.062500,0.187500,0.010000,-0.020000,-0.180000,0.000000,0.000000,0.500000,-10000.000000,-10000.000000,0.006128,3.187500,-0.000000,-0.000000,0.000000
63987123.000000,-3.250000,4.500000,0.062500,-0.125000,0.250000,0.062500,0.020000,-0.020000,-0.170000,0.000000,0.000000,0.480000,-10000.000000,-10000.000000,-0.193787,3.375000,-0.000000,-0.000000,0.000000
63997128.000000,-3.250000,4.500000,0.062500,0.000000,0.125000,0.000000,0.010000,-0.020000,-0.190000,0.000000,0.000000,0.500000,-10000.000000,-10000.000000,0.006037,3.250000,-0.000000,0.000000,0.000000
64007131.000000,-3.250000,4.500000,0.062500,-0.062500,-0.125000,0.125000,0.010000,-0.010000,-0.140000,0.000000,0.000000,0.490000,-10000.000000,-10000.000000,0.005678,3.312500,0.000000,-0.000000,0.000000
64018249.000000,-3.250000,4.500000,0.062500,0.125000,-0.000000,0.062500,0.000000,-0.000000,-0.170000,0.000000,0.000000,0.490000,-10000.000000,-10000.000000,0.005694,3.125000,0.000000,-0.000000,0.000000
64028254.000000,-3.250000,4.500000,0.062500,0.062500,-0.062500,0.000000,0.020000,-0.000000,-0.200000,0.000000,0.000000,0.500000,-10000.000000,-10000.000000,0.005548,3.187500,0.000000,0.000000,0.000000
64038258.000000,-3.250000,4.500000,0.062500,0.000000,0.062500,0.125000,0.010000,-0.020000,-0.180000,0.000000,0.000000,0.500000,-10000.000000,-10000.000000,0.005513,3.250000,-0.000000,-0.000000,0.000000
64048262.000000,-3.250000,4.500000,0.062500,-0.062500,-0.000000,0.062500,0.030000,-0.020000,-0.190000,0.000000,0.000000,0.510000,-10000.000000,-10000.000000,0.055407,3.312500,0.000000,-0.000000,0.000000
64058264.000000,-3.250000,4.500000,0.062500,-0.125000,-0.187500,0.000000,0.010000,-0.000000,-0.170000,0.000000,0.000000,0.490000,-10000.000000,-10000.000000,-0.094543,3.375000,0.000000,0.000000,0.000000
64068268.000000,-3.250000,4.500000,0.062500,0.062500,-0.000000,0.125000,0.010000,-0.010000,-0.180000,0.000000,0.000000,0.510000,-10000.000000,-10000.000000,0.043926,3.187500,0.000000,-0.000000,0.000000
64078273.000000,-3.250000,4.500000,0.062500,-0.062500,-0.000000,0.000000,0.020000,-0.030000,-0.180000,0.000000,0.000000,0.510000,-10000.000000,-10000.000000,0.043890,3.312500,0.000000,0.000000,0.000000
64088276.000000,-3.250000,4.500000,0.062500,0.125000,0.125000,0.062500,0.010000,-0.000000,-0.200000,0.000000,0.000000,0.490000,-10000.000000,-10000.000000,0.043755,3.125000,-0.000000,-0.000000,0.000000
64098279.000000,-3.250000,4.500000,0.062500,0.000000,-0.000000,0.125000,0.000000,-0.020000,-0.170000,0.000000,0.000000,0.500000,-10000.000000,-10000.000000,-0.006196,3.250000,0.000000,-0.000000,0.000000
64108281.000000,-3.250000,4.500000,0.062500,0.000000,0.062500,0.062500,0.000000,-0.000000,-0.150000,0.000000,0.000000,0.500000,-10000.000000,-10000.000000,0.043904,3.250000,-0.000000,-0.000000,0.000000
64118285.000000,-3.250000,4.500000,0.062500,0.062500,0.062500,0.000000,0.010000,-0.020000,-0.160000,0.000000,0.000000,0.520000,-10000.000000,-10000.000000,0.143928,3.187500,-0.000000,0.000000,0.000000
64128288.000000,-3.250000,4.500000,0.062500,0.000000,-0.187500,0.062500,0.010000,-0.040000,-0.170000,0.000000,0.000000,0.490000,-10000.000000,-10000.000000,-0.055987,3.250000,0.000000,-0.000000,0.000000
64138292.000000,-3.250000,4.500000,0.062500,-0.062500,0.062500,0.000000,0.020000,-0.000000,-0.160000,0.000000,0.000000,0.500000,-10000.000000,-10000.000000,-0.005943,3.312500,-0.000000,0.000000,0.000000
64148295.000000,-3.250000,4.500000,0.062500,0.062500,0.062500,0.062500,0.030000,-0.010000,-0.180000,0.000000,0.000000,0.500000,-10000.000000,-10000.000000,-0.055958,3.187500,-0.000000,-0.000000,0.000000
64158298.000000,-3.250000,4.500000,0.062500,-0.125000,0.125000,0.125000,0.020000,-0.030000,-0.170000,0.000000,0.000000,0.500000,-10000.000000,-10000.000000,0.044036,3.375000,-0.000000,-0.000000,0.000000
64168301.000000,-3.250000,4.500000,0.062500,0.125000,0.062500,0.000000,0.000000,-0.020000,-0.160000,0.000000,0.000000,0.490000,-10000.000000,-10000.000000,-0.105844,3.125000,-0.000000,0.000000,0.000000
64178303.000000,-3.250000,4.500000,0.062500,0.125000,0.125000,0.000000,0.020000,-0.010000,-0.180000,0.000000,0.000000,0.500000,-10000.000000,-10000.000000,-0.055890,3.125000,-0.000000,0.000000,0.000000
64188307.000000,-3.250000,4.500000,0.062500,0.062500,-0.062500,-0.125000,0.010000,-0.010000,-0.170000,0.000000,0.000000,0.500000,-10000.000000,-10000.000000,0.044095,3.187500,0.000000,0.000000,0.000000
64198311.000000,-3.250000,4.500000,0.062500,0.062500,-0.187500,-0.187500,0.020000,-0.020000,-0.170000,0.000000,0.000000,0.490000,-10000.000000,-10000.000000,-0.055856,3.187500,0.000000,0.000000,0.000000
64208314.000000,-3.250000,4.500000,0.062500,0.000000,-0.125000,-0.062500,0.000000,-0.040000,-0.160000,0.000000,0.000000,0.500000,-10000.000000,-10000.000000,-0.005806,3.250000,0.000000,0.000000,0.000000
64218317.000000,-3.250000,4.500000,0.062500,0.000000,-0.125000,0.000000,0.020000,-0.000000,-0.170000,0.000000,0.000000,0.480000,-10000.000000,-10000.000000,-0.205722,3.250000,0.000000,0.000000,0.000000
64228329.000000,-3.250000,4.500000,0.062500,0.062500,-0.000000,-0.062500,0.020000,-0.010000,-0.190000,0.000000,0.000000,0.490000,-10000.000000,-10000.000000,-0.005912,3.187500,0.000000,0.000000,0.000000
64238333.000000,-3.250000,4.500000,0.062500,-0.125000,-0.062500,-0.125000,0.000000,-0.010000,-0.170000,0.000000,0.000000,0.490000,-10000.000000,-10000.000000,-0.055878,3.375000,0.000000,0.000000,0.000000
64248336.000000,-3.250000,4.500000,0.062500,0.000000,-0.000000,-0.125000,0.010000,-0.030000,-0.180000,0.000000,0.000000,0.500000,-10000.000000,-10000.000000,-0.005928,3.250000,0.000000,0.000000,0.000000
64258340.000000,-3.250000,4.500000,0.062500,0.062500,-0.125000,0.062500,0.010000,-0.010000,-0.160000,0.000000,0.000000,0.490000,-10000.000000,-10000.000000,-0.055844,3.187500,0.000000,-0.000000,0.000000
64268342.000000,-3.250000,4.500000,0.062500,0.062500,-0.187500,-0.187500,0.000000,-0.020000,-0.160000,0.000000,0.000000,0.510000,-10000.000000,-10000.000000,0.094186,3.187500,0.000000,0.000000,0.000000
64278345.000000,-3.250000,4.500000,0.062500,0.000000,-0.187500,0.000000,0.020000,-0.020000,-0.160000,0.000000,0.000000,0.500000,-10000.000000,-10000.000000,-0.005725,3.250000,0.000000,0.000000,0.000000
64288349.000000,-3.250000,4.500000,0.062500,0.000000,0.062500,0.062500,0.000000,-0.030000,-0.200000,0.000000,0.000000,0.490000,-10000.000000,-10000.000000,-0.055840,3.250000,-0.000000,-0.000000,0.000000
64298352.000000,-3.250000,4.500000,0.062500,0.000000,-0.000000,-0.062500,0.020000,-0.030000,-0.200000,0.000000,0.000000,0.500000,-10000.000000,-10000.000000,0.043989,3.250000,0.000000,0.000000,0.000000
64308354.000000,-3.250000,4.500000,0.062500,0.062500,-0.250000,-0.062500,0.000000,-0.020000,-0.170000,0.000000,0.000000,0.510000,-10000.000000,-10000.000000,0.044009,3.187500,0.000000,0.000000,0.000000
64318357.000000,-3.250000,4.500000,0.062500,-0.062500,-0.062500,-0.187500,0.000000,-0.030000,-0.180000,0.000000,0.000000,0.480000,-10000.000000,-10000.000000,-0.006012,3.312500,0.000000,0.000000,0.000000
64328361.000000,-3.250000,4.500000,0.062500,-0.062500,0.062500,-0.062500,0.010000,-0.030000,-0.170000,0.000000,0.000000,0.520000,-10000.000000,-10000.000000,0.143983,3.312500,-0.000000,0.000000,0.000000
64338366.000000,-3.250000,4.500000,0.062500,0.062500,-0.062500,-0.125000,0.020000,-0.020000,-0.180000,0.000000,0.000000,0.480000,-10000.000000,-10000.000000,-0.055953,3.187500,0.000000,0.000000,0.000000
64348577.000000,-3.250000,4.500000,0.062500,-0.062500,-0.125000,0.000000,0.000000,-0.010000,-0.210000,0.000000,0.000000,0.510000,-10000.000000,-10000.000000,0.040773,3.312500,0.000000,0.000000,0.000000
64358581.000000,-3.250000,4.500000,0.062500,0.062500,-0.125000,-0.062500,0.010000,-0.030000,-0.170000,0.000000,0.000000,0.490000,-10000.000000,-10000.000000,-0.009192,3.187500,0.000000,0.000000,0.000000
64368918.000000,-3.250000,4.500000,0.062500,-0.062500,-0.000000,-0.125000,0.010000,-0.010000,-0.210000,0.000000,0.000000,0.500000,-10000.000000,-10000.000000,-0.060994,3.312500,0.000000,0.000000,0.000000
64378921.000000,-3.250000,4.500000,0.062500,0.000000,-0.000000,-0.125000,0.000000,-0.030000,-0.190000,0.000000,0.000000,0.510000,-10000.000000,-10000.000000,0.038890,3.250000,0.000000,0.000000,0.000000
64388969.000000,-3.250000,4.500000,0.062500,0.000000,-0.062500,-0.062500,0.020000,-0.000000,-0.210000,0.000000,0.000000,0.500000,-10000.000000,-10000.000000,0.038923,3.250000,0.000000,0.000000,0.000000
64398972.000000,-3.250000,4.500000,0.062500,-0.062500,-0.062500,-0.062500,0.000000,-0.040000,-0.190000,0.000000,0.000000,0.500000,-10000.000000,-10000.000000,-0.011148,3.312500,0.000000,0.000000,0.000000
64408976.000000,-3.250000,4.500000,0.062500,-0.062500,-0.000000,-0.062500,0.010000,-0.000000,-0.180000,0.000000,0.000000,0.500000,-10000.000000,-10000.000000,-0.061173,3.312500,0.000000,0.000000,0.000000
64418979.000000,-3.250000,4.500000,0.062500,0.125000,-0.062500,-0.125000,0.020000,-0.020000,-0.170000,0.000000,0.000000,0.490000,-10000.000000,-10000.000000,0.038811,3.125000,0.000000,0.000000,0.000000
64428984.000000,-3.250000,4.500000,0.062500,0.000000,-0.000000,0.000000,0.020000,-0.030000,-0.220000,0.000000,0.000000,0.490000,-10000.000000,-10000.000000,-0.161344,3.250000,0.000000,0.000000,0.000000
64438986.000000,-3.250000,4.500000,0.062500,-0.062500,0.125000,0.000000,0.010000,-0.020000,-0.180000,0.000000,0.000000,0.520000,-10000.000000,-10000.000000,0.188490,3.312500,-0.000000,0.000000,0.000000
64448990.000000,-3.250000,4.500000,0.062500,0.000000,0.125000,-0.062500,0.010000,-0.010000,-0.180000,0.000000,0.000000,0.500000,-10000.000000,-10000.000000,-0.058406,3.250000,-0.000000,0.000000,0.000000
64458992.000000,-3.250000,4.500000,0.062500,-0.062500,0.250000,0.000000,0.010000,-0.010000,-0.180000,0.000000,0.000000,0.480000,-10000.000000,-10000.000000,-0.058461,3.312500,-0.000000,0.000000,0.000000
64468995.000000,-3.250000,4.500000,0.062500,0.000000,0.125000,0.000000,0.010000,-0.010000,-0.170000,0.000000,0.000000,0.510000,-10000.000000,-10000.000000,0.043138,3.250000,-0.000000,0.000000,0.000000
64478997.000000,-3.250000,4.500000,0.062500,-0.125000,-0.187500,-0.062500,0.000000,-0.030000,-0.220000,0.000000,0.000000,0.500000,-10000.000000,-10000.000000,-0.057072,3.375000,0.000000,0.000000,0.000000
64489001.000000,-3.250000,4.500000,0.062500,0.000000,-0.187500,0.000000,0.020000,-0.020000,-0.190000,0.000000,0.000000,0.500000,-10000.000000,-10000.000000,-0.007397,3.250000,0.000000,0.000000,0.000000
64499005.000000,-3.250000,4.500000,0.062500,-0.187500,-0.000000,-0.125000,0.010000,-0.020000,-0.160000,0.000000,0.000000,0.490000,-10000.000000,-10000.000000,-0.057312,3.437500,0.000000,0.000000,0.000000
64509010.000000,-3.250000,4.500000,0.062500,0.062500,-0.062500,-0.062500,0.020000,-0.020000,-0.190000,0.000000,0.000000,0.490000,-10000.000000,-10000.000000,-0.057398,3.187500,0.000000,0.000000,0.000000
64519014.000000,-3.250000,4.500000,0.062500,0.000000,-0.062500,-0.062500,0.000000,-0.010000,-0.200000,0.000000,0.000000,0.510000,-10000.000000,-10000.000000,0.092412,3.250000,0.000000,0.000000,0.000000
64529016.000000,-3.250000,4.500000,0.062500,-0.125000,-0.000000,-0.062500,0.010000,-0.030000,-0.180000,0.000000,0.000000,0.500000,-10000.000000,-10000.000000,0.042386,3.375000,0.000000,0.000000,0.000000
64539020.000000,-3.250000,4.500000,0.062500,-0.062500,-0.000000,0.000000,0.000000,-0.020000,-0.200000,0.000000,0.000000,0.490000,-10000.000000,-10000.000000,-0.157699,3.312500,0.000000,0.000000,0.000000
64549024.000000,-3.250000,4.500000,0.062500,-0.062500,0.062500,0.000000,0.010000,-0.010000,-0.170000,0.000000,0.000000,0.500000,-10000.000000,-10000.000000,-0.007745,3.312500,-0.000000,0.000000,0.000000
64559028.000000,-3.250000,4.500000,0.062500,0.062500,-0.062500,-0.062500,0.000000,-0.020000,-0.150000,0.000000,0.000000,0.490000,-10000.000000,-10000.000000,0.042370,3.187500,0.000000,0.000000,0.000000
64569031.000000,-3.250000,4.500000,0.062500,-0.062500,-0.250000,-0.187500,0.020000,-0.000000,-0.160000,0.000000,0.000000,0.480000,-10000.000000,-10000.000000,-0.157506,3.312500,0.000000,0.000000,0.000000
64579035.000000,-3.250000,4.500000,0.062500,-0.062500,-0.125000,-0.062500,0.020000,-0.020000,-0.170000,0.000000,0.000000,0.500000,-10000.000000,-10000.000000,-0.007541,3.312500,0.000000,0.000000,0.000000
64589040.000000,-3.250000,4.500000,0.062500,0.000000,-0.000000,-0.062500,0.000000,-0.010000,-0.190000,0.000000,0.000000,0.480000,-10000.000000,-10000.000000,-0.107577,3.250000,0.000000,0.000000,0.000000
64599044.000000,-3.250000,4.500000,0.062500,-0.062500,-0.125000,0.000000,0.010000,-0.000000,-0.180000,0.000000,0.000000,0.500000,-10000.000000,-10000.000000,0.042328,3.312500,0.000000,0.000000,0.000000
64609047.000000,-3.250000,4.500000,0.062500,0.000000,-0.000000,-0.062500,0.010000,-0.010000,-0.160000,0.000000,0.000000,0.500000,-10000.000000,-10000.000000,0.042392,3.250000,0.000000,0.000000,0.000000
64619052.000000,-3.250000,4.500000,0.062500,0.187500,0.125000,-0.125000,0.010000,-0.040000,-0.160000,0.000000,0.000000,0.500000,-10000.000000,-10000.000000,-0.057503,3.062500,-0.000000,0.000000,0.000000
64629055.000000,-3.250000,4.500000,0.062500,-0.125000,-0.062500,-0.062500,0.030000,-0.000000,-0.180000,0.000000,0.000000,0.500000,-10000.000000,-10000.000000,-0.007549,3.375000,0.000000,0.000000,0.000000
64639059.000000,-3.250000,4.500000,0.062500,0.000000,-0.062500,0.000000,0.050000,-0.000000,-0.200000,0.000000,0.000000,0.490000,-10000.000000,-10000.000000,-0.007684,3.250000,0.000000,0.000000,0.000000
